@Olympus/+0900/+0900
$GPGGA,135453.7,3443.4904,N,08633.1253,W,1,,,215.1,M,,M,,*79
$GPRMC,135453.7,A,3443.4904,N,08633.1253,W,,,271118,,*1D
$GPGGA,135514.2,3443.4852,N,08633.1267,W,1,,,215.5,M,,M,,*7F
$GPRMC,135514.2,A,3443.4852,N,08633.1267,W,,,271118,,*1F
$GPGGA,135544.0,3443.4899,N,08633.1250,W,1,,,217.2,M,,M,,*7E
$GPRMC,135544.0,A,3443.4899,N,08633.1250,W,,,271118,,*1B
$GPGGA,135614.0,3443.4904,N,08633.1248,W,1,,,219.6,M,,M,,*7E
$GPRMC,135614.0,A,3443.4904,N,08633.1248,W,,,271118,,*11
$GPGGA,135643.5,3443.4906,N,08633.1248,W,1,,,219.0,M,,M,,*7D
$GPRMC,135643.5,A,3443.4906,N,08633.1248,W,,,271118,,*14
$GPGGA,135713.0,3443.4890,N,08633.1305,W,1,,,217.7,M,,M,,*73
$GPRMC,135713.0,A,3443.4890,N,08633.1305,W,,,271118,,*13
$GPGGA,135743.0,3443.4901,N,08633.1294,W,1,,,219.4,M,,M,,*7B
$GPRMC,135743.0,A,3443.4901,N,08633.1294,W,,,271118,,*16
$GPGGA,135813.0,3443.4909,N,08633.1289,W,1,,,218.6,M,,M,,*76
$GPRMC,135813.0,A,3443.4909,N,08633.1289,W,,,271118,,*18
$GPGGA,135843.0,3443.4914,N,08633.1286,W,1,,,221.6,M,,M,,*7A
$GPRMC,135843.0,A,3443.4914,N,08633.1286,W,,,271118,,*1E
$GPGGA,135913.0,3443.4917,N,08633.1285,W,1,,,222.9,M,,M,,*72
$GPRMC,135913.0,A,3443.4917,N,08633.1285,W,,,271118,,*1A
$GPGGA,135943.0,3443.4917,N,08633.1283,W,1,,,223.3,M,,M,,*7A
$GPRMC,135943.0,A,3443.4917,N,08633.1283,W,,,271118,,*19
$GPGGA,140013.0,3443.4919,N,08633.1282,W,1,,,222.9,M,,M,,*70
$GPRMC,140013.0,A,3443.4919,N,08633.1282,W,,,271118,,*18
$GPGGA,140043.0,3443.4921,N,08633.1281,W,1,,,221.9,M,,M,,*7E
$GPRMC,140043.0,A,3443.4921,N,08633.1281,W,,,271118,,*15
$GPGGA,140113.0,3443.4922,N,08633.1281,W,1,,,221.8,M,,M,,*78
$GPRMC,140113.0,A,3443.4922,N,08633.1281,W,,,271118,,*12
$GPGGA,140143.0,3443.4922,N,08633.1281,W,1,,,222.4,M,,M,,*72
$GPRMC,140143.0,A,3443.4922,N,08633.1281,W,,,271118,,*17
$GPGGA,140213.0,3443.4922,N,08633.1280,W,1,,,222.5,M,,M,,*74
$GPRMC,140213.0,A,3443.4922,N,08633.1280,W,,,271118,,*10
$GPGGA,140243.0,3443.4921,N,08633.1279,W,1,,,222.6,M,,M,,*77
$GPRMC,140243.0,A,3443.4921,N,08633.1279,W,,,271118,,*10
$GPGGA,140313.0,3443.4919,N,08633.1277,W,1,,,222.6,M,,M,,*76
$GPRMC,140313.0,A,3443.4919,N,08633.1277,W,,,271118,,*11
$GPGGA,140343.0,3443.4919,N,08633.1274,W,1,,,222.4,M,,M,,*72
$GPRMC,140343.0,A,3443.4919,N,08633.1274,W,,,271118,,*17
$GPGGA,140413.0,3443.4918,N,08633.1272,W,1,,,222.5,M,,M,,*76
$GPRMC,140413.0,A,3443.4918,N,08633.1272,W,,,271118,,*12
$GPGGA,140443.0,3443.4916,N,08633.1269,W,1,,,221.8,M,,M,,*79
$GPRMC,140443.0,A,3443.4916,N,08633.1269,W,,,271118,,*13
$GPGGA,140513.0,3443.4915,N,08633.1267,W,1,,,221.7,M,,M,,*7F
$GPRMC,140513.0,A,3443.4915,N,08633.1267,W,,,271118,,*1A
$GPGGA,140543.0,3443.4916,N,08633.1264,W,1,,,222.0,M,,M,,*7E
$GPRMC,140543.0,A,3443.4916,N,08633.1264,W,,,271118,,*1F
$GPGGA,140613.0,3443.4917,N,08633.1262,W,1,,,222.0,M,,M,,*7F
$GPRMC,140613.0,A,3443.4917,N,08633.1262,W,,,271118,,*1E
$GPGGA,140643.0,3443.4918,N,08633.1263,W,1,,,221.9,M,,M,,*7E
$GPRMC,140643.0,A,3443.4918,N,08633.1263,W,,,271118,,*15
$GPGGA,140713.0,3443.4919,N,08633.1263,W,1,,,221.8,M,,M,,*7A
$GPRMC,140713.0,A,3443.4919,N,08633.1263,W,,,271118,,*10
$GPGGA,140743.0,3443.4919,N,08633.1263,W,1,,,221.8,M,,M,,*7F
$GPRMC,140743.0,A,3443.4919,N,08633.1263,W,,,271118,,*15
$GPGGA,140813.0,3443.4919,N,08633.1263,W,1,,,221.8,M,,M,,*75
$GPRMC,140813.0,A,3443.4919,N,08633.1263,W,,,271118,,*1F
$GPGGA,140843.0,3443.4919,N,08633.1263,W,1,,,222.0,M,,M,,*7B
$GPRMC,140843.0,A,3443.4919,N,08633.1263,W,,,271118,,*1A
$GPGGA,140913.0,3443.4919,N,08633.1263,W,1,,,222.1,M,,M,,*7E
$GPRMC,140913.0,A,3443.4919,N,08633.1263,W,,,271118,,*1E
$GPGGA,140943.0,3443.4919,N,08633.1263,W,1,,,222.3,M,,M,,*79
$GPRMC,140943.0,A,3443.4919,N,08633.1263,W,,,271118,,*1B
$GPGGA,141013.0,3443.4918,N,08633.1264,W,1,,,222.4,M,,M,,*75
$GPRMC,141013.0,A,3443.4918,N,08633.1264,W,,,271118,,*10
$GPGGA,141043.0,3443.4918,N,08633.1265,W,1,,,222.9,M,,M,,*7C
$GPRMC,141043.0,A,3443.4918,N,08633.1265,W,,,271118,,*14
$GPGGA,141113.0,3443.4920,N,08633.1259,W,1,,,223.5,M,,M,,*71
$GPRMC,141113.0,A,3443.4920,N,08633.1259,W,,,271118,,*14
$GPGGA,141143.0,3443.4919,N,08633.1260,W,1,,,223.6,M,,M,,*77
$GPRMC,141143.0,A,3443.4919,N,08633.1260,W,,,271118,,*11
$GPGGA,141213.0,3443.4919,N,08633.1261,W,1,,,223.7,M,,M,,*71
$GPRMC,141213.0,A,3443.4919,N,08633.1261,W,,,271118,,*16
$GPGGA,141243.0,3443.4918,N,08633.1263,W,1,,,223.9,M,,M,,*79
$GPRMC,141243.0,A,3443.4918,N,08633.1263,W,,,271118,,*10
$GPGGA,141313.0,3443.4917,N,08633.1264,W,1,,,224.1,M,,M,,*7A
$GPRMC,141313.0,A,3443.4917,N,08633.1264,W,,,271118,,*1C
$GPGGA,141343.0,3443.4917,N,08633.1265,W,1,,,224.3,M,,M,,*7C
$GPRMC,141343.0,A,3443.4917,N,08633.1265,W,,,271118,,*18
$GPGGA,141413.0,3443.4916,N,08633.1266,W,1,,,224.3,M,,M,,*7C
$GPRMC,141413.0,A,3443.4916,N,08633.1266,W,,,271118,,*18
$GPGGA,141443.0,3443.4916,N,08633.1266,W,1,,,224.4,M,,M,,*7E
$GPRMC,141443.0,A,3443.4916,N,08633.1266,W,,,271118,,*1D
$GPGGA,141513.0,3443.4916,N,08633.1266,W,1,,,224.4,M,,M,,*7A
$GPRMC,141513.0,A,3443.4916,N,08633.1266,W,,,271118,,*19
$GPGGA,141543.0,3443.4915,N,08633.1266,W,1,,,225.0,M,,M,,*79
$GPRMC,141543.0,A,3443.4915,N,08633.1266,W,,,271118,,*1F
$GPGGA,141613.0,3443.4914,N,08633.1266,W,1,,,225.2,M,,M,,*7C
$GPRMC,141613.0,A,3443.4914,N,08633.1266,W,,,271118,,*18
$GPGGA,141643.0,3443.4913,N,08633.1266,W,1,,,225.6,M,,M,,*7A
$GPRMC,141643.0,A,3443.4913,N,08633.1266,W,,,271118,,*1A
$GPGGA,141713.0,3443.4911,N,08633.1267,W,1,,,225.8,M,,M,,*73
$GPRMC,141713.0,A,3443.4911,N,08633.1267,W,,,271118,,*1D
$GPGGA,141743.0,3443.4910,N,08633.1268,W,1,,,226.2,M,,M,,*71
$GPRMC,141743.0,A,3443.4910,N,08633.1268,W,,,271118,,*16
$GPGGA,141813.0,3443.4910,N,08633.1268,W,1,,,226.3,M,,M,,*7A
$GPRMC,141813.0,A,3443.4910,N,08633.1268,W,,,271118,,*1C
$GPGGA,141843.0,3443.4910,N,08633.1268,W,1,,,226.6,M,,M,,*7A
$GPRMC,141843.0,A,3443.4910,N,08633.1268,W,,,271118,,*19
$GPGGA,141913.0,3443.4910,N,08633.1267,W,1,,,226.9,M,,M,,*7E
$GPRMC,141913.0,A,3443.4910,N,08633.1267,W,,,271118,,*12
$GPGGA,141943.0,3443.4910,N,08633.1267,W,1,,,227.1,M,,M,,*72
$GPRMC,141943.0,A,3443.4910,N,08633.1267,W,,,271118,,*17
$GPGGA,142013.0,3443.4910,N,08633.1267,W,1,,,227.1,M,,M,,*7D
$GPRMC,142013.0,A,3443.4910,N,08633.1267,W,,,271118,,*18
$GPGGA,142043.0,3443.4910,N,08633.1266,W,1,,,227.2,M,,M,,*7A
$GPRMC,142043.0,A,3443.4910,N,08633.1266,W,,,271118,,*1C
$GPGGA,142113.0,3443.4910,N,08633.1267,W,1,,,227.1,M,,M,,*7C
$GPRMC,142113.0,A,3443.4910,N,08633.1267,W,,,271118,,*19
$GPGGA,142143.0,3443.4910,N,08633.1267,W,1,,,227.0,M,,M,,*78
$GPRMC,142143.0,A,3443.4910,N,08633.1267,W,,,271118,,*1C
$GPGGA,142213.0,3443.4910,N,08633.1266,W,1,,,227.0,M,,M,,*7F
$GPRMC,142213.0,A,3443.4910,N,08633.1266,W,,,271118,,*1B
$GPGGA,142243.0,3443.4909,N,08633.1266,W,1,,,227.2,M,,M,,*70
$GPRMC,142243.0,A,3443.4909,N,08633.1266,W,,,271118,,*16
$GPGGA,142313.0,3443.4909,N,08633.1266,W,1,,,227.4,M,,M,,*72
$GPRMC,142313.0,A,3443.4909,N,08633.1266,W,,,271118,,*12
$GPGGA,142343.0,3443.4909,N,08633.1266,W,1,,,227.8,M,,M,,*7B
$GPRMC,142343.0,A,3443.4909,N,08633.1266,W,,,271118,,*17
$GPGGA,142413.0,3443.4909,N,08633.1266,W,1,,,228.0,M,,M,,*7E
$GPRMC,142413.0,A,3443.4909,N,08633.1266,W,,,271118,,*15
$GPGGA,142443.0,3443.4909,N,08633.1266,W,1,,,228.1,M,,M,,*7A
$GPRMC,142443.0,A,3443.4909,N,08633.1266,W,,,271118,,*10
$GPGGA,142513.0,3443.4909,N,08633.1266,W,1,,,228.1,M,,M,,*7E
$GPRMC,142513.0,A,3443.4909,N,08633.1266,W,,,271118,,*14
$GPGGA,142543.0,3443.4909,N,08633.1265,W,1,,,228.2,M,,M,,*7B
$GPRMC,142543.0,A,3443.4909,N,08633.1265,W,,,271118,,*12
$GPGGA,142613.0,3443.4909,N,08633.1265,W,1,,,228.1,M,,M,,*7E
$GPRMC,142613.0,A,3443.4909,N,08633.1265,W,,,271118,,*14
$GPGGA,142643.0,3443.4909,N,08633.1265,W,1,,,228.0,M,,M,,*7A
$GPRMC,142643.0,A,3443.4909,N,08633.1265,W,,,271118,,*11
$GPGGA,142713.0,3443.4909,N,08633.1264,W,1,,,228.0,M,,M,,*7F
$GPRMC,142713.0,A,3443.4909,N,08633.1264,W,,,271118,,*14
$GPGGA,142743.0,3443.4909,N,08633.1264,W,1,,,228.0,M,,M,,*7A
$GPRMC,142743.0,A,3443.4909,N,08633.1264,W,,,271118,,*11
$GPGGA,142813.0,3443.4910,N,08633.1263,W,1,,,228.0,M,,M,,*7F
$GPRMC,142813.0,A,3443.4910,N,08633.1263,W,,,271118,,*14
$GPGGA,142843.0,3443.4910,N,08633.1263,W,1,,,228.0,M,,M,,*7A
$GPRMC,142843.0,A,3443.4910,N,08633.1263,W,,,271118,,*11
$GPGGA,142913.0,3443.4910,N,08633.1264,W,1,,,228.0,M,,M,,*79
$GPRMC,142913.0,A,3443.4910,N,08633.1264,W,,,271118,,*12
$GPGGA,142943.0,3443.4911,N,08633.1264,W,1,,,228.0,M,,M,,*7D
$GPRMC,142943.0,A,3443.4911,N,08633.1264,W,,,271118,,*16
$GPGGA,143013.0,3443.4911,N,08633.1264,W,1,,,228.1,M,,M,,*71
$GPRMC,143013.0,A,3443.4911,N,08633.1264,W,,,271118,,*1B
$GPGGA,143043.0,3443.4911,N,08633.1264,W,1,,,228.0,M,,M,,*75
$GPRMC,143043.0,A,3443.4911,N,08633.1264,W,,,271118,,*1E
$GPGGA,143113.0,3443.4911,N,08633.1264,W,1,,,228.0,M,,M,,*71
$GPRMC,143113.0,A,3443.4911,N,08633.1264,W,,,271118,,*1A
$GPGGA,143143.0,3443.4912,N,08633.1264,W,1,,,227.9,M,,M,,*71
$GPRMC,143143.0,A,3443.4912,N,08633.1264,W,,,271118,,*1C
$GPGGA,143213.0,3443.4912,N,08633.1264,W,1,,,227.9,M,,M,,*77
$GPRMC,143213.0,A,3443.4912,N,08633.1264,W,,,271118,,*1A
$GPGGA,143243.0,3443.4912,N,08633.1265,W,1,,,227.8,M,,M,,*72
$GPRMC,143243.0,A,3443.4912,N,08633.1265,W,,,271118,,*1E
$GPGGA,143313.0,3443.4914,N,08633.1265,W,1,,,229.2,M,,M,,*74
$GPRMC,143313.0,A,3443.4914,N,08633.1265,W,,,271118,,*1C
$GPGGA,143343.0,3443.4915,N,08633.1265,W,1,,,229.2,M,,M,,*70
$GPRMC,143343.0,A,3443.4915,N,08633.1265,W,,,271118,,*18
$GPGGA,143413.0,3443.4915,N,08633.1266,W,1,,,229.1,M,,M,,*72
$GPRMC,143413.0,A,3443.4915,N,08633.1266,W,,,271118,,*19
$GPGGA,143443.0,3443.4915,N,08633.1266,W,1,,,229.0,M,,M,,*76
$GPRMC,143443.0,A,3443.4915,N,08633.1266,W,,,271118,,*1C
$GPGGA,143513.0,3443.4915,N,08633.1266,W,1,,,229.0,M,,M,,*72
$GPRMC,143513.0,A,3443.4915,N,08633.1266,W,,,271118,,*18
$GPGGA,143543.0,3443.4915,N,08633.1266,W,1,,,229.2,M,,M,,*75
$GPRMC,143543.0,A,3443.4915,N,08633.1266,W,,,271118,,*1D
$GPGGA,143613.0,3443.4916,N,08633.1266,W,1,,,229.2,M,,M,,*70
$GPRMC,143613.0,A,3443.4916,N,08633.1266,W,,,271118,,*18
$GPGGA,143643.0,3443.4916,N,08633.1266,W,1,,,229.2,M,,M,,*75
$GPRMC,143643.0,A,3443.4916,N,08633.1266,W,,,271118,,*1D
$GPGGA,143713.0,3443.4916,N,08633.1266,W,1,,,229.2,M,,M,,*71
$GPRMC,143713.0,A,3443.4916,N,08633.1266,W,,,271118,,*19
$GPGGA,143743.0,3443.4915,N,08633.1266,W,1,,,229.1,M,,M,,*74
$GPRMC,143743.0,A,3443.4915,N,08633.1266,W,,,271118,,*1F
$GPGGA,143813.0,3443.4915,N,08633.1265,W,1,,,229.1,M,,M,,*7D
$GPRMC,143813.0,A,3443.4915,N,08633.1265,W,,,271118,,*16
$GPGGA,143843.0,3443.4915,N,08633.1265,W,1,,,229.1,M,,M,,*78
$GPRMC,143843.0,A,3443.4915,N,08633.1265,W,,,271118,,*13
$GPGGA,143913.0,3443.4915,N,08633.1265,W,1,,,229.1,M,,M,,*7C
$GPRMC,143913.0,A,3443.4915,N,08633.1265,W,,,271118,,*17
$GPGGA,143943.0,3443.4915,N,08633.1264,W,1,,,229.2,M,,M,,*7B
$GPRMC,143943.0,A,3443.4915,N,08633.1264,W,,,271118,,*13
$GPGGA,144013.0,3443.4914,N,08633.1264,W,1,,,229.2,M,,M,,*71
$GPRMC,144013.0,A,3443.4914,N,08633.1264,W,,,271118,,*19
$GPGGA,144043.0,3443.4914,N,08633.1263,W,1,,,229.2,M,,M,,*73
$GPRMC,144043.0,A,3443.4914,N,08633.1263,W,,,271118,,*1B
$GPGGA,144113.0,3443.4914,N,08633.1263,W,1,,,229.3,M,,M,,*76
$GPRMC,144113.0,A,3443.4914,N,08633.1263,W,,,271118,,*1F
$GPGGA,144143.0,3443.4914,N,08633.1263,W,1,,,229.3,M,,M,,*73
$GPRMC,144143.0,A,3443.4914,N,08633.1263,W,,,271118,,*1A
$GPGGA,144213.0,3443.4914,N,08633.1263,W,1,,,229.3,M,,M,,*75
$GPRMC,144213.0,A,3443.4914,N,08633.1263,W,,,271118,,*1C
$GPGGA,144243.0,3443.4914,N,08633.1262,W,1,,,229.4,M,,M,,*76
$GPRMC,144243.0,A,3443.4914,N,08633.1262,W,,,271118,,*18
$GPGGA,144313.0,3443.4914,N,08633.1262,W,1,,,229.5,M,,M,,*73
$GPRMC,144313.0,A,3443.4914,N,08633.1262,W,,,271118,,*1C
$GPGGA,144343.0,3443.4914,N,08633.1261,W,1,,,229.7,M,,M,,*77
$GPRMC,144343.0,A,3443.4914,N,08633.1261,W,,,271118,,*1A
$GPGGA,144413.0,3443.4914,N,08633.1260,W,1,,,229.7,M,,M,,*74
$GPRMC,144413.0,A,3443.4914,N,08633.1260,W,,,271118,,*19
$GPGGA,144443.0,3443.4914,N,08633.1260,W,1,,,229.5,M,,M,,*73
$GPRMC,144443.0,A,3443.4914,N,08633.1260,W,,,271118,,*1C
$GPGGA,144513.0,3443.4914,N,08633.1259,W,1,,,229.5,M,,M,,*7D
$GPRMC,144513.0,A,3443.4914,N,08633.1259,W,,,271118,,*12
$GPGGA,144543.0,3443.4914,N,08633.1259,W,1,,,229.6,M,,M,,*7B
$GPRMC,144543.0,A,3443.4914,N,08633.1259,W,,,271118,,*17
$GPGGA,144613.0,3443.4914,N,08633.1259,W,1,,,229.6,M,,M,,*7D
$GPRMC,144613.0,A,3443.4914,N,08633.1259,W,,,271118,,*11
$GPGGA,144643.0,3443.4915,N,08633.1259,W,1,,,229.6,M,,M,,*79
$GPRMC,144643.0,A,3443.4915,N,08633.1259,W,,,271118,,*15
$GPGGA,144713.0,3443.4915,N,08633.1259,W,1,,,229.5,M,,M,,*7E
$GPRMC,144713.0,A,3443.4915,N,08633.1259,W,,,271118,,*11
$GPGGA,144743.0,3443.4915,N,08633.1259,W,1,,,229.6,M,,M,,*78
$GPRMC,144743.0,A,3443.4915,N,08633.1259,W,,,271118,,*14
$GPGGA,144813.0,3443.4915,N,08633.1259,W,1,,,229.6,M,,M,,*72
$GPRMC,144813.0,A,3443.4915,N,08633.1259,W,,,271118,,*1E
$GPGGA,144843.0,3443.4915,N,08633.1259,W,1,,,229.6,M,,M,,*77
$GPRMC,144843.0,A,3443.4915,N,08633.1259,W,,,271118,,*1B
$GPGGA,144913.0,3443.4915,N,08633.1259,W,1,,,229.5,M,,M,,*70
$GPRMC,144913.0,A,3443.4915,N,08633.1259,W,,,271118,,*1F
$GPGGA,144943.0,3443.4915,N,08633.1259,W,1,,,229.5,M,,M,,*75
$GPRMC,144943.0,A,3443.4915,N,08633.1259,W,,,271118,,*1A
$GPGGA,145013.0,3443.4915,N,08633.1259,W,1,,,229.6,M,,M,,*7B
$GPRMC,145013.0,A,3443.4915,N,08633.1259,W,,,271118,,*17
$GPGGA,145043.0,3443.4915,N,08633.1259,W,1,,,229.6,M,,M,,*7E
$GPRMC,145043.0,A,3443.4915,N,08633.1259,W,,,271118,,*12
$GPGGA,145113.0,3443.4915,N,08633.1259,W,1,,,229.7,M,,M,,*7B
$GPRMC,145113.0,A,3443.4915,N,08633.1259,W,,,271118,,*16
$GPGGA,145143.0,3443.4915,N,08633.1259,W,1,,,229.8,M,,M,,*71
$GPRMC,145143.0,A,3443.4915,N,08633.1259,W,,,271118,,*13
$GPGGA,145213.0,3443.4915,N,08633.1260,W,1,,,229.8,M,,M,,*7D
$GPRMC,145213.0,A,3443.4915,N,08633.1260,W,,,271118,,*1F
$GPGGA,145243.0,3443.4915,N,08633.1260,W,1,,,229.8,M,,M,,*78
$GPRMC,145243.0,A,3443.4915,N,08633.1260,W,,,271118,,*1A
$GPGGA,145313.0,3443.4915,N,08633.1259,W,1,,,229.8,M,,M,,*76
$GPRMC,145313.0,A,3443.4915,N,08633.1259,W,,,271118,,*14
$GPGGA,145343.0,3443.4915,N,08633.1259,W,1,,,229.9,M,,M,,*72
$GPRMC,145343.0,A,3443.4915,N,08633.1259,W,,,271118,,*11
$GPGGA,145413.0,3443.4915,N,08633.1259,W,1,,,229.8,M,,M,,*71
$GPRMC,145413.0,A,3443.4915,N,08633.1259,W,,,271118,,*13
$GPGGA,145443.0,3443.4915,N,08633.1259,W,1,,,229.8,M,,M,,*74
$GPRMC,145443.0,A,3443.4915,N,08633.1259,W,,,271118,,*16
$GPGGA,145513.0,3443.4915,N,08633.1259,W,1,,,229.8,M,,M,,*70
$GPRMC,145513.0,A,3443.4915,N,08633.1259,W,,,271118,,*12
$GPGGA,145543.0,3443.4915,N,08633.1259,W,1,,,229.8,M,,M,,*75
$GPRMC,145543.0,A,3443.4915,N,08633.1259,W,,,271118,,*17
$GPGGA,145613.0,3443.4915,N,08633.1258,W,1,,,229.8,M,,M,,*72
$GPRMC,145613.0,A,3443.4915,N,08633.1258,W,,,271118,,*10
$GPGGA,145643.0,3443.4915,N,08633.1258,W,1,,,229.8,M,,M,,*77
$GPRMC,145643.0,A,3443.4915,N,08633.1258,W,,,271118,,*15
$GPGGA,145713.0,3443.4915,N,08633.1258,W,1,,,229.9,M,,M,,*72
$GPRMC,145713.0,A,3443.4915,N,08633.1258,W,,,271118,,*11
$GPGGA,145743.0,3443.4915,N,08633.1258,W,1,,,229.9,M,,M,,*77
$GPRMC,145743.0,A,3443.4915,N,08633.1258,W,,,271118,,*14
$GPGGA,145813.0,3443.4915,N,08633.1258,W,1,,,229.9,M,,M,,*7D
$GPRMC,145813.0,A,3443.4915,N,08633.1258,W,,,271118,,*1E
$GPGGA,145843.0,3443.4915,N,08633.1258,W,1,,,229.9,M,,M,,*78
$GPRMC,145843.0,A,3443.4915,N,08633.1258,W,,,271118,,*1B
$GPGGA,145913.0,3443.4915,N,08633.1258,W,1,,,229.9,M,,M,,*7C
$GPRMC,145913.0,A,3443.4915,N,08633.1258,W,,,271118,,*1F
$GPGGA,145943.0,3443.4915,N,08633.1258,W,1,,,229.9,M,,M,,*79
$GPRMC,145943.0,A,3443.4915,N,08633.1258,W,,,271118,,*1A
