@Olympus/+0900/+0900
$GPGGA,231402.0,3443.4883,N,08633.1301,W,1,,,236.9,M,,M,,*7C
$GPRMC,231402.0,A,3443.4883,N,08633.1301,W,,,241118,,*12
$GPGGA,231432.0,3443.4887,N,08633.1282,W,1,,,236.6,M,,M,,*7E
$GPRMC,231432.0,A,3443.4887,N,08633.1282,W,,,241118,,*1F
$GPGGA,231502.0,3443.4901,N,08633.1281,W,1,,,236.4,M,,M,,*72
$GPRMC,231502.0,A,3443.4901,N,08633.1281,W,,,241118,,*11
$GPGGA,231532.0,3443.4911,N,08633.1282,W,1,,,238.2,M,,M,,*7B
$GPRMC,231532.0,A,3443.4911,N,08633.1282,W,,,241118,,*10
$GPGGA,231602.0,3443.4885,N,08633.1261,W,1,,,238.2,M,,M,,*7A
$GPRMC,231602.0,A,3443.4885,N,08633.1261,W,,,241118,,*11
$GPGGA,231632.0,3443.4964,N,08633.1267,W,1,,,238.2,M,,M,,*71
$GPRMC,231632.0,A,3443.4964,N,08633.1267,W,,,241118,,*1A
$GPGGA,231702.0,3443.4970,N,08633.1264,W,1,,,241.6,M,,M,,*7F
$GPRMC,231702.0,A,3443.4970,N,08633.1264,W,,,241118,,*1E
$GPGGA,231732.0,3443.5048,N,08633.1244,W,1,,,247.6,M,,M,,*7B
$GPRMC,231732.0,A,3443.5048,N,08633.1244,W,,,241118,,*1C
$GPGGA,231802.0,3443.5031,N,08633.1238,W,1,,,251.0,M,,M,,*73
$GPRMC,231802.0,A,3443.5031,N,08633.1238,W,,,241118,,*15
$GPGGA,231902.0,3443.5042,N,08633.1262,W,1,,,5.3,M,,M,,*79
$GPRMC,231902.0,A,3443.5042,N,08633.1262,W,,,241118,,*1F
$GPGGA,231932.0,3443.5024,N,08633.1263,W,1,,,0.2,M,,M,,*7F
$GPRMC,231932.0,A,3443.5024,N,08633.1263,W,,,241118,,*1D
$GPGGA,232002.0,3443.5019,N,08633.1263,W,1,,,254.1,M,,M,,*78
$GPRMC,232002.0,A,3443.5019,N,08633.1263,W,,,241118,,*1A
$GPGGA,232032.0,3443.5042,N,08633.1261,W,1,,,252.6,M,,M,,*76
$GPRMC,232032.0,A,3443.5042,N,08633.1261,W,,,241118,,*15
$GPGGA,232102.0,3443.4991,N,08633.1287,W,1,,,10.8,M,,M,,*40
$GPRMC,232102.0,A,3443.4991,N,08633.1287,W,,,241118,,*19
$GPGGA,232132.0,3443.4951,N,08633.1286,W,1,,,14.1,M,,M,,*43
$GPRMC,232132.0,A,3443.4951,N,08633.1286,W,,,241118,,*17
$GPGGA,232202.0,3443.4977,N,08633.1284,W,1,,,253.3,M,,M,,*76
$GPRMC,232202.0,A,3443.4977,N,08633.1284,W,,,241118,,*11
$GPGGA,232232.0,3443.4974,N,08633.1282,W,1,,,241.6,M,,M,,*76
$GPRMC,232232.0,A,3443.4974,N,08633.1282,W,,,241118,,*17
$GPGGA,232302.0,3443.4971,N,08633.1280,W,1,,,238.3,M,,M,,*78
$GPRMC,232302.0,A,3443.4971,N,08633.1280,W,,,241118,,*12
$GPGGA,232332.0,3443.4967,N,08633.1278,W,1,,,236.5,M,,M,,*73
$GPRMC,232332.0,A,3443.4967,N,08633.1278,W,,,241118,,*11
$GPGGA,232402.0,3443.4962,N,08633.1276,W,1,,,235.6,M,,M,,*7C
$GPRMC,232402.0,A,3443.4962,N,08633.1276,W,,,241118,,*1E
$GPGGA,232432.0,3443.4947,N,08633.1279,W,1,,,239.8,M,,M,,*75
$GPRMC,232432.0,A,3443.4947,N,08633.1279,W,,,241118,,*15
$GPGGA,232502.0,3443.4915,N,08633.1274,W,1,,,243.4,M,,M,,*7C
$GPRMC,232502.0,A,3443.4915,N,08633.1274,W,,,241118,,*1D
$GPGGA,232532.0,3443.4921,N,08633.1266,W,1,,,238.9,M,,M,,*7A
$GPRMC,232532.0,A,3443.4921,N,08633.1266,W,,,241118,,*1A
$GPGGA,232602.0,3443.4911,N,08633.1273,W,1,,,243.8,M,,M,,*70
$GPRMC,232602.0,A,3443.4911,N,08633.1273,W,,,241118,,*1D
$GPGGA,232632.0,3443.4902,N,08633.1279,W,1,,,247.1,M,,M,,*76
$GPRMC,232632.0,A,3443.4902,N,08633.1279,W,,,241118,,*16
$GPGGA,232702.0,3443.4900,N,08633.1279,W,1,,,247.5,M,,M,,*72
$GPRMC,232702.0,A,3443.4900,N,08633.1279,W,,,241118,,*16
$GPGGA,232732.0,3443.4898,N,08633.1281,W,1,,,248.6,M,,M,,*7A
$GPRMC,232732.0,A,3443.4898,N,08633.1281,W,,,241118,,*12
$GPGGA,232802.0,3443.4879,N,08633.1300,W,1,,,242.2,M,,M,,*7F
$GPRMC,232802.0,A,3443.4879,N,08633.1300,W,,,241118,,*19
$GPGGA,232832.0,3443.4877,N,08633.1300,W,1,,,248.0,M,,M,,*7A
$GPRMC,232832.0,A,3443.4877,N,08633.1300,W,,,241118,,*14
$GPGGA,232902.0,3443.4876,N,08633.1297,W,1,,,251.5,M,,M,,*7B
$GPRMC,232902.0,A,3443.4876,N,08633.1297,W,,,241118,,*18
$GPGGA,232932.0,3443.4877,N,08633.1297,W,1,,,250.4,M,,M,,*79
$GPRMC,232932.0,A,3443.4877,N,08633.1297,W,,,241118,,*1A
$GPGGA,232959.0,3443.4878,N,08633.1296,W,1,,,246.7,M,,M,,*7E
$GPRMC,232959.0,A,3443.4878,N,08633.1296,W,,,241118,,*19
$GPGGA,233001.0,3443.4878,N,08633.1296,W,1,,,246.4,M,,M,,*78
$GPRMC,233001.0,A,3443.4878,N,08633.1296,W,,,241118,,*1C
$GPGGA,233003.0,3443.4878,N,08633.1296,W,1,,,246.2,M,,M,,*7C
$GPRMC,233003.0,A,3443.4878,N,08633.1296,W,,,241118,,*1E
$GPGGA,233005.0,3443.4878,N,08633.1296,W,1,,,246.0,M,,M,,*78
$GPRMC,233005.0,A,3443.4878,N,08633.1296,W,,,241118,,*18
$GPGGA,233007.0,3443.4878,N,08633.1295,W,1,,,245.9,M,,M,,*73
$GPRMC,233007.0,A,3443.4878,N,08633.1295,W,,,241118,,*19
$GPGGA,233009.1,3443.4878,N,08633.1295,W,1,,,245.8,M,,M,,*7D
$GPRMC,233009.1,A,3443.4878,N,08633.1295,W,,,241118,,*16
$GPGGA,233010.0,3443.4878,N,08633.1295,W,1,,,245.8,M,,M,,*74
$GPRMC,233010.0,A,3443.4878,N,08633.1295,W,,,241118,,*1F
$GPGGA,233040.0,3443.4878,N,08633.1295,W,1,,,244.9,M,,M,,*71
$GPRMC,233040.0,A,3443.4878,N,08633.1295,W,,,241118,,*1A
$GPGGA,233110.0,3443.4879,N,08633.1294,W,1,,,244.8,M,,M,,*74
$GPRMC,233110.0,A,3443.4879,N,08633.1294,W,,,241118,,*1E
$GPGGA,233140.0,3443.4879,N,08633.1292,W,1,,,244.3,M,,M,,*7C
$GPRMC,233140.0,A,3443.4879,N,08633.1292,W,,,241118,,*1D
$GPGGA,233210.0,3443.4879,N,08633.1291,W,1,,,243.7,M,,M,,*7A
$GPRMC,233210.0,A,3443.4879,N,08633.1291,W,,,241118,,*18
$GPGGA,233240.0,3443.4880,N,08633.1288,W,1,,,242.0,M,,M,,*77
$GPRMC,233240.0,A,3443.4880,N,08633.1288,W,,,241118,,*13
$GPGGA,233310.0,3443.4880,N,08633.1287,W,1,,,241.7,M,,M,,*78
$GPRMC,233310.0,A,3443.4880,N,08633.1287,W,,,241118,,*18
$GPGGA,233340.0,3443.4872,N,08633.1287,W,1,,,240.1,M,,M,,*77
$GPRMC,233340.0,A,3443.4872,N,08633.1287,W,,,241118,,*10
$GPGGA,233410.0,3443.4872,N,08633.1287,W,1,,,240.2,M,,M,,*76
$GPRMC,233410.0,A,3443.4872,N,08633.1287,W,,,241118,,*12
$GPGGA,233440.0,3443.4873,N,08633.1287,W,1,,,240.9,M,,M,,*79
$GPRMC,233440.0,A,3443.4873,N,08633.1287,W,,,241118,,*16
$GPGGA,233510.0,3443.4873,N,08633.1286,W,1,,,240.7,M,,M,,*72
$GPRMC,233510.0,A,3443.4873,N,08633.1286,W,,,241118,,*13
$GPGGA,233540.0,3443.4901,N,08633.1238,W,1,,,233.1,M,,M,,*74
$GPRMC,233540.0,A,3443.4901,N,08633.1238,W,,,241118,,*17
$GPGGA,233610.0,3443.4939,N,08633.1235,W,1,,,232.9,M,,M,,*7D
$GPRMC,233610.0,A,3443.4939,N,08633.1235,W,,,241118,,*17
$GPGGA,233640.0,3443.4926,N,08633.1222,W,1,,,209.4,M,,M,,*75
$GPRMC,233640.0,A,3443.4926,N,08633.1222,W,,,241118,,*1A
$GPGGA,233710.0,3443.4921,N,08633.1220,W,1,,,211.1,M,,M,,*78
$GPRMC,233710.0,A,3443.4921,N,08633.1220,W,,,241118,,*1B
$GPGGA,233724.2,3443.4920,N,08633.1220,W,1,,,213.2,M,,M,,*7D
$GPRMC,233724.2,A,3443.4920,N,08633.1220,W,,,241118,,*1F
$GPGGA,233754.0,3443.4904,N,08633.1211,W,1,,,216.7,M,,M,,*7C
$GPRMC,233754.0,A,3443.4904,N,08633.1211,W,,,241118,,*1E
$GPGGA,233824.0,3443.4904,N,08633.1214,W,1,,,221.8,M,,M,,*7A
$GPRMC,233824.0,A,3443.4904,N,08633.1214,W,,,241118,,*13
$GPGGA,233854.0,3443.4904,N,08633.1215,W,1,,,223.6,M,,M,,*70
$GPRMC,233854.0,A,3443.4904,N,08633.1215,W,,,241118,,*15
$GPGGA,233924.0,3443.4905,N,08633.1215,W,1,,,223.1,M,,M,,*70
$GPRMC,233924.0,A,3443.4905,N,08633.1215,W,,,241118,,*12
$GPGGA,233954.0,3443.4905,N,08633.1216,W,1,,,222.5,M,,M,,*71
$GPRMC,233954.0,A,3443.4905,N,08633.1216,W,,,241118,,*16
$GPGGA,234024.0,3443.4905,N,08633.1218,W,1,,,222.1,M,,M,,*72
$GPRMC,234024.0,A,3443.4905,N,08633.1218,W,,,241118,,*11
$GPGGA,234054.0,3443.4922,N,08633.1229,W,1,,,223.2,M,,M,,*70
$GPRMC,234054.0,A,3443.4922,N,08633.1229,W,,,241118,,*11
$GPGGA,234124.0,3443.4922,N,08633.1229,W,1,,,223.3,M,,M,,*77
$GPRMC,234124.0,A,3443.4922,N,08633.1229,W,,,241118,,*17
$GPGGA,234154.0,3443.4923,N,08633.1230,W,1,,,223.2,M,,M,,*78
$GPRMC,234154.0,A,3443.4923,N,08633.1230,W,,,241118,,*19
$GPGGA,234224.0,3443.4924,N,08633.1232,W,1,,,222.9,M,,M,,*73
$GPRMC,234224.0,A,3443.4924,N,08633.1232,W,,,241118,,*18
$GPGGA,234254.0,3443.4925,N,08633.1234,W,1,,,223.2,M,,M,,*79
$GPRMC,234254.0,A,3443.4925,N,08633.1234,W,,,241118,,*18
$GPGGA,234324.0,3443.4925,N,08633.1234,W,1,,,223.4,M,,M,,*79
$GPRMC,234324.0,A,3443.4925,N,08633.1234,W,,,241118,,*1E
$GPGGA,234354.0,3443.4925,N,08633.1234,W,1,,,223.4,M,,M,,*7E
$GPRMC,234354.0,A,3443.4925,N,08633.1234,W,,,241118,,*19
$GPGGA,234424.0,3443.4936,N,08633.1242,W,1,,,230.9,M,,M,,*72
$GPRMC,234424.0,A,3443.4936,N,08633.1242,W,,,241118,,*1A
$GPGGA,234454.0,3443.4936,N,08633.1249,W,1,,,236.6,M,,M,,*77
$GPRMC,234454.0,A,3443.4936,N,08633.1249,W,,,241118,,*16
$GPGGA,234524.0,3443.4936,N,08633.1249,W,1,,,236.2,M,,M,,*75
$GPRMC,234524.0,A,3443.4936,N,08633.1249,W,,,241118,,*10
$GPGGA,234554.0,3443.4936,N,08633.1249,W,1,,,236.1,M,,M,,*71
$GPRMC,234554.0,A,3443.4936,N,08633.1249,W,,,241118,,*17
$GPGGA,234624.0,3443.4916,N,08633.1241,W,1,,,245.7,M,,M,,*7D
$GPRMC,234624.0,A,3443.4916,N,08633.1241,W,,,241118,,*19
$GPGGA,234654.0,3443.4912,N,08633.1271,W,1,,,234.6,M,,M,,*7A
$GPRMC,234654.0,A,3443.4912,N,08633.1271,W,,,241118,,*19
$GPGGA,234724.0,3443.4912,N,08633.1271,W,1,,,221.4,M,,M,,*7A
$GPRMC,234724.0,A,3443.4912,N,08633.1271,W,,,241118,,*1F
$GPGGA,234754.0,3443.4912,N,08633.1271,W,1,,,221.7,M,,M,,*7E
$GPRMC,234754.0,A,3443.4912,N,08633.1271,W,,,241118,,*18
$GPGGA,234824.0,3443.4914,N,08633.1273,W,1,,,218.4,M,,M,,*7B
$GPRMC,234824.0,A,3443.4914,N,08633.1273,W,,,241118,,*14
$GPGGA,234854.0,3443.4915,N,08633.1273,W,1,,,218.6,M,,M,,*7F
$GPRMC,234854.0,A,3443.4915,N,08633.1273,W,,,241118,,*12
$GPGGA,234924.0,3443.4916,N,08633.1272,W,1,,,218.1,M,,M,,*7C
$GPRMC,234924.0,A,3443.4916,N,08633.1272,W,,,241118,,*16
$GPGGA,234954.0,3443.4916,N,08633.1272,W,1,,,213.6,M,,M,,*77
$GPRMC,234954.0,A,3443.4916,N,08633.1272,W,,,241118,,*11
$GPGGA,235024.0,3443.4918,N,08633.1271,W,1,,,208.6,M,,M,,*7F
$GPRMC,235024.0,A,3443.4918,N,08633.1271,W,,,241118,,*13
$GPGGA,235054.0,3443.4911,N,08633.1272,W,1,,,210.1,M,,M,,*7C
$GPRMC,235054.0,A,3443.4911,N,08633.1272,W,,,241118,,*1E
$GPGGA,235124.0,3443.4918,N,08633.1273,W,1,,,212.2,M,,M,,*73
$GPRMC,235124.0,A,3443.4918,N,08633.1273,W,,,241118,,*10
$GPGGA,235154.0,3443.4918,N,08633.1273,W,1,,,211.8,M,,M,,*7D
$GPRMC,235154.0,A,3443.4918,N,08633.1273,W,,,241118,,*17
$GPGGA,235224.0,3443.4918,N,08633.1273,W,1,,,212.7,M,,M,,*75
$GPRMC,235224.0,A,3443.4918,N,08633.1273,W,,,241118,,*13
$GPGGA,235254.0,3443.4918,N,08633.1273,W,1,,,213.9,M,,M,,*7D
$GPRMC,235254.0,A,3443.4918,N,08633.1273,W,,,241118,,*14
$GPGGA,235324.0,3443.4918,N,08633.1273,W,1,,,214.1,M,,M,,*74
$GPRMC,235324.0,A,3443.4918,N,08633.1273,W,,,241118,,*12
$GPGGA,235354.0,3443.4926,N,08633.1259,W,1,,,218.0,M,,M,,*7B
$GPRMC,235354.0,A,3443.4926,N,08633.1259,W,,,241118,,*10
$GPGGA,235424.0,3443.4926,N,08633.1259,W,1,,,218.3,M,,M,,*78
$GPRMC,235424.0,A,3443.4926,N,08633.1259,W,,,241118,,*10
$GPGGA,235454.0,3443.4926,N,08633.1259,W,1,,,218.0,M,,M,,*7C
$GPRMC,235454.0,A,3443.4926,N,08633.1259,W,,,241118,,*17
$GPGGA,235524.0,3443.4926,N,08633.1259,W,1,,,218.0,M,,M,,*7A
$GPRMC,235524.0,A,3443.4926,N,08633.1259,W,,,241118,,*11
$GPGGA,235554.0,3443.4926,N,08633.1259,W,1,,,217.7,M,,M,,*75
$GPRMC,235554.0,A,3443.4926,N,08633.1259,W,,,241118,,*16
$GPGGA,235624.1,3443.4925,N,08633.1259,W,1,,,219.7,M,,M,,*7D
$GPRMC,235624.1,A,3443.4925,N,08633.1259,W,,,241118,,*10
$GPGGA,235654.0,3443.4924,N,08633.1259,W,1,,,220.0,M,,M,,*77
$GPRMC,235654.0,A,3443.4924,N,08633.1259,W,,,241118,,*17
$GPGGA,235724.0,3443.4922,N,08633.1259,W,1,,,219.5,M,,M,,*78
$GPRMC,235724.0,A,3443.4922,N,08633.1259,W,,,241118,,*17
$GPGGA,235754.0,3443.4920,N,08633.1259,W,1,,,219.3,M,,M,,*7B
$GPRMC,235754.0,A,3443.4920,N,08633.1259,W,,,241118,,*12
$GPGGA,235824.0,3443.4918,N,08633.1259,W,1,,,219.4,M,,M,,*7F
$GPRMC,235824.0,A,3443.4918,N,08633.1259,W,,,241118,,*11
$GPGGA,235854.0,3443.4918,N,08633.1259,W,1,,,219.3,M,,M,,*7F
$GPRMC,235854.0,A,3443.4918,N,08633.1259,W,,,241118,,*16
$GPGGA,235924.0,3443.4917,N,08633.1259,W,1,,,218.9,M,,M,,*7D
$GPRMC,235924.0,A,3443.4917,N,08633.1259,W,,,241118,,*1F
$GPGGA,235954.0,3443.4917,N,08633.1259,W,1,,,218.1,M,,M,,*72
$GPRMC,235954.0,A,3443.4917,N,08633.1259,W,,,241118,,*18
$GPGGA,000024.1,3443.4916,N,08633.1259,W,1,,,218.1,M,,M,,*78
$GPRMC,000024.1,A,3443.4916,N,08633.1259,W,,,251118,,*13
$GPGGA,000054.0,3443.4916,N,08633.1258,W,1,,,218.3,M,,M,,*7D
$GPRMC,000054.0,A,3443.4916,N,08633.1258,W,,,251118,,*14
$GPGGA,000124.0,3443.4910,N,08633.1257,W,1,,,219.5,M,,M,,*75
$GPRMC,000124.0,A,3443.4910,N,08633.1257,W,,,251118,,*1B
$GPGGA,000154.0,3443.4911,N,08633.1256,W,1,,,220.7,M,,M,,*7A
$GPRMC,000154.0,A,3443.4911,N,08633.1256,W,,,251118,,*1C
$GPGGA,000224.0,3443.4911,N,08633.1255,W,1,,,220.2,M,,M,,*78
$GPRMC,000224.0,A,3443.4911,N,08633.1255,W,,,251118,,*1B
$GPGGA,000254.0,3443.4911,N,08633.1255,W,1,,,220.1,M,,M,,*7C
$GPRMC,000254.0,A,3443.4911,N,08633.1255,W,,,251118,,*1C
$GPGGA,000324.0,3443.4912,N,08633.1253,W,1,,,222.0,M,,M,,*7C
$GPRMC,000324.0,A,3443.4912,N,08633.1253,W,,,251118,,*1F
$GPGGA,000354.0,3443.4912,N,08633.1254,W,1,,,221.5,M,,M,,*7A
$GPRMC,000354.0,A,3443.4912,N,08633.1254,W,,,251118,,*1F
$GPGGA,000424.0,3443.4913,N,08633.1254,W,1,,,220.8,M,,M,,*77
$GPRMC,000424.0,A,3443.4913,N,08633.1254,W,,,251118,,*1E
$GPGGA,000454.0,3443.4911,N,08633.1253,W,1,,,222.3,M,,M,,*7C
$GPRMC,000454.0,A,3443.4911,N,08633.1253,W,,,251118,,*1C
$GPGGA,000524.0,3443.4911,N,08633.1253,W,1,,,222.0,M,,M,,*79
$GPRMC,000524.0,A,3443.4911,N,08633.1253,W,,,251118,,*1A
$GPGGA,000554.0,3443.4911,N,08633.1253,W,1,,,221.8,M,,M,,*75
$GPRMC,000554.0,A,3443.4911,N,08633.1253,W,,,251118,,*1D
$GPGGA,000624.0,3443.4916,N,08633.1256,W,1,,,217.6,M,,M,,*78
$GPRMC,000624.0,A,3443.4916,N,08633.1256,W,,,251118,,*1B
$GPGGA,000654.0,3443.4916,N,08633.1256,W,1,,,217.4,M,,M,,*7D
$GPRMC,000654.0,A,3443.4916,N,08633.1256,W,,,251118,,*1C
$GPGGA,000724.0,3443.4915,N,08633.1254,W,1,,,219.7,M,,M,,*77
$GPRMC,000724.0,A,3443.4915,N,08633.1254,W,,,251118,,*1B
$GPGGA,000754.0,3443.4915,N,08633.1254,W,1,,,219.7,M,,M,,*70
$GPRMC,000754.0,A,3443.4915,N,08633.1254,W,,,251118,,*1C
$GPGGA,000824.0,3443.4913,N,08633.1253,W,1,,,219.7,M,,M,,*79
$GPRMC,000824.0,A,3443.4913,N,08633.1253,W,,,251118,,*15
$GPGGA,000854.0,3443.4909,N,08633.1255,W,1,,,219.6,M,,M,,*72
$GPRMC,000854.0,A,3443.4909,N,08633.1255,W,,,251118,,*1F
$GPGGA,000924.0,3443.4899,N,08633.1249,W,1,,,227.8,M,,M,,*72
$GPRMC,000924.0,A,3443.4899,N,08633.1249,W,,,251118,,*1C
$GPGGA,000954.0,3443.4899,N,08633.1249,W,1,,,229.1,M,,M,,*72
$GPRMC,000954.0,A,3443.4899,N,08633.1249,W,,,251118,,*1B
$GPGGA,001024.0,3443.4949,N,08633.1270,W,1,,,200.9,M,,M,,*78
$GPRMC,001024.0,A,3443.4949,N,08633.1270,W,,,251118,,*12
$GPGGA,001054.0,3443.4957,N,08633.1261,W,1,,,226.7,M,,M,,*7A
$GPRMC,001054.0,A,3443.4957,N,08633.1261,W,,,251118,,*1A
$GPGGA,001124.0,3443.4957,N,08633.1269,W,1,,,236.6,M,,M,,*74
$GPRMC,001124.0,A,3443.4957,N,08633.1269,W,,,251118,,*14
$GPGGA,001154.0,3443.4955,N,08633.1274,W,1,,,247.8,M,,M,,*75
$GPRMC,001154.0,A,3443.4955,N,08633.1274,W,,,251118,,*1D
$GPGGA,001224.0,3443.4952,N,08633.1274,W,1,,,250.5,M,,M,,*7D
$GPRMC,001224.0,A,3443.4952,N,08633.1274,W,,,251118,,*1E
$GPGGA,001254.0,3443.4946,N,08633.1274,W,1,,,245.7,M,,M,,*79
$GPRMC,001254.0,A,3443.4946,N,08633.1274,W,,,251118,,*1C
$GPGGA,001324.0,3443.4941,N,08633.1284,W,1,,,247.4,M,,M,,*76
$GPRMC,001324.0,A,3443.4941,N,08633.1284,W,,,251118,,*12
$GPGGA,001354.0,3443.4924,N,08633.1274,W,1,,,245.0,M,,M,,*7B
$GPRMC,001354.0,A,3443.4924,N,08633.1274,W,,,251118,,*19
$GPGGA,001424.0,3443.4923,N,08633.1277,W,1,,,234.8,M,,M,,*71
$GPRMC,001424.0,A,3443.4923,N,08633.1277,W,,,251118,,*1D
$GPGGA,001454.0,3443.4912,N,08633.1261,W,1,,,235.5,M,,M,,*7F
$GPRMC,001454.0,A,3443.4912,N,08633.1261,W,,,251118,,*1F
$GPGGA,001524.0,3443.4905,N,08633.1251,W,1,,,234.3,M,,M,,*7B
$GPRMC,001524.0,A,3443.4905,N,08633.1251,W,,,251118,,*1C
$GPGGA,001554.0,3443.4905,N,08633.1251,W,1,,,233.9,M,,M,,*71
$GPRMC,001554.0,A,3443.4905,N,08633.1251,W,,,251118,,*1B
$GPGGA,001624.0,3443.4905,N,08633.1251,W,1,,,234.7,M,,M,,*7C
$GPRMC,001624.0,A,3443.4905,N,08633.1251,W,,,251118,,*1F
$GPGGA,001654.0,3443.4905,N,08633.1250,W,1,,,233.6,M,,M,,*7C
$GPRMC,001654.0,A,3443.4905,N,08633.1250,W,,,251118,,*19
$GPGGA,001724.0,3443.4904,N,08633.1250,W,1,,,232.3,M,,M,,*7F
$GPRMC,001724.0,A,3443.4904,N,08633.1250,W,,,251118,,*1E
$GPGGA,001754.0,3443.4905,N,08633.1250,W,1,,,230.2,M,,M,,*7A
$GPRMC,001754.0,A,3443.4905,N,08633.1250,W,,,251118,,*18
$GPGGA,001824.0,3443.4916,N,08633.1256,W,1,,,229.8,M,,M,,*74
$GPRMC,001824.0,A,3443.4916,N,08633.1256,W,,,251118,,*14
$GPGGA,001854.0,3443.4953,N,08633.1274,W,1,,,229.5,M,,M,,*7F
$GPRMC,001854.0,A,3443.4953,N,08633.1274,W,,,251118,,*12
$GPGGA,001924.0,3443.4959,N,08633.1289,W,1,,,225.9,M,,M,,*71
$GPRMC,001924.0,A,3443.4959,N,08633.1289,W,,,251118,,*1C
$GPGGA,001954.0,3443.4958,N,08633.1290,W,1,,,225.2,M,,M,,*74
$GPRMC,001954.0,A,3443.4958,N,08633.1290,W,,,251118,,*12
$GPGGA,002024.0,3443.4957,N,08633.1289,W,1,,,223.4,M,,M,,*7E
$GPRMC,002024.0,A,3443.4957,N,08633.1289,W,,,251118,,*18
$GPGGA,002054.0,3443.4960,N,08633.1291,W,1,,,220.9,M,,M,,*7A
$GPRMC,002054.0,A,3443.4960,N,08633.1291,W,,,251118,,*12
$GPGGA,002124.1,3443.4958,N,08633.1288,W,1,,,220.3,M,,M,,*74
$GPRMC,002124.1,A,3443.4958,N,08633.1288,W,,,251118,,*16
$GPGGA,002154.0,3443.4957,N,08633.1277,W,1,,,216.9,M,,M,,*72
$GPRMC,002154.0,A,3443.4957,N,08633.1277,W,,,251118,,*1F
$GPGGA,002224.0,3443.4958,N,08633.1276,W,1,,,217.0,M,,M,,*70
$GPRMC,002224.0,A,3443.4958,N,08633.1276,W,,,251118,,*15
$GPGGA,002254.0,3443.4958,N,08633.1276,W,1,,,217.1,M,,M,,*76
$GPRMC,002254.0,A,3443.4958,N,08633.1276,W,,,251118,,*12
$GPGGA,002324.0,3443.4957,N,08633.1276,W,1,,,217.4,M,,M,,*7A
$GPRMC,002324.0,A,3443.4957,N,08633.1276,W,,,251118,,*1B
$GPGGA,002354.0,3443.4939,N,08633.1265,W,1,,,217.2,M,,M,,*71
$GPRMC,002354.0,A,3443.4939,N,08633.1265,W,,,251118,,*16
$GPGGA,002424.0,3443.4938,N,08633.1265,W,1,,,217.4,M,,M,,*76
$GPRMC,002424.0,A,3443.4938,N,08633.1265,W,,,251118,,*17
$GPGGA,002454.0,3443.4938,N,08633.1265,W,1,,,217.7,M,,M,,*72
$GPRMC,002454.0,A,3443.4938,N,08633.1265,W,,,251118,,*10
$GPGGA,002524.1,3443.4938,N,08633.1266,W,1,,,218.0,M,,M,,*7E
$GPRMC,002524.1,A,3443.4938,N,08633.1266,W,,,251118,,*14
$GPGGA,002554.0,3443.4915,N,08633.1240,W,1,,,237.0,M,,M,,*7E
$GPRMC,002554.0,A,3443.4915,N,08633.1240,W,,,251118,,*19
$GPGGA,002624.0,3443.4914,N,08633.1241,W,1,,,236.7,M,,M,,*7C
$GPRMC,002624.0,A,3443.4914,N,08633.1241,W,,,251118,,*1D
$GPGGA,002654.0,3443.4914,N,08633.1241,W,1,,,236.9,M,,M,,*75
$GPRMC,002654.0,A,3443.4914,N,08633.1241,W,,,251118,,*1A
$GPGGA,002724.0,3443.4913,N,08633.1241,W,1,,,236.4,M,,M,,*79
$GPRMC,002724.0,A,3443.4913,N,08633.1241,W,,,251118,,*1B
$GPGGA,002754.0,3443.4906,N,08633.1235,W,1,,,243.9,M,,M,,*76
$GPRMC,002754.0,A,3443.4906,N,08633.1235,W,,,251118,,*1B
$GPGGA,002824.0,3443.4904,N,08633.1234,W,1,,,247.2,M,,M,,*72
$GPRMC,002824.0,A,3443.4904,N,08633.1234,W,,,251118,,*10
$GPGGA,002854.0,3443.4902,N,08633.1233,W,1,,,248.7,M,,M,,*7E
$GPRMC,002854.0,A,3443.4902,N,08633.1233,W,,,251118,,*16
$GPGGA,002924.0,3443.4906,N,08633.1243,W,1,,,247.5,M,,M,,*76
$GPRMC,002924.0,A,3443.4906,N,08633.1243,W,,,251118,,*13
$GPGGA,002954.0,3443.4905,N,08633.1243,W,1,,,248.9,M,,M,,*71
$GPRMC,002954.0,A,3443.4905,N,08633.1243,W,,,251118,,*17
$GPGGA,003024.0,3443.4901,N,08633.1245,W,1,,,249.4,M,,M,,*70
$GPRMC,003024.0,A,3443.4901,N,08633.1245,W,,,251118,,*1A
$GPGGA,003054.0,3443.4897,N,08633.1247,W,1,,,248.6,M,,M,,*78
$GPRMC,003054.0,A,3443.4897,N,08633.1247,W,,,251118,,*11
$GPGGA,003124.0,3443.4896,N,08633.1248,W,1,,,247.3,M,,M,,*7A
$GPRMC,003124.0,A,3443.4896,N,08633.1248,W,,,251118,,*19
$GPGGA,003154.0,3443.4898,N,08633.1249,W,1,,,244.6,M,,M,,*74
$GPRMC,003154.0,A,3443.4898,N,08633.1249,W,,,251118,,*11
$GPGGA,003224.0,3443.4907,N,08633.1252,W,1,,,243.5,M,,M,,*79
$GPRMC,003224.0,A,3443.4907,N,08633.1252,W,,,251118,,*18
$GPGGA,003254.0,3443.4907,N,08633.1252,W,1,,,242.4,M,,M,,*7E
$GPRMC,003254.0,A,3443.4907,N,08633.1252,W,,,251118,,*1F
$GPGGA,003324.0,3443.4907,N,08633.1253,W,1,,,244.3,M,,M,,*78
$GPRMC,003324.0,A,3443.4907,N,08633.1253,W,,,251118,,*18
$GPGGA,003354.0,3443.4907,N,08633.1253,W,1,,,244.0,M,,M,,*7C
$GPRMC,003354.0,A,3443.4907,N,08633.1253,W,,,251118,,*1F
$GPGGA,003424.0,3443.4906,N,08633.1253,W,1,,,243.8,M,,M,,*72
$GPRMC,003424.0,A,3443.4906,N,08633.1253,W,,,251118,,*1E
$GPGGA,003454.0,3443.4906,N,08633.1254,W,1,,,241.4,M,,M,,*7C
$GPRMC,003454.0,A,3443.4906,N,08633.1254,W,,,251118,,*1E
$GPGGA,003524.0,3443.4912,N,08633.1257,W,1,,,234.0,M,,M,,*7A
$GPRMC,003524.0,A,3443.4912,N,08633.1257,W,,,251118,,*1E
$GPGGA,003554.0,3443.4912,N,08633.1257,W,1,,,232.9,M,,M,,*72
$GPRMC,003554.0,A,3443.4912,N,08633.1257,W,,,251118,,*19
$GPGGA,003624.0,3443.4912,N,08633.1257,W,1,,,231.9,M,,M,,*75
$GPRMC,003624.0,A,3443.4912,N,08633.1257,W,,,251118,,*1D
$GPGGA,003654.0,3443.4912,N,08633.1257,W,1,,,231.3,M,,M,,*78
$GPRMC,003654.0,A,3443.4912,N,08633.1257,W,,,251118,,*1A
$GPGGA,003724.0,3443.4907,N,08633.1261,W,1,,,237.4,M,,M,,*7E
$GPRMC,003724.0,A,3443.4907,N,08633.1261,W,,,251118,,*1D
$GPGGA,003754.0,3443.4907,N,08633.1261,W,1,,,237.2,M,,M,,*7F
$GPRMC,003754.0,A,3443.4907,N,08633.1261,W,,,251118,,*1A
$GPGGA,003824.0,3443.4907,N,08633.1261,W,1,,,235.9,M,,M,,*7E
$GPRMC,003824.0,A,3443.4907,N,08633.1261,W,,,251118,,*12
$GPGGA,003854.0,3443.4917,N,08633.1261,W,1,,,230.1,M,,M,,*75
$GPRMC,003854.0,A,3443.4917,N,08633.1261,W,,,251118,,*14
$GPGGA,003924.0,3443.4917,N,08633.1260,W,1,,,229.2,M,,M,,*79
$GPRMC,003924.0,A,3443.4917,N,08633.1260,W,,,251118,,*13
$GPGGA,003954.0,3443.4917,N,08633.1260,W,1,,,228.6,M,,M,,*7B
$GPRMC,003954.0,A,3443.4917,N,08633.1260,W,,,251118,,*14
$GPGGA,004024.0,3443.4917,N,08633.1259,W,1,,,228.2,M,,M,,*7C
$GPRMC,004024.0,A,3443.4917,N,08633.1259,W,,,251118,,*17
$GPGGA,004054.0,3443.4917,N,08633.1260,W,1,,,227.7,M,,M,,*7B
$GPRMC,004054.0,A,3443.4917,N,08633.1260,W,,,251118,,*1A
$GPGGA,004124.0,3443.4910,N,08633.1258,W,1,,,230.7,M,,M,,*77
$GPRMC,004124.0,A,3443.4910,N,08633.1258,W,,,251118,,*10
$GPGGA,004154.0,3443.4909,N,08633.1258,W,1,,,230.5,M,,M,,*7A
$GPRMC,004154.0,A,3443.4909,N,08633.1258,W,,,251118,,*1F
$GPGGA,004224.0,3443.4909,N,08633.1257,W,1,,,230.5,M,,M,,*71
$GPRMC,004224.0,A,3443.4909,N,08633.1257,W,,,251118,,*14
$GPGGA,004254.0,3443.4909,N,08633.1256,W,1,,,230.4,M,,M,,*76
$GPRMC,004254.0,A,3443.4909,N,08633.1256,W,,,251118,,*12
$GPGGA,004324.0,3443.4909,N,08633.1256,W,1,,,230.5,M,,M,,*71
$GPRMC,004324.0,A,3443.4909,N,08633.1256,W,,,251118,,*14
$GPGGA,004354.0,3443.4909,N,08633.1256,W,1,,,230.2,M,,M,,*71
$GPRMC,004354.0,A,3443.4909,N,08633.1256,W,,,251118,,*13
$GPGGA,004424.0,3443.4902,N,08633.1255,W,1,,,233.2,M,,M,,*7A
$GPRMC,004424.0,A,3443.4902,N,08633.1255,W,,,251118,,*1B
$GPGGA,004454.0,3443.4902,N,08633.1255,W,1,,,232.5,M,,M,,*7B
$GPRMC,004454.0,A,3443.4902,N,08633.1255,W,,,251118,,*1C
$GPGGA,004524.0,3443.4902,N,08633.1255,W,1,,,232.1,M,,M,,*79
$GPRMC,004524.0,A,3443.4902,N,08633.1255,W,,,251118,,*1A
$GPGGA,004554.0,3443.4902,N,08633.1255,W,1,,,231.8,M,,M,,*74
$GPRMC,004554.0,A,3443.4902,N,08633.1255,W,,,251118,,*1D
$GPGGA,004624.0,3443.4902,N,08633.1255,W,1,,,231.5,M,,M,,*7D
$GPRMC,004624.0,A,3443.4902,N,08633.1255,W,,,251118,,*19
$GPGGA,004654.0,3443.4902,N,08633.1254,W,1,,,231.4,M,,M,,*7A
$GPRMC,004654.0,A,3443.4902,N,08633.1254,W,,,251118,,*1F
$GPGGA,004724.0,3443.4902,N,08633.1254,W,1,,,231.2,M,,M,,*7A
$GPRMC,004724.0,A,3443.4902,N,08633.1254,W,,,251118,,*19
$GPGGA,004754.0,3443.4915,N,08633.1258,W,1,,,232.7,M,,M,,*71
$GPRMC,004754.0,A,3443.4915,N,08633.1258,W,,,251118,,*14
$GPGGA,004824.0,3443.4914,N,08633.1259,W,1,,,231.5,M,,M,,*78
$GPRMC,004824.0,A,3443.4914,N,08633.1259,W,,,251118,,*1C
$GPGGA,004854.0,3443.4913,N,08633.1257,W,1,,,235.5,M,,M,,*72
$GPRMC,004854.0,A,3443.4913,N,08633.1257,W,,,251118,,*12
$GPGGA,004924.0,3443.4912,N,08633.1256,W,1,,,238.6,M,,M,,*7A
$GPRMC,004924.0,A,3443.4912,N,08633.1256,W,,,251118,,*14
$GPGGA,004954.0,3443.4911,N,08633.1255,W,1,,,238.6,M,,M,,*7D
$GPRMC,004954.0,A,3443.4911,N,08633.1255,W,,,251118,,*13
$GPGGA,005024.0,3443.4916,N,08633.1247,W,1,,,228.0,M,,M,,*71
$GPRMC,005024.0,A,3443.4916,N,08633.1247,W,,,251118,,*18
$GPGGA,005054.0,3443.4916,N,08633.1246,W,1,,,222.3,M,,M,,*7E
$GPRMC,005054.0,A,3443.4916,N,08633.1246,W,,,251118,,*1E
$GPGGA,005124.0,3443.4926,N,08633.1250,W,1,,,220.5,M,,M,,*78
$GPRMC,005124.0,A,3443.4926,N,08633.1250,W,,,251118,,*1C
$GPGGA,005154.0,3443.4920,N,08633.1249,W,1,,,228.7,M,,M,,*7B
$GPRMC,005154.0,A,3443.4920,N,08633.1249,W,,,251118,,*15
$GPGGA,005224.0,3443.4919,N,08633.1246,W,1,,,230.0,M,,M,,*74
$GPRMC,005224.0,A,3443.4919,N,08633.1246,W,,,251118,,*14
$GPGGA,005254.0,3443.4919,N,08633.1244,W,1,,,230.4,M,,M,,*75
$GPRMC,005254.0,A,3443.4919,N,08633.1244,W,,,251118,,*11
$GPGGA,005324.0,3443.4864,N,08633.1209,W,1,,,11.1,M,,M,,*45
$GPRMC,005324.0,A,3443.4864,N,08633.1209,W,,,251118,,*15
$GPGGA,005354.1,3443.4863,N,08633.1209,W,1,,,8.4,M,,M,,*79
$GPRMC,005354.1,A,3443.4863,N,08633.1209,W,,,251118,,*14
$GPGGA,005424.0,3443.4864,N,08633.1210,W,1,,,6.1,M,,M,,*7C
$GPRMC,005424.0,A,3443.4864,N,08633.1210,W,,,251118,,*1A
$GPGGA,005454.0,3443.4864,N,08633.1210,W,1,,,4.5,M,,M,,*7D
$GPRMC,005454.0,A,3443.4864,N,08633.1210,W,,,251118,,*1D
$GPGGA,005524.0,3443.4864,N,08633.1211,W,1,,,1.6,M,,M,,*7C
$GPRMC,005524.0,A,3443.4864,N,08633.1211,W,,,251118,,*1A
$GPGGA,005554.0,3443.4864,N,08633.1213,W,1,,,254.8,M,,M,,*75
$GPRMC,005554.0,A,3443.4864,N,08633.1213,W,,,251118,,*1F
$GPGGA,005624.0,3443.4874,N,08633.1216,W,1,,,242.0,M,,M,,*7A
$GPRMC,005624.0,A,3443.4874,N,08633.1216,W,,,251118,,*1F
$GPGGA,005654.0,3443.4877,N,08633.1218,W,1,,,228.4,M,,M,,*78
$GPRMC,005654.0,A,3443.4877,N,08633.1218,W,,,251118,,*15
$GPGGA,005724.0,3443.4878,N,08633.1221,W,1,,,221.7,M,,M,,*71
$GPRMC,005724.0,A,3443.4878,N,08633.1221,W,,,251118,,*16
$GPGGA,005754.0,3443.4875,N,08633.1221,W,1,,,221.4,M,,M,,*78
$GPRMC,005754.0,A,3443.4875,N,08633.1221,W,,,251118,,*1C
$GPGGA,005824.0,3443.4876,N,08633.1221,W,1,,,222.4,M,,M,,*70
$GPRMC,005824.0,A,3443.4876,N,08633.1221,W,,,251118,,*17
$GPGGA,005854.0,3443.4876,N,08633.1221,W,1,,,222.9,M,,M,,*7A
$GPRMC,005854.0,A,3443.4876,N,08633.1221,W,,,251118,,*10
$GPGGA,005924.0,3443.4877,N,08633.1221,W,1,,,224.2,M,,M,,*70
$GPRMC,005924.0,A,3443.4877,N,08633.1221,W,,,251118,,*17
$GPGGA,005954.0,3443.4880,N,08633.1218,W,1,,,225.5,M,,M,,*73
$GPRMC,005954.0,A,3443.4880,N,08633.1218,W,,,251118,,*12
$GPGGA,010024.0,3443.4882,N,08633.1219,W,1,,,225.6,M,,M,,*79
$GPRMC,010024.0,A,3443.4882,N,08633.1219,W,,,251118,,*1B
$GPGGA,010054.0,3443.4882,N,08633.1219,W,1,,,225.6,M,,M,,*7E
$GPRMC,010054.0,A,3443.4882,N,08633.1219,W,,,251118,,*1C
$GPGGA,010124.0,3443.4850,N,08633.1252,W,1,,,217.2,M,,M,,*7D
$GPRMC,010124.0,A,3443.4850,N,08633.1252,W,,,251118,,*1A
$GPGGA,010154.0,3443.4861,N,08633.1299,W,1,,,208.8,M,,M,,*7B
$GPRMC,010154.0,A,3443.4861,N,08633.1299,W,,,251118,,*18
$GPGGA,010224.0,3443.4862,N,08633.1298,W,1,,,214.5,M,,M,,*7D
$GPRMC,010224.0,A,3443.4862,N,08633.1298,W,,,251118,,*1E
$GPGGA,010254.0,3443.4863,N,08633.1296,W,1,,,220.1,M,,M,,*76
$GPRMC,010254.0,A,3443.4863,N,08633.1296,W,,,251118,,*16
$GPGGA,010324.0,3443.4863,N,08633.1295,W,1,,,222.6,M,,M,,*76
$GPRMC,010324.0,A,3443.4863,N,08633.1295,W,,,251118,,*13
$GPGGA,010354.0,3443.4863,N,08633.1294,W,1,,,226.1,M,,M,,*73
$GPRMC,010354.0,A,3443.4863,N,08633.1294,W,,,251118,,*15
$GPGGA,010424.0,3443.4854,N,08633.1296,W,1,,,231.7,M,,M,,*75
$GPRMC,010424.0,A,3443.4854,N,08633.1296,W,,,251118,,*13
$GPGGA,010454.0,3443.4861,N,08633.1290,W,1,,,230.7,M,,M,,*73
$GPRMC,010454.0,A,3443.4861,N,08633.1290,W,,,251118,,*14
$GPGGA,010524.0,3443.4861,N,08633.1289,W,1,,,232.6,M,,M,,*7E
$GPRMC,010524.0,A,3443.4861,N,08633.1289,W,,,251118,,*1A
$GPGGA,010554.0,3443.4861,N,08633.1289,W,1,,,231.2,M,,M,,*7E
$GPRMC,010554.0,A,3443.4861,N,08633.1289,W,,,251118,,*1D
$GPGGA,010624.0,3443.4872,N,08633.1273,W,1,,,232.7,M,,M,,*7B
$GPRMC,010624.0,A,3443.4872,N,08633.1273,W,,,251118,,*1E
$GPGGA,010654.0,3443.4875,N,08633.1272,W,1,,,231.1,M,,M,,*7F
$GPRMC,010654.0,A,3443.4875,N,08633.1272,W,,,251118,,*1F
$GPGGA,010724.0,3443.4873,N,08633.1271,W,1,,,232.5,M,,M,,*7B
$GPRMC,010724.0,A,3443.4873,N,08633.1271,W,,,251118,,*1C
$GPGGA,010754.0,3443.4874,N,08633.1269,W,1,,,231.8,M,,M,,*7C
$GPRMC,010754.0,A,3443.4874,N,08633.1269,W,,,251118,,*15
$GPGGA,010824.0,3443.4875,N,08633.1269,W,1,,,231.2,M,,M,,*7F
$GPRMC,010824.0,A,3443.4875,N,08633.1269,W,,,251118,,*1C
$GPGGA,010854.0,3443.4875,N,08633.1268,W,1,,,231.0,M,,M,,*7B
$GPRMC,010854.0,A,3443.4875,N,08633.1268,W,,,251118,,*1A
$GPGGA,010924.0,3443.4876,N,08633.1268,W,1,,,230.7,M,,M,,*78
$GPRMC,010924.0,A,3443.4876,N,08633.1268,W,,,251118,,*1F
$GPGGA,010954.0,3443.4876,N,08633.1268,W,1,,,230.1,M,,M,,*79
$GPRMC,010954.0,A,3443.4876,N,08633.1268,W,,,251118,,*18
$GPGGA,011024.1,3443.4869,N,08633.1265,W,1,,,231.4,M,,M,,*70
$GPRMC,011024.1,A,3443.4869,N,08633.1265,W,,,251118,,*15
$GPGGA,011054.0,3443.4870,N,08633.1264,W,1,,,231.2,M,,M,,*79
$GPRMC,011054.0,A,3443.4870,N,08633.1264,W,,,251118,,*1A
$GPGGA,011124.0,3443.4870,N,08633.1264,W,1,,,230.3,M,,M,,*7F
$GPRMC,011124.0,A,3443.4870,N,08633.1264,W,,,251118,,*1C
$GPGGA,011154.0,3443.4870,N,08633.1263,W,1,,,229.3,M,,M,,*77
$GPRMC,011154.0,A,3443.4870,N,08633.1263,W,,,251118,,*1C
$GPGGA,011224.0,3443.4870,N,08633.1264,W,1,,,228.2,M,,M,,*74
$GPRMC,011224.0,A,3443.4870,N,08633.1264,W,,,251118,,*1F
$GPGGA,011254.0,3443.4870,N,08633.1264,W,1,,,227.7,M,,M,,*79
$GPRMC,011254.0,A,3443.4870,N,08633.1264,W,,,251118,,*18
$GPGGA,011324.0,3443.4870,N,08633.1263,W,1,,,227.4,M,,M,,*7B
$GPRMC,011324.0,A,3443.4870,N,08633.1263,W,,,251118,,*19
$GPGGA,011354.0,3443.4870,N,08633.1263,W,1,,,227.3,M,,M,,*7B
$GPRMC,011354.0,A,3443.4870,N,08633.1263,W,,,251118,,*1E
$GPGGA,011424.0,3443.4863,N,08633.1263,W,1,,,222.7,M,,M,,*78
$GPRMC,011424.0,A,3443.4863,N,08633.1263,W,,,251118,,*1C
$GPGGA,011454.0,3443.4863,N,08633.1263,W,1,,,222.7,M,,M,,*7F
$GPRMC,011454.0,A,3443.4863,N,08633.1263,W,,,251118,,*1B
$GPGGA,011524.0,3443.4864,N,08633.1263,W,1,,,222.9,M,,M,,*70
$GPRMC,011524.0,A,3443.4864,N,08633.1263,W,,,251118,,*1A
$GPGGA,011554.0,3443.4864,N,08633.1262,W,1,,,222.9,M,,M,,*76
$GPRMC,011554.0,A,3443.4864,N,08633.1262,W,,,251118,,*1C
$GPGGA,011624.0,3443.4854,N,08633.1280,W,1,,,229.3,M,,M,,*7C
$GPRMC,011624.0,A,3443.4854,N,08633.1280,W,,,251118,,*17
$GPGGA,011654.0,3443.4857,N,08633.1275,W,1,,,228.9,M,,M,,*79
$GPRMC,011654.0,A,3443.4857,N,08633.1275,W,,,251118,,*19
$GPGGA,011724.0,3443.4859,N,08633.1248,W,1,,,234.8,M,,M,,*73
$GPRMC,011724.0,A,3443.4859,N,08633.1248,W,,,251118,,*1F
$GPGGA,011754.0,3443.4844,N,08633.1264,W,1,,,224.2,M,,M,,*7D
$GPRMC,011754.0,A,3443.4844,N,08633.1264,W,,,251118,,*1A
$GPGGA,011824.0,3443.4845,N,08633.1265,W,1,,,217.2,M,,M,,*75
$GPRMC,011824.0,A,3443.4845,N,08633.1265,W,,,251118,,*12
$GPGGA,011854.0,3443.4856,N,08633.1259,W,1,,,216.0,M,,M,,*7C
$GPRMC,011854.0,A,3443.4856,N,08633.1259,W,,,251118,,*18
$GPGGA,011924.0,3443.4858,N,08633.1248,W,1,,,215.8,M,,M,,*7F
$GPRMC,011924.0,A,3443.4858,N,08633.1248,W,,,251118,,*10
$GPGGA,011954.0,3443.4870,N,08633.1243,W,1,,,217.8,M,,M,,*7B
$GPRMC,011954.0,A,3443.4870,N,08633.1243,W,,,251118,,*16
$GPGGA,012024.0,3443.4870,N,08633.1243,W,1,,,221.3,M,,M,,*78
$GPRMC,012024.0,A,3443.4870,N,08633.1243,W,,,251118,,*1B
$GPGGA,012054.1,3443.4874,N,08633.1242,W,1,,,220.4,M,,M,,*7D
$GPRMC,012054.1,A,3443.4874,N,08633.1242,W,,,251118,,*18
$GPGGA,012124.0,3443.4875,N,08633.1242,W,1,,,221.6,M,,M,,*78
$GPRMC,012124.0,A,3443.4875,N,08633.1242,W,,,251118,,*1E
$GPGGA,012154.0,3443.4885,N,08633.1238,W,1,,,222.1,M,,M,,*79
$GPRMC,012154.0,A,3443.4885,N,08633.1238,W,,,251118,,*1B
$GPGGA,012224.0,3443.4895,N,08633.1237,W,1,,,224.9,M,,M,,*7D
$GPRMC,012224.0,A,3443.4895,N,08633.1237,W,,,251118,,*11
$GPGGA,012254.0,3443.4896,N,08633.1237,W,1,,,226.8,M,,M,,*7A
$GPRMC,012254.0,A,3443.4896,N,08633.1237,W,,,251118,,*15
$GPGGA,012324.0,3443.4890,N,08633.1252,W,1,,,223.3,M,,M,,*77
$GPRMC,012324.0,A,3443.4890,N,08633.1252,W,,,251118,,*16
$GPGGA,012354.0,3443.4883,N,08633.1263,W,1,,,223.2,M,,M,,*71
$GPRMC,012354.0,A,3443.4883,N,08633.1263,W,,,251118,,*11
$GPGGA,012424.0,3443.4884,N,08633.1263,W,1,,,224.2,M,,M,,*71
$GPRMC,012424.0,A,3443.4884,N,08633.1263,W,,,251118,,*16
$GPGGA,012454.0,3443.4884,N,08633.1262,W,1,,,224.8,M,,M,,*7D
$GPRMC,012454.0,A,3443.4884,N,08633.1262,W,,,251118,,*10
$GPGGA,012524.0,3443.4825,N,08633.1279,W,1,,,225.9,M,,M,,*7A
$GPRMC,012524.0,A,3443.4825,N,08633.1279,W,,,251118,,*17
$GPGGA,012554.0,3443.4847,N,08633.1267,W,1,,,226.1,M,,M,,*7D
$GPRMC,012554.0,A,3443.4847,N,08633.1267,W,,,251118,,*1B
$GPGGA,012624.0,3443.4848,N,08633.1267,W,1,,,231.9,M,,M,,*78
$GPRMC,012624.0,A,3443.4848,N,08633.1267,W,,,251118,,*10
$GPGGA,012654.0,3443.4849,N,08633.1267,W,1,,,233.2,M,,M,,*77
$GPRMC,012654.0,A,3443.4849,N,08633.1267,W,,,251118,,*16
$GPGGA,012724.0,3443.4850,N,08633.1266,W,1,,,231.5,M,,M,,*7D
$GPRMC,012724.0,A,3443.4850,N,08633.1266,W,,,251118,,*19
$GPGGA,012754.0,3443.4851,N,08633.1271,W,1,,,225.6,M,,M,,*7B
$GPRMC,012754.0,A,3443.4851,N,08633.1271,W,,,251118,,*19
$GPGGA,012824.0,3443.4851,N,08633.1271,W,1,,,226.2,M,,M,,*74
$GPRMC,012824.0,A,3443.4851,N,08633.1271,W,,,251118,,*11
$GPGGA,012854.0,3443.4852,N,08633.1270,W,1,,,225.9,M,,M,,*79
$GPRMC,012854.0,A,3443.4852,N,08633.1270,W,,,251118,,*14
$GPGGA,012924.0,3443.4853,N,08633.1269,W,1,,,227.7,M,,M,,*7A
$GPRMC,012924.0,A,3443.4853,N,08633.1269,W,,,251118,,*1B
$GPGGA,012954.0,3443.4853,N,08633.1267,W,1,,,228.3,M,,M,,*78
$GPRMC,012954.0,A,3443.4853,N,08633.1267,W,,,251118,,*12
$GPGGA,013024.0,3443.4870,N,08633.1289,W,1,,,221.5,M,,M,,*79
$GPRMC,013024.0,A,3443.4870,N,08633.1289,W,,,251118,,*1C
$GPGGA,013054.0,3443.4829,N,08633.1298,W,1,,,217.5,M,,M,,*77
$GPRMC,013054.0,A,3443.4829,N,08633.1298,W,,,251118,,*17
$GPGGA,013124.0,3443.4830,N,08633.1298,W,1,,,217.8,M,,M,,*74
$GPRMC,013124.0,A,3443.4830,N,08633.1298,W,,,251118,,*19
$GPGGA,013154.0,3443.4842,N,08633.1283,W,1,,,220.6,M,,M,,*76
$GPRMC,013154.0,A,3443.4842,N,08633.1283,W,,,251118,,*11
$GPGGA,013224.0,3443.4844,N,08633.1283,W,1,,,221.2,M,,M,,*71
$GPRMC,013224.0,A,3443.4844,N,08633.1283,W,,,251118,,*13
$GPGGA,013254.0,3443.4847,N,08633.1281,W,1,,,223.2,M,,M,,*75
$GPRMC,013254.0,A,3443.4847,N,08633.1281,W,,,251118,,*15
$GPGGA,013324.0,3443.4850,N,08633.1281,W,1,,,221.8,M,,M,,*7D
$GPRMC,013324.0,A,3443.4850,N,08633.1281,W,,,251118,,*15
$GPGGA,013354.0,3443.4856,N,08633.1280,W,1,,,221.8,M,,M,,*7D
$GPRMC,013354.0,A,3443.4856,N,08633.1280,W,,,251118,,*15
$GPGGA,013424.0,3443.4852,N,08633.1274,W,1,,,224.0,M,,M,,*7F
$GPRMC,013424.0,A,3443.4852,N,08633.1274,W,,,251118,,*1A
$GPGGA,013454.0,3443.4855,N,08633.1271,W,1,,,224.1,M,,M,,*7B
$GPRMC,013454.0,A,3443.4855,N,08633.1271,W,,,251118,,*1F
$GPGGA,013524.0,3443.4849,N,08633.1279,W,1,,,226.2,M,,M,,*79
$GPRMC,013524.0,A,3443.4849,N,08633.1279,W,,,251118,,*1C
$GPGGA,013554.0,3443.4851,N,08633.1279,W,1,,,225.0,M,,M,,*76
$GPRMC,013554.0,A,3443.4851,N,08633.1279,W,,,251118,,*12
$GPGGA,013624.0,3443.4852,N,08633.1279,W,1,,,222.3,M,,M,,*75
$GPRMC,013624.0,A,3443.4852,N,08633.1279,W,,,251118,,*15
$GPGGA,013654.0,3443.4855,N,08633.1278,W,1,,,221.0,M,,M,,*74
$GPRMC,013654.0,A,3443.4855,N,08633.1278,W,,,251118,,*14
$GPGGA,013724.0,3443.4857,N,08633.1278,W,1,,,219.6,M,,M,,*7D
$GPRMC,013724.0,A,3443.4857,N,08633.1278,W,,,251118,,*10
$GPGGA,013754.0,3443.4859,N,08633.1277,W,1,,,218.8,M,,M,,*74
$GPRMC,013754.0,A,3443.4859,N,08633.1277,W,,,251118,,*16
$GPGGA,013824.0,3443.4852,N,08633.1272,W,1,,,217.3,M,,M,,*76
$GPRMC,013824.0,A,3443.4852,N,08633.1272,W,,,251118,,*10
$GPGGA,013854.0,3443.4853,N,08633.1273,W,1,,,217.4,M,,M,,*76
$GPRMC,013854.0,A,3443.4853,N,08633.1273,W,,,251118,,*17
$GPGGA,013924.0,3443.4854,N,08633.1273,W,1,,,217.8,M,,M,,*7B
$GPRMC,013924.0,A,3443.4854,N,08633.1273,W,,,251118,,*16
$GPGGA,013954.1,3443.4855,N,08633.1273,W,1,,,217.8,M,,M,,*7C
$GPRMC,013954.1,A,3443.4855,N,08633.1273,W,,,251118,,*11
$GPGGA,014024.0,3443.4858,N,08633.1271,W,1,,,216.7,M,,M,,*75
$GPRMC,014024.0,A,3443.4858,N,08633.1271,W,,,251118,,*16
$GPGGA,014054.0,3443.4861,N,08633.1270,W,1,,,215.7,M,,M,,*7A
$GPRMC,014054.0,A,3443.4861,N,08633.1270,W,,,251118,,*1A
$GPGGA,014124.0,3443.4862,N,08633.1270,W,1,,,215.6,M,,M,,*7E
$GPRMC,014124.0,A,3443.4862,N,08633.1270,W,,,251118,,*1F
$GPGGA,014154.0,3443.4863,N,08633.1270,W,1,,,215.5,M,,M,,*7B
$GPRMC,014154.0,A,3443.4863,N,08633.1270,W,,,251118,,*19
$GPGGA,014224.0,3443.4863,N,08633.1269,W,1,,,216.1,M,,M,,*70
$GPRMC,014224.0,A,3443.4863,N,08633.1269,W,,,251118,,*15
$GPGGA,014254.0,3443.4865,N,08633.1268,W,1,,,216.0,M,,M,,*71
$GPRMC,014254.0,A,3443.4865,N,08633.1268,W,,,251118,,*15
$GPGGA,014324.0,3443.4867,N,08633.1267,W,1,,,216.1,M,,M,,*7B
$GPRMC,014324.0,A,3443.4867,N,08633.1267,W,,,251118,,*1E
$GPGGA,014354.1,3443.4867,N,08633.1267,W,1,,,216.2,M,,M,,*7E
$GPRMC,014354.1,A,3443.4867,N,08633.1267,W,,,251118,,*18
$GPGGA,014424.2,3443.4867,N,08633.1265,W,1,,,218.8,M,,M,,*7B
$GPRMC,014424.2,A,3443.4867,N,08633.1265,W,,,251118,,*19
$GPGGA,014454.0,3443.4857,N,08633.1272,W,1,,,220.3,M,,M,,*7B
$GPRMC,014454.0,A,3443.4857,N,08633.1272,W,,,251118,,*19
$GPGGA,014524.0,3443.4857,N,08633.1272,W,1,,,221.0,M,,M,,*7F
$GPRMC,014524.0,A,3443.4857,N,08633.1272,W,,,251118,,*1F
$GPGGA,014554.0,3443.4857,N,08633.1272,W,1,,,221.1,M,,M,,*79
$GPRMC,014554.0,A,3443.4857,N,08633.1272,W,,,251118,,*18
$GPGGA,014624.0,3443.4857,N,08633.1272,W,1,,,221.1,M,,M,,*7D
$GPRMC,014624.0,A,3443.4857,N,08633.1272,W,,,251118,,*1C
$GPGGA,014654.0,3443.4866,N,08633.1259,W,1,,,219.7,M,,M,,*7C
$GPRMC,014654.0,A,3443.4866,N,08633.1259,W,,,251118,,*10
$GPGGA,014724.0,3443.4863,N,08633.1234,W,1,,,219.4,M,,M,,*77
$GPRMC,014724.0,A,3443.4863,N,08633.1234,W,,,251118,,*18
$GPGGA,014754.0,3443.4869,N,08633.1234,W,1,,,217.5,M,,M,,*75
$GPRMC,014754.0,A,3443.4869,N,08633.1234,W,,,251118,,*15
$GPGGA,014824.0,3443.4869,N,08633.1234,W,1,,,217.9,M,,M,,*71
$GPRMC,014824.0,A,3443.4869,N,08633.1234,W,,,251118,,*1D
$GPGGA,014854.0,3443.4869,N,08633.1234,W,1,,,218.1,M,,M,,*71
$GPRMC,014854.0,A,3443.4869,N,08633.1234,W,,,251118,,*1A
$GPGGA,014924.0,3443.4869,N,08633.1234,W,1,,,217.9,M,,M,,*70
$GPRMC,014924.0,A,3443.4869,N,08633.1234,W,,,251118,,*1C
$GPGGA,014954.3,3443.4869,N,08633.1234,W,1,,,217.9,M,,M,,*74
$GPRMC,014954.3,A,3443.4869,N,08633.1234,W,,,251118,,*18
$GPGGA,015024.1,3443.4870,N,08633.1234,W,1,,,218.0,M,,M,,*77
$GPRMC,015024.1,A,3443.4870,N,08633.1234,W,,,251118,,*1D
$GPGGA,015054.0,3443.4870,N,08633.1234,W,1,,,218.1,M,,M,,*70
$GPRMC,015054.0,A,3443.4870,N,08633.1234,W,,,251118,,*1B
$GPGGA,015124.0,3443.4873,N,08633.1231,W,1,,,216.4,M,,M,,*7B
$GPRMC,015124.0,A,3443.4873,N,08633.1231,W,,,251118,,*1B
$GPGGA,015154.0,3443.4865,N,08633.1216,W,1,,,216.5,M,,M,,*7F
$GPRMC,015154.0,A,3443.4865,N,08633.1216,W,,,251118,,*1E
$GPGGA,015224.0,3443.4865,N,08633.1216,W,1,,,216.4,M,,M,,*7A
$GPRMC,015224.0,A,3443.4865,N,08633.1216,W,,,251118,,*1A
$GPGGA,015254.0,3443.4872,N,08633.1220,W,1,,,211.2,M,,M,,*7F
$GPRMC,015254.0,A,3443.4872,N,08633.1220,W,,,251118,,*1E
$GPGGA,015324.0,3443.4872,N,08633.1220,W,1,,,211.2,M,,M,,*79
$GPRMC,015324.0,A,3443.4872,N,08633.1220,W,,,251118,,*18
$GPGGA,015354.0,3443.4872,N,08633.1221,W,1,,,211.3,M,,M,,*7E
$GPRMC,015354.0,A,3443.4872,N,08633.1221,W,,,251118,,*1E
$GPGGA,015424.0,3443.4865,N,08633.1221,W,1,,,214.4,M,,M,,*7A
$GPRMC,015424.0,A,3443.4865,N,08633.1221,W,,,251118,,*18
$GPGGA,015454.0,3443.4865,N,08633.1221,W,1,,,214.8,M,,M,,*71
$GPRMC,015454.0,A,3443.4865,N,08633.1221,W,,,251118,,*1F
$GPGGA,015524.0,3443.4865,N,08633.1222,W,1,,,215.5,M,,M,,*78
$GPRMC,015524.0,A,3443.4865,N,08633.1222,W,,,251118,,*1A
$GPGGA,015554.0,3443.4866,N,08633.1222,W,1,,,216.7,M,,M,,*7D
$GPRMC,015554.0,A,3443.4866,N,08633.1222,W,,,251118,,*1E
$GPGGA,015624.0,3443.4863,N,08633.1229,W,1,,,213.1,M,,M,,*74
$GPRMC,015624.0,A,3443.4863,N,08633.1229,W,,,251118,,*14
$GPGGA,015654.0,3443.4864,N,08633.1228,W,1,,,213.3,M,,M,,*77
$GPRMC,015654.0,A,3443.4864,N,08633.1228,W,,,251118,,*15
$GPGGA,015724.0,3443.4865,N,08633.1228,W,1,,,213.4,M,,M,,*77
$GPRMC,015724.0,A,3443.4865,N,08633.1228,W,,,251118,,*12
$GPGGA,015754.0,3443.4865,N,08633.1228,W,1,,,213.5,M,,M,,*71
$GPRMC,015754.0,A,3443.4865,N,08633.1228,W,,,251118,,*15
$GPGGA,015824.0,3443.4875,N,08633.1213,W,1,,,224.1,M,,M,,*70
$GPRMC,015824.0,A,3443.4875,N,08633.1213,W,,,251118,,*14
$GPGGA,015854.0,3443.4875,N,08633.1213,W,1,,,224.1,M,,M,,*77
$GPRMC,015854.0,A,3443.4875,N,08633.1213,W,,,251118,,*13
$GPGGA,015924.0,3443.4871,N,08633.1174,W,1,,,224.1,M,,M,,*77
$GPRMC,015924.0,A,3443.4871,N,08633.1174,W,,,251118,,*13
$GPGGA,015954.0,3443.4870,N,08633.1174,W,1,,,223.9,M,,M,,*7E
$GPRMC,015954.0,A,3443.4870,N,08633.1174,W,,,251118,,*15
$GPGGA,020024.0,3443.4870,N,08633.1175,W,1,,,223.7,M,,M,,*79
$GPRMC,020024.0,A,3443.4870,N,08633.1175,W,,,251118,,*1C
$GPGGA,020054.0,3443.4887,N,08633.1165,W,1,,,224.2,M,,M,,*75
$GPRMC,020054.0,A,3443.4887,N,08633.1165,W,,,251118,,*12
$GPGGA,020124.0,3443.4887,N,08633.1165,W,1,,,224.2,M,,M,,*73
$GPRMC,020124.0,A,3443.4887,N,08633.1165,W,,,251118,,*14
$GPGGA,020154.0,3443.4887,N,08633.1165,W,1,,,224.1,M,,M,,*77
$GPRMC,020154.0,A,3443.4887,N,08633.1165,W,,,251118,,*13
$GPGGA,020224.0,3443.4888,N,08633.1165,W,1,,,224.1,M,,M,,*7C
$GPRMC,020224.0,A,3443.4888,N,08633.1165,W,,,251118,,*18
$GPGGA,020254.0,3443.4889,N,08633.1168,W,1,,,224.3,M,,M,,*75
$GPRMC,020254.0,A,3443.4889,N,08633.1168,W,,,251118,,*13
$GPGGA,020324.0,3443.4889,N,08633.1170,W,1,,,224.9,M,,M,,*70
$GPRMC,020324.0,A,3443.4889,N,08633.1170,W,,,251118,,*1C
$GPGGA,020354.0,3443.4889,N,08633.1172,W,1,,,225.9,M,,M,,*74
$GPRMC,020354.0,A,3443.4889,N,08633.1172,W,,,251118,,*19
$GPGGA,020424.0,3443.4890,N,08633.1173,W,1,,,224.8,M,,M,,*7D
$GPRMC,020424.0,A,3443.4890,N,08633.1173,W,,,251118,,*10
$GPGGA,020454.0,3443.4889,N,08633.1176,W,1,,,224.6,M,,M,,*79
$GPRMC,020454.0,A,3443.4889,N,08633.1176,W,,,251118,,*1A
$GPGGA,020524.0,3443.4890,N,08633.1179,W,1,,,226.0,M,,M,,*7C
$GPRMC,020524.0,A,3443.4890,N,08633.1179,W,,,251118,,*1B
$GPGGA,020554.0,3443.4890,N,08633.1182,W,1,,,226.9,M,,M,,*76
$GPRMC,020554.0,A,3443.4890,N,08633.1182,W,,,251118,,*18
$GPGGA,020624.0,3443.4890,N,08633.1182,W,1,,,226.8,M,,M,,*73
$GPRMC,020624.0,A,3443.4890,N,08633.1182,W,,,251118,,*1C
$GPGGA,020654.0,3443.4890,N,08633.1189,W,1,,,226.6,M,,M,,*71
$GPRMC,020654.0,A,3443.4890,N,08633.1189,W,,,251118,,*10
$GPGGA,020724.0,3443.4891,N,08633.1206,W,1,,,222.0,M,,M,,*70
$GPRMC,020724.0,A,3443.4891,N,08633.1206,W,,,251118,,*13
$GPGGA,020754.0,3443.4891,N,08633.1207,W,1,,,221.3,M,,M,,*76
$GPRMC,020754.0,A,3443.4891,N,08633.1207,W,,,251118,,*15
$GPGGA,020824.0,3443.4892,N,08633.1207,W,1,,,221.1,M,,M,,*7F
$GPRMC,020824.0,A,3443.4892,N,08633.1207,W,,,251118,,*1E
$GPGGA,020854.0,3443.4892,N,08633.1208,W,1,,,220.8,M,,M,,*7F
$GPRMC,020854.0,A,3443.4892,N,08633.1208,W,,,251118,,*16
$GPGGA,020924.0,3443.4892,N,08633.1209,W,1,,,219.2,M,,M,,*78
$GPRMC,020924.0,A,3443.4892,N,08633.1209,W,,,251118,,*11
$GPGGA,020954.0,3443.4892,N,08633.1209,W,1,,,217.6,M,,M,,*75
$GPRMC,020954.0,A,3443.4892,N,08633.1209,W,,,251118,,*16
$GPGGA,021024.0,3443.4893,N,08633.1211,W,1,,,213.6,M,,M,,*76
$GPRMC,021024.0,A,3443.4893,N,08633.1211,W,,,251118,,*11
$GPGGA,021054.0,3443.4893,N,08633.1212,W,1,,,214.3,M,,M,,*70
$GPRMC,021054.0,A,3443.4893,N,08633.1212,W,,,251118,,*15
$GPGGA,021124.0,3443.4888,N,08633.1209,W,1,,,217.1,M,,M,,*77
$GPRMC,021124.0,A,3443.4888,N,08633.1209,W,,,251118,,*13
$GPGGA,021154.0,3443.4882,N,08633.1211,W,1,,,214.5,M,,M,,*74
$GPRMC,021154.0,A,3443.4882,N,08633.1211,W,,,251118,,*17
$GPGGA,021224.0,3443.4878,N,08633.1209,W,1,,,216.7,M,,M,,*7C
$GPRMC,021224.0,A,3443.4878,N,08633.1209,W,,,251118,,*1F
$GPGGA,021254.0,3443.4879,N,08633.1209,W,1,,,216.6,M,,M,,*7B
$GPRMC,021254.0,A,3443.4879,N,08633.1209,W,,,251118,,*19
$GPGGA,021324.0,3443.4879,N,08633.1210,W,1,,,217.1,M,,M,,*73
$GPRMC,021324.0,A,3443.4879,N,08633.1210,W,,,251118,,*17
$GPGGA,021354.0,3443.4880,N,08633.1210,W,1,,,216.1,M,,M,,*73
$GPRMC,021354.0,A,3443.4880,N,08633.1210,W,,,251118,,*16
$GPGGA,021424.0,3443.4880,N,08633.1210,W,1,,,215.3,M,,M,,*72
$GPRMC,021424.0,A,3443.4880,N,08633.1210,W,,,251118,,*16
$GPGGA,021454.0,3443.4880,N,08633.1210,W,1,,,215.1,M,,M,,*77
$GPRMC,021454.0,A,3443.4880,N,08633.1210,W,,,251118,,*11
$GPGGA,021524.0,3443.4880,N,08633.1210,W,1,,,214.8,M,,M,,*79
$GPRMC,021524.0,A,3443.4880,N,08633.1210,W,,,251118,,*17
$GPGGA,021554.0,3443.4880,N,08633.1210,W,1,,,214.8,M,,M,,*7E
$GPRMC,021554.0,A,3443.4880,N,08633.1210,W,,,251118,,*10
$GPGGA,021624.0,3443.4879,N,08633.1216,W,1,,,217.2,M,,M,,*73
$GPRMC,021624.0,A,3443.4879,N,08633.1216,W,,,251118,,*14
$GPGGA,021654.0,3443.4880,N,08633.1215,W,1,,,216.6,M,,M,,*74
$GPRMC,021654.0,A,3443.4880,N,08633.1215,W,,,251118,,*16
$GPGGA,021724.0,3443.4882,N,08633.1215,W,1,,,216.0,M,,M,,*76
$GPRMC,021724.0,A,3443.4882,N,08633.1215,W,,,251118,,*12
$GPGGA,021754.0,3443.4883,N,08633.1214,W,1,,,216.5,M,,M,,*74
$GPRMC,021754.0,A,3443.4883,N,08633.1214,W,,,251118,,*15
$GPGGA,021824.0,3443.4883,N,08633.1214,W,1,,,216.9,M,,M,,*70
$GPRMC,021824.0,A,3443.4883,N,08633.1214,W,,,251118,,*1D
$GPGGA,021854.0,3443.4884,N,08633.1214,W,1,,,216.8,M,,M,,*71
$GPRMC,021854.0,A,3443.4884,N,08633.1214,W,,,251118,,*1D
$GPGGA,021924.0,3443.4892,N,08633.1215,W,1,,,215.1,M,,M,,*7B
$GPRMC,021924.0,A,3443.4892,N,08633.1215,W,,,251118,,*1D
$GPGGA,021954.0,3443.4892,N,08633.1215,W,1,,,215.1,M,,M,,*7C
$GPRMC,021954.0,A,3443.4892,N,08633.1215,W,,,251118,,*1A
$GPGGA,022024.0,3443.4892,N,08633.1215,W,1,,,215.1,M,,M,,*71
$GPRMC,022024.0,A,3443.4892,N,08633.1215,W,,,251118,,*17
$GPGGA,022054.0,3443.4892,N,08633.1215,W,1,,,215.1,M,,M,,*76
$GPRMC,022054.0,A,3443.4892,N,08633.1215,W,,,251118,,*10
$GPGGA,022124.0,3443.4892,N,08633.1215,W,1,,,215.1,M,,M,,*70
$GPRMC,022124.0,A,3443.4892,N,08633.1215,W,,,251118,,*16
$GPGGA,022154.0,3443.4892,N,08633.1216,W,1,,,215.1,M,,M,,*74
$GPRMC,022154.0,A,3443.4892,N,08633.1216,W,,,251118,,*12
$GPGGA,022224.0,3443.4893,N,08633.1217,W,1,,,215.1,M,,M,,*70
$GPRMC,022224.0,A,3443.4893,N,08633.1217,W,,,251118,,*16
$GPGGA,022254.0,3443.4896,N,08633.1221,W,1,,,215.4,M,,M,,*72
$GPRMC,022254.0,A,3443.4896,N,08633.1221,W,,,251118,,*11
$GPGGA,022324.0,3443.4895,N,08633.1227,W,1,,,214.8,M,,M,,*7C
$GPRMC,022324.0,A,3443.4895,N,08633.1227,W,,,251118,,*12
$GPGGA,022354.0,3443.4895,N,08633.1227,W,1,,,215.0,M,,M,,*72
$GPRMC,022354.0,A,3443.4895,N,08633.1227,W,,,251118,,*15
$GPGGA,022424.0,3443.4895,N,08633.1227,W,1,,,215.3,M,,M,,*71
$GPRMC,022424.0,A,3443.4895,N,08633.1227,W,,,251118,,*15
$GPGGA,022454.0,3443.4895,N,08633.1228,W,1,,,216.0,M,,M,,*79
$GPRMC,022454.0,A,3443.4895,N,08633.1228,W,,,251118,,*1D
$GPGGA,022524.0,3443.4895,N,08633.1237,W,1,,,216.0,M,,M,,*71
$GPRMC,022524.0,A,3443.4895,N,08633.1237,W,,,251118,,*15
$GPGGA,022554.0,3443.4903,N,08633.1247,W,1,,,216.1,M,,M,,*7E
$GPRMC,022554.0,A,3443.4903,N,08633.1247,W,,,251118,,*1B
$GPGGA,022624.0,3443.4912,N,08633.1243,W,1,,,220.8,M,,M,,*72
$GPRMC,022624.0,A,3443.4912,N,08633.1243,W,,,251118,,*1B
$GPGGA,022654.0,3443.4912,N,08633.1242,W,1,,,222.9,M,,M,,*77
$GPRMC,022654.0,A,3443.4912,N,08633.1242,W,,,251118,,*1D
$GPGGA,022724.0,3443.4918,N,08633.1237,W,1,,,223.7,M,,M,,*76
$GPRMC,022724.0,A,3443.4918,N,08633.1237,W,,,251118,,*13
$GPGGA,022754.0,3443.4925,N,08633.1245,W,1,,,223.8,M,,M,,*75
$GPRMC,022754.0,A,3443.4925,N,08633.1245,W,,,251118,,*1F
$GPGGA,022824.0,3443.4925,N,08633.1244,W,1,,,225.3,M,,M,,*71
$GPRMC,022824.0,A,3443.4925,N,08633.1244,W,,,251118,,*16
$GPGGA,022854.0,3443.4925,N,08633.1243,W,1,,,226.2,M,,M,,*73
$GPRMC,022854.0,A,3443.4925,N,08633.1243,W,,,251118,,*16
$GPGGA,022924.0,3443.4925,N,08633.1243,W,1,,,225.8,M,,M,,*7C
$GPRMC,022924.0,A,3443.4925,N,08633.1243,W,,,251118,,*10
$GPGGA,022954.0,3443.4925,N,08633.1243,W,1,,,229.6,M,,M,,*79
$GPRMC,022954.0,A,3443.4925,N,08633.1243,W,,,251118,,*17
$GPGGA,023024.0,3443.4926,N,08633.1243,W,1,,,236.1,M,,M,,*7C
$GPRMC,023024.0,A,3443.4926,N,08633.1243,W,,,251118,,*1B
$GPGGA,023054.0,3443.4926,N,08633.1243,W,1,,,236.4,M,,M,,*7E
$GPRMC,023054.0,A,3443.4926,N,08633.1243,W,,,251118,,*1C
$GPGGA,023124.0,3443.4926,N,08633.1243,W,1,,,236.7,M,,M,,*7B
$GPRMC,023124.0,A,3443.4926,N,08633.1243,W,,,251118,,*1A
$GPGGA,023154.0,3443.4926,N,08633.1244,W,1,,,236.3,M,,M,,*7F
$GPRMC,023154.0,A,3443.4926,N,08633.1244,W,,,251118,,*1A
$GPGGA,023224.0,3443.4926,N,08633.1244,W,1,,,236.0,M,,M,,*78
$GPRMC,023224.0,A,3443.4926,N,08633.1244,W,,,251118,,*1E
$GPGGA,023254.0,3443.4925,N,08633.1244,W,1,,,235.3,M,,M,,*7C
$GPRMC,023254.0,A,3443.4925,N,08633.1244,W,,,251118,,*1A
$GPGGA,023324.0,3443.4924,N,08633.1245,W,1,,,234.1,M,,M,,*79
$GPRMC,023324.0,A,3443.4924,N,08633.1245,W,,,251118,,*1C
$GPGGA,023354.0,3443.4923,N,08633.1246,W,1,,,232.2,M,,M,,*7F
$GPRMC,023354.0,A,3443.4923,N,08633.1246,W,,,251118,,*1F
$GPGGA,023424.0,3443.4921,N,08633.1246,W,1,,,233.1,M,,M,,*7F
$GPRMC,023424.0,A,3443.4921,N,08633.1246,W,,,251118,,*1D
$GPGGA,023454.0,3443.4920,N,08633.1248,W,1,,,232.1,M,,M,,*76
$GPRMC,023454.0,A,3443.4920,N,08633.1248,W,,,251118,,*15
$GPGGA,023524.0,3443.4920,N,08633.1248,W,1,,,231.8,M,,M,,*7A
$GPRMC,023524.0,A,3443.4920,N,08633.1248,W,,,251118,,*13
$GPGGA,023554.0,3443.4921,N,08633.1249,W,1,,,231.7,M,,M,,*72
$GPRMC,023554.0,A,3443.4921,N,08633.1249,W,,,251118,,*14
$GPGGA,023624.0,3443.4921,N,08633.1250,W,1,,,232.2,M,,M,,*78
$GPRMC,023624.0,A,3443.4921,N,08633.1250,W,,,251118,,*18
$GPGGA,023654.0,3443.4922,N,08633.1251,W,1,,,232.4,M,,M,,*7B
$GPRMC,023654.0,A,3443.4922,N,08633.1251,W,,,251118,,*1D
$GPGGA,023724.0,3443.4922,N,08633.1252,W,1,,,232.1,M,,M,,*7B
$GPRMC,023724.0,A,3443.4922,N,08633.1252,W,,,251118,,*18
$GPGGA,023754.0,3443.4922,N,08633.1252,W,1,,,232.2,M,,M,,*7F
$GPRMC,023754.0,A,3443.4922,N,08633.1252,W,,,251118,,*1F
$GPGGA,023824.0,3443.4922,N,08633.1252,W,1,,,232.0,M,,M,,*75
$GPRMC,023824.0,A,3443.4922,N,08633.1252,W,,,251118,,*17
$GPGGA,023854.0,3443.4922,N,08633.1253,W,1,,,231.7,M,,M,,*77
$GPRMC,023854.0,A,3443.4922,N,08633.1253,W,,,251118,,*11
$GPGGA,023924.0,3443.4922,N,08633.1254,W,1,,,231.4,M,,M,,*75
$GPRMC,023924.0,A,3443.4922,N,08633.1254,W,,,251118,,*10
$GPGGA,023954.0,3443.4882,N,08633.1248,W,1,,,218.6,M,,M,,*7D
$GPRMC,023954.0,A,3443.4882,N,08633.1248,W,,,251118,,*11
$GPGGA,024024.0,3443.4883,N,08633.1244,W,1,,,219.9,M,,M,,*77
$GPRMC,024024.0,A,3443.4883,N,08633.1244,W,,,251118,,*15
$GPGGA,024054.0,3443.4884,N,08633.1244,W,1,,,223.6,M,,M,,*71
$GPRMC,024054.0,A,3443.4884,N,08633.1244,W,,,251118,,*15
$GPGGA,024124.0,3443.4886,N,08633.1244,W,1,,,226.3,M,,M,,*75
$GPRMC,024124.0,A,3443.4886,N,08633.1244,W,,,251118,,*11
$GPGGA,024154.0,3443.4888,N,08633.1242,W,1,,,228.9,M,,M,,*7E
$GPRMC,024154.0,A,3443.4888,N,08633.1242,W,,,251118,,*1E
$GPGGA,024224.0,3443.4892,N,08633.1241,W,1,,,234.9,M,,M,,*7F
$GPRMC,024224.0,A,3443.4892,N,08633.1241,W,,,251118,,*12
$GPGGA,024254.0,3443.4892,N,08633.1240,W,1,,,236.5,M,,M,,*77
$GPRMC,024254.0,A,3443.4892,N,08633.1240,W,,,251118,,*14
$GPGGA,024324.0,3443.4893,N,08633.1241,W,1,,,239.5,M,,M,,*7E
$GPRMC,024324.0,A,3443.4893,N,08633.1241,W,,,251118,,*12
$GPGGA,024354.0,3443.4893,N,08633.1240,W,1,,,240.1,M,,M,,*72
$GPRMC,024354.0,A,3443.4893,N,08633.1240,W,,,251118,,*14
$GPGGA,024424.0,3443.4893,N,08633.1240,W,1,,,240.9,M,,M,,*7A
$GPRMC,024424.0,A,3443.4893,N,08633.1240,W,,,251118,,*14
$GPGGA,024454.0,3443.4894,N,08633.1239,W,1,,,242.0,M,,M,,*7F
$GPRMC,024454.0,A,3443.4894,N,08633.1239,W,,,251118,,*1A
$GPGGA,024524.0,3443.4894,N,08633.1239,W,1,,,241.9,M,,M,,*73
$GPRMC,024524.0,A,3443.4894,N,08633.1239,W,,,251118,,*1C
$GPGGA,024554.0,3443.4894,N,08633.1240,W,1,,,241.8,M,,M,,*7B
$GPRMC,024554.0,A,3443.4894,N,08633.1240,W,,,251118,,*15
$GPGGA,024624.0,3443.4894,N,08633.1240,W,1,,,242.0,M,,M,,*74
$GPRMC,024624.0,A,3443.4894,N,08633.1240,W,,,251118,,*11
$GPGGA,024654.0,3443.4882,N,08633.1238,W,1,,,237.2,M,,M,,*7B
$GPRMC,024654.0,A,3443.4882,N,08633.1238,W,,,251118,,*1E
$GPGGA,024724.0,3443.4883,N,08633.1238,W,1,,,238.7,M,,M,,*76
$GPRMC,024724.0,A,3443.4883,N,08633.1238,W,,,251118,,*19
$GPGGA,024754.0,3443.4885,N,08633.1238,W,1,,,243.3,M,,M,,*7F
$GPRMC,024754.0,A,3443.4885,N,08633.1238,W,,,251118,,*18
$GPGGA,024824.0,3443.4887,N,08633.1238,W,1,,,245.6,M,,M,,*76
$GPRMC,024824.0,A,3443.4887,N,08633.1238,W,,,251118,,*12
$GPGGA,024854.0,3443.4872,N,08633.1226,W,1,,,243.5,M,,M,,*71
$GPRMC,024854.0,A,3443.4872,N,08633.1226,W,,,251118,,*10
$GPGGA,024924.0,3443.4872,N,08633.1226,W,1,,,243.5,M,,M,,*77
$GPRMC,024924.0,A,3443.4872,N,08633.1226,W,,,251118,,*16
$GPGGA,024954.0,3443.4872,N,08633.1226,W,1,,,243.4,M,,M,,*71
$GPRMC,024954.0,A,3443.4872,N,08633.1226,W,,,251118,,*11
$GPGGA,025024.0,3443.4872,N,08633.1226,W,1,,,243.8,M,,M,,*72
$GPRMC,025024.0,A,3443.4872,N,08633.1226,W,,,251118,,*1E
$GPGGA,025054.0,3443.4873,N,08633.1227,W,1,,,245.1,M,,M,,*7A
$GPRMC,025054.0,A,3443.4873,N,08633.1227,W,,,251118,,*19
$GPGGA,025124.0,3443.4875,N,08633.1227,W,1,,,248.9,M,,M,,*7F
$GPRMC,025124.0,A,3443.4875,N,08633.1227,W,,,251118,,*19
$GPGGA,025154.0,3443.4876,N,08633.1227,W,1,,,251.1,M,,M,,*7B
$GPRMC,025154.0,A,3443.4876,N,08633.1227,W,,,251118,,*1D
$GPGGA,025224.0,3443.4876,N,08633.1227,W,1,,,252.2,M,,M,,*7F
$GPRMC,025224.0,A,3443.4876,N,08633.1227,W,,,251118,,*19
$GPGGA,025254.0,3443.4877,N,08633.1227,W,1,,,252.3,M,,M,,*78
$GPRMC,025254.0,A,3443.4877,N,08633.1227,W,,,251118,,*1F
$GPGGA,025324.0,3443.4877,N,08633.1227,W,1,,,252.8,M,,M,,*75
$GPRMC,025324.0,A,3443.4877,N,08633.1227,W,,,251118,,*19
$GPGGA,025354.0,3443.4877,N,08633.1227,W,1,,,253.1,M,,M,,*7A
$GPRMC,025354.0,A,3443.4877,N,08633.1227,W,,,251118,,*1E
$GPGGA,025424.0,3443.4857,N,08633.1226,W,1,,,247.3,M,,M,,*7E
$GPRMC,025424.0,A,3443.4857,N,08633.1226,W,,,251118,,*1D
$GPGGA,025454.0,3443.4858,N,08633.1227,W,1,,,246.7,M,,M,,*72
$GPRMC,025454.0,A,3443.4858,N,08633.1227,W,,,251118,,*14
$GPGGA,025524.0,3443.4860,N,08633.1228,W,1,,,246.9,M,,M,,*7E
$GPRMC,025524.0,A,3443.4860,N,08633.1228,W,,,251118,,*16
$GPGGA,025554.0,3443.4860,N,08633.1229,W,1,,,247.0,M,,M,,*70
$GPRMC,025554.0,A,3443.4860,N,08633.1229,W,,,251118,,*10
$GPGGA,025624.0,3443.4860,N,08633.1230,W,1,,,247.0,M,,M,,*7C
$GPRMC,025624.0,A,3443.4860,N,08633.1230,W,,,251118,,*1C
$GPGGA,025654.0,3443.4860,N,08633.1230,W,1,,,247.0,M,,M,,*7B
$GPRMC,025654.0,A,3443.4860,N,08633.1230,W,,,251118,,*1B
$GPGGA,025724.0,3443.4861,N,08633.1231,W,1,,,247.6,M,,M,,*7B
$GPRMC,025724.0,A,3443.4861,N,08633.1231,W,,,251118,,*1D
$GPGGA,025754.0,3443.4861,N,08633.1231,W,1,,,248.4,M,,M,,*71
$GPRMC,025754.0,A,3443.4861,N,08633.1231,W,,,251118,,*1A
$GPGGA,025824.0,3443.4861,N,08633.1232,W,1,,,247.9,M,,M,,*78
$GPRMC,025824.0,A,3443.4861,N,08633.1232,W,,,251118,,*11
$GPGGA,025854.0,3443.4861,N,08633.1232,W,1,,,247.4,M,,M,,*72
$GPRMC,025854.0,A,3443.4861,N,08633.1232,W,,,251118,,*16
$GPGGA,025924.0,3443.4862,N,08633.1233,W,1,,,247.3,M,,M,,*71
$GPRMC,025924.0,A,3443.4862,N,08633.1233,W,,,251118,,*12
$GPGGA,025954.0,3443.4862,N,08633.1233,W,1,,,247.0,M,,M,,*75
$GPRMC,025954.0,A,3443.4862,N,08633.1233,W,,,251118,,*15
$GPGGA,030024.0,3443.4862,N,08633.1234,W,1,,,246.2,M,,M,,*7B
$GPRMC,030024.0,A,3443.4862,N,08633.1234,W,,,251118,,*18
$GPGGA,030054.0,3443.4862,N,08633.1235,W,1,,,246.2,M,,M,,*7D
$GPRMC,030054.0,A,3443.4862,N,08633.1235,W,,,251118,,*1E
$GPGGA,030124.0,3443.4884,N,08633.1234,W,1,,,250.8,M,,M,,*7F
$GPRMC,030124.0,A,3443.4884,N,08633.1234,W,,,251118,,*11
$GPGGA,030154.0,3443.4884,N,08633.1235,W,1,,,250.4,M,,M,,*75
$GPRMC,030154.0,A,3443.4884,N,08633.1235,W,,,251118,,*17
$GPGGA,030224.0,3443.4884,N,08633.1235,W,1,,,248.5,M,,M,,*79
$GPRMC,030224.0,A,3443.4884,N,08633.1235,W,,,251118,,*13
$GPGGA,030254.0,3443.4884,N,08633.1236,W,1,,,246.8,M,,M,,*7E
$GPRMC,030254.0,A,3443.4884,N,08633.1236,W,,,251118,,*17
$GPGGA,030324.0,3443.4885,N,08633.1236,W,1,,,243.1,M,,M,,*75
$GPRMC,030324.0,A,3443.4885,N,08633.1236,W,,,251118,,*10
$GPGGA,030354.0,3443.4886,N,08633.1236,W,1,,,240.2,M,,M,,*71
$GPRMC,030354.0,A,3443.4886,N,08633.1236,W,,,251118,,*14
$GPGGA,030424.0,3443.4887,N,08633.1237,W,1,,,237.4,M,,M,,*77
$GPRMC,030424.0,A,3443.4887,N,08633.1237,W,,,251118,,*14
$GPGGA,030454.0,3443.4887,N,08633.1237,W,1,,,236.1,M,,M,,*74
$GPRMC,030454.0,A,3443.4887,N,08633.1237,W,,,251118,,*13
$GPGGA,030524.0,3443.4885,N,08633.1250,W,1,,,233.7,M,,M,,*72
$GPRMC,030524.0,A,3443.4885,N,08633.1250,W,,,251118,,*16
$GPGGA,030554.0,3443.4887,N,08633.1250,W,1,,,233.9,M,,M,,*79
$GPRMC,030554.0,A,3443.4887,N,08633.1250,W,,,251118,,*13
$GPGGA,030624.0,3443.4888,N,08633.1250,W,1,,,234.4,M,,M,,*78
$GPRMC,030624.0,A,3443.4888,N,08633.1250,W,,,251118,,*18
$GPGGA,030654.0,3443.4894,N,08633.1238,W,1,,,240.3,M,,M,,*78
$GPRMC,030654.0,A,3443.4894,N,08633.1238,W,,,251118,,*1C
$GPGGA,030724.0,3443.4897,N,08633.1239,W,1,,,237.6,M,,M,,*79
$GPRMC,030724.0,A,3443.4897,N,08633.1239,W,,,251118,,*18
$GPGGA,030754.0,3443.4898,N,08633.1239,W,1,,,233.2,M,,M,,*71
$GPRMC,030754.0,A,3443.4898,N,08633.1239,W,,,251118,,*10
$GPGGA,030824.0,3443.4899,N,08633.1239,W,1,,,230.4,M,,M,,*7D
$GPRMC,030824.0,A,3443.4899,N,08633.1239,W,,,251118,,*19
$GPGGA,030854.0,3443.4898,N,08633.1239,W,1,,,229.1,M,,M,,*76
$GPRMC,030854.0,A,3443.4898,N,08633.1239,W,,,251118,,*1F
$GPGGA,030924.0,3443.4899,N,08633.1239,W,1,,,228.5,M,,M,,*74
$GPRMC,030924.0,A,3443.4899,N,08633.1239,W,,,251118,,*18
$GPGGA,030954.1,3443.4900,N,08633.1238,W,1,,,228.6,M,,M,,*71
$GPRMC,030954.1,A,3443.4900,N,08633.1238,W,,,251118,,*1E
$GPGGA,031024.0,3443.4902,N,08633.1237,W,1,,,228.7,M,,M,,*73
$GPRMC,031024.0,A,3443.4902,N,08633.1237,W,,,251118,,*1D
$GPGGA,031054.0,3443.4902,N,08633.1236,W,1,,,228.6,M,,M,,*74
$GPRMC,031054.0,A,3443.4902,N,08633.1236,W,,,251118,,*1B
$GPGGA,031124.0,3443.4903,N,08633.1235,W,1,,,228.5,M,,M,,*73
$GPRMC,031124.0,A,3443.4903,N,08633.1235,W,,,251118,,*1F
$GPGGA,031154.0,3443.4904,N,08633.1235,W,1,,,228.5,M,,M,,*73
$GPRMC,031154.0,A,3443.4904,N,08633.1235,W,,,251118,,*1F
$GPGGA,031224.0,3443.4904,N,08633.1232,W,1,,,221.7,M,,M,,*7B
$GPRMC,031224.0,A,3443.4904,N,08633.1232,W,,,251118,,*1C
$GPGGA,031254.0,3443.4904,N,08633.1231,W,1,,,218.8,M,,M,,*7A
$GPRMC,031254.0,A,3443.4904,N,08633.1231,W,,,251118,,*18
$GPGGA,031324.0,3443.4905,N,08633.1231,W,1,,,218.9,M,,M,,*7C
$GPRMC,031324.0,A,3443.4905,N,08633.1231,W,,,251118,,*1F
$GPGGA,031354.0,3443.4924,N,08633.1254,W,1,,,200.7,M,,M,,*7C
$GPRMC,031354.0,A,3443.4924,N,08633.1254,W,,,251118,,*18
$GPGGA,031424.0,3443.4923,N,08633.1254,W,1,,,203.0,M,,M,,*7F
$GPRMC,031424.0,A,3443.4923,N,08633.1254,W,,,251118,,*1F
$GPGGA,031454.0,3443.4923,N,08633.1253,W,1,,,205.2,M,,M,,*7B
$GPRMC,031454.0,A,3443.4923,N,08633.1253,W,,,251118,,*1F
$GPGGA,031524.0,3443.4923,N,08633.1253,W,1,,,205.3,M,,M,,*7C
$GPRMC,031524.0,A,3443.4923,N,08633.1253,W,,,251118,,*19
$GPGGA,031554.0,3443.4922,N,08633.1253,W,1,,,205.2,M,,M,,*7B
$GPRMC,031554.0,A,3443.4922,N,08633.1253,W,,,251118,,*1F
$GPGGA,031624.0,3443.4920,N,08633.1249,W,1,,,203.9,M,,M,,*7B
$GPRMC,031624.0,A,3443.4920,N,08633.1249,W,,,251118,,*12
$GPGGA,031654.0,3443.4918,N,08633.1239,W,1,,,198.6,M,,M,,*7E
$GPRMC,031654.0,A,3443.4918,N,08633.1239,W,,,251118,,*19
$GPGGA,031724.0,3443.4915,N,08633.1238,W,1,,,200.8,M,,M,,*78
$GPRMC,031724.0,A,3443.4915,N,08633.1238,W,,,251118,,*13
$GPGGA,031754.0,3443.4912,N,08633.1236,W,1,,,204.7,M,,M,,*7D
$GPRMC,031754.0,A,3443.4912,N,08633.1236,W,,,251118,,*1D
$GPGGA,031824.0,3443.4910,N,08633.1234,W,1,,,209.2,M,,M,,*7D
$GPRMC,031824.0,A,3443.4910,N,08633.1234,W,,,251118,,*15
$GPGGA,031854.0,3443.4908,N,08633.1233,W,1,,,210.3,M,,M,,*7D
$GPRMC,031854.0,A,3443.4908,N,08633.1233,W,,,251118,,*1C
$GPGGA,031924.0,3443.4908,N,08633.1233,W,1,,,210.3,M,,M,,*7B
$GPRMC,031924.0,A,3443.4908,N,08633.1233,W,,,251118,,*1A
$GPGGA,031954.0,3443.4899,N,08633.1227,W,1,,,205.8,M,,M,,*7F
$GPRMC,031954.0,A,3443.4899,N,08633.1227,W,,,251118,,*11
$GPGGA,032024.0,3443.4899,N,08633.1227,W,1,,,206.0,M,,M,,*79
$GPRMC,032024.0,A,3443.4899,N,08633.1227,W,,,251118,,*1C
$GPGGA,032054.0,3443.4899,N,08633.1227,W,1,,,205.5,M,,M,,*78
$GPRMC,032054.0,A,3443.4899,N,08633.1227,W,,,251118,,*1B
$GPGGA,032124.0,3443.4899,N,08633.1227,W,1,,,206.6,M,,M,,*7E
$GPRMC,032124.0,A,3443.4899,N,08633.1227,W,,,251118,,*1D
$GPGGA,032154.0,3443.4898,N,08633.1227,W,1,,,208.4,M,,M,,*74
$GPRMC,032154.0,A,3443.4898,N,08633.1227,W,,,251118,,*1B
$GPGGA,032224.0,3443.4899,N,08633.1209,W,1,,,211.9,M,,M,,*78
$GPRMC,032224.0,A,3443.4899,N,08633.1209,W,,,251118,,*12
$GPGGA,032254.0,3443.4896,N,08633.1204,W,1,,,215.7,M,,M,,*77
$GPRMC,032254.0,A,3443.4896,N,08633.1204,W,,,251118,,*17
$GPGGA,032324.0,3443.4895,N,08633.1205,W,1,,,217.4,M,,M,,*72
$GPRMC,032324.0,A,3443.4895,N,08633.1205,W,,,251118,,*13
$GPGGA,032354.0,3443.4894,N,08633.1204,W,1,,,219.1,M,,M,,*7E
$GPRMC,032354.0,A,3443.4894,N,08633.1204,W,,,251118,,*14
$GPGGA,032424.0,3443.4893,N,08633.1204,W,1,,,220.7,M,,M,,*75
$GPRMC,032424.0,A,3443.4893,N,08633.1204,W,,,251118,,*13
$GPGGA,032454.0,3443.4897,N,08633.1207,W,1,,,220.0,M,,M,,*72
$GPRMC,032454.0,A,3443.4897,N,08633.1207,W,,,251118,,*13
