@Olympus/+0900/+0900
$GPGGA,150013.0,3443.4915,N,08633.1258,W,1,,,229.9,M,,M,,*71
$GPRMC,150013.0,A,3443.4915,N,08633.1258,W,,,271118,,*12
$GPGGA,150043.0,3443.4915,N,08633.1258,W,1,,,229.9,M,,M,,*74
$GPRMC,150043.0,A,3443.4915,N,08633.1258,W,,,271118,,*17
$GPGGA,150113.0,3443.4915,N,08633.1258,W,1,,,229.9,M,,M,,*70
$GPRMC,150113.0,A,3443.4915,N,08633.1258,W,,,271118,,*13
$GPGGA,150143.0,3443.4914,N,08633.1258,W,1,,,229.9,M,,M,,*74
$GPRMC,150143.0,A,3443.4914,N,08633.1258,W,,,271118,,*17
$GPGGA,150213.0,3443.4914,N,08633.1258,W,1,,,229.9,M,,M,,*72
$GPRMC,150213.0,A,3443.4914,N,08633.1258,W,,,271118,,*11
$GPGGA,150243.0,3443.4914,N,08633.1258,W,1,,,229.9,M,,M,,*77
$GPRMC,150243.0,A,3443.4914,N,08633.1258,W,,,271118,,*14
$GPGGA,150313.0,3443.4914,N,08633.1257,W,1,,,229.8,M,,M,,*7D
$GPRMC,150313.0,A,3443.4914,N,08633.1257,W,,,271118,,*1F
$GPGGA,150343.0,3443.4914,N,08633.1257,W,1,,,229.8,M,,M,,*78
$GPRMC,150343.0,A,3443.4914,N,08633.1257,W,,,271118,,*1A
$GPGGA,150413.0,3443.4914,N,08633.1257,W,1,,,229.8,M,,M,,*7A
$GPRMC,150413.0,A,3443.4914,N,08633.1257,W,,,271118,,*18
$GPGGA,150443.0,3443.4914,N,08633.1257,W,1,,,229.7,M,,M,,*70
$GPRMC,150443.0,A,3443.4914,N,08633.1257,W,,,271118,,*1D
$GPGGA,150513.0,3443.4914,N,08633.1257,W,1,,,229.7,M,,M,,*74
$GPRMC,150513.0,A,3443.4914,N,08633.1257,W,,,271118,,*19
$GPGGA,150543.0,3443.4914,N,08633.1257,W,1,,,229.7,M,,M,,*71
$GPRMC,150543.0,A,3443.4914,N,08633.1257,W,,,271118,,*1C
$GPGGA,150613.0,3443.4914,N,08633.1256,W,1,,,229.7,M,,M,,*76
$GPRMC,150613.0,A,3443.4914,N,08633.1256,W,,,271118,,*1B
$GPGGA,150643.0,3443.4913,N,08633.1256,W,1,,,229.6,M,,M,,*75
$GPRMC,150643.0,A,3443.4913,N,08633.1256,W,,,271118,,*19
$GPGGA,150713.0,3443.4913,N,08633.1256,W,1,,,229.6,M,,M,,*71
$GPRMC,150713.0,A,3443.4913,N,08633.1256,W,,,271118,,*1D
$GPGGA,150743.0,3443.4913,N,08633.1256,W,1,,,229.6,M,,M,,*74
$GPRMC,150743.0,A,3443.4913,N,08633.1256,W,,,271118,,*18
$GPGGA,150813.0,3443.4913,N,08633.1256,W,1,,,229.6,M,,M,,*7E
$GPRMC,150813.0,A,3443.4913,N,08633.1256,W,,,271118,,*12
$GPGGA,150843.0,3443.4913,N,08633.1256,W,1,,,229.5,M,,M,,*78
$GPRMC,150843.0,A,3443.4913,N,08633.1256,W,,,271118,,*17
$GPGGA,150913.0,3443.4912,N,08633.1256,W,1,,,229.5,M,,M,,*7D
$GPRMC,150913.0,A,3443.4912,N,08633.1256,W,,,271118,,*12
$GPGGA,150943.0,3443.4917,N,08633.1260,W,1,,,230.2,M,,M,,*77
$GPRMC,150943.0,A,3443.4917,N,08633.1260,W,,,271118,,*17
$GPGGA,151013.0,3443.4919,N,08633.1258,W,1,,,231.6,M,,M,,*7A
$GPRMC,151013.0,A,3443.4919,N,08633.1258,W,,,271118,,*1F
$GPGGA,151043.0,3443.4919,N,08633.1258,W,1,,,231.6,M,,M,,*7F
$GPRMC,151043.0,A,3443.4919,N,08633.1258,W,,,271118,,*1A
$GPGGA,151113.0,3443.4918,N,08633.1258,W,1,,,231.6,M,,M,,*7A
$GPRMC,151113.0,A,3443.4918,N,08633.1258,W,,,271118,,*1F
$GPGGA,151143.0,3443.4918,N,08633.1258,W,1,,,231.6,M,,M,,*7F
$GPRMC,151143.0,A,3443.4918,N,08633.1258,W,,,271118,,*1A
$GPGGA,151213.2,3443.4918,N,08633.1258,W,1,,,231.5,M,,M,,*78
$GPRMC,151213.2,A,3443.4918,N,08633.1258,W,,,271118,,*1E
$GPGGA,151243.0,3443.4918,N,08633.1258,W,1,,,231.5,M,,M,,*7F
$GPRMC,151243.0,A,3443.4918,N,08633.1258,W,,,271118,,*19
$GPGGA,151313.0,3443.4918,N,08633.1258,W,1,,,231.5,M,,M,,*7B
$GPRMC,151313.0,A,3443.4918,N,08633.1258,W,,,271118,,*1D
$GPGGA,151343.0,3443.4918,N,08633.1258,W,1,,,231.4,M,,M,,*7F
$GPRMC,151343.0,A,3443.4918,N,08633.1258,W,,,271118,,*18
$GPGGA,151413.0,3443.4918,N,08633.1258,W,1,,,231.4,M,,M,,*7D
$GPRMC,151413.0,A,3443.4918,N,08633.1258,W,,,271118,,*1A
$GPGGA,151443.0,3443.4918,N,08633.1258,W,1,,,231.3,M,,M,,*7F
$GPRMC,151443.0,A,3443.4918,N,08633.1258,W,,,271118,,*1F
$GPGGA,151513.0,3443.4918,N,08633.1258,W,1,,,231.2,M,,M,,*7A
$GPRMC,151513.0,A,3443.4918,N,08633.1258,W,,,271118,,*1B
$GPGGA,151543.0,3443.4918,N,08633.1258,W,1,,,230.8,M,,M,,*74
$GPRMC,151543.0,A,3443.4918,N,08633.1258,W,,,271118,,*1E
$GPGGA,151613.0,3443.4918,N,08633.1258,W,1,,,230.2,M,,M,,*78
$GPRMC,151613.0,A,3443.4918,N,08633.1258,W,,,271118,,*18
$GPGGA,151643.0,3443.4918,N,08633.1258,W,1,,,229.4,M,,M,,*73
$GPRMC,151643.0,A,3443.4918,N,08633.1258,W,,,271118,,*1D
$GPGGA,151713.0,3443.4918,N,08633.1257,W,1,,,229.2,M,,M,,*7E
$GPRMC,151713.0,A,3443.4918,N,08633.1257,W,,,271118,,*16
$GPGGA,151743.0,3443.4917,N,08633.1257,W,1,,,229.1,M,,M,,*77
$GPRMC,151743.0,A,3443.4917,N,08633.1257,W,,,271118,,*1C
$GPGGA,151813.0,3443.4917,N,08633.1257,W,1,,,229.3,M,,M,,*7F
$GPRMC,151813.0,A,3443.4917,N,08633.1257,W,,,271118,,*16
$GPGGA,151843.0,3443.4917,N,08633.1256,W,1,,,229.8,M,,M,,*70
$GPRMC,151843.0,A,3443.4917,N,08633.1256,W,,,271118,,*12
$GPGGA,151913.0,3443.4916,N,08633.1256,W,1,,,230.0,M,,M,,*75
$GPRMC,151913.0,A,3443.4916,N,08633.1256,W,,,271118,,*17
$GPGGA,151943.0,3443.4916,N,08633.1256,W,1,,,230.0,M,,M,,*70
$GPRMC,151943.0,A,3443.4916,N,08633.1256,W,,,271118,,*12
$GPGGA,152013.0,3443.4916,N,08633.1256,W,1,,,230.0,M,,M,,*7F
$GPRMC,152013.0,A,3443.4916,N,08633.1256,W,,,271118,,*1D
$GPGGA,152043.0,3443.4916,N,08633.1255,W,1,,,229.8,M,,M,,*79
$GPRMC,152043.0,A,3443.4916,N,08633.1255,W,,,271118,,*1B
$GPGGA,152113.0,3443.4916,N,08633.1255,W,1,,,229.8,M,,M,,*7D
$GPRMC,152113.0,A,3443.4916,N,08633.1255,W,,,271118,,*1F
$GPGGA,152143.0,3443.4916,N,08633.1255,W,1,,,229.7,M,,M,,*77
$GPRMC,152143.0,A,3443.4916,N,08633.1255,W,,,271118,,*1A
$GPGGA,152213.0,3443.4916,N,08633.1255,W,1,,,229.5,M,,M,,*73
$GPRMC,152213.0,A,3443.4916,N,08633.1255,W,,,271118,,*1C
$GPGGA,152243.0,3443.4916,N,08633.1255,W,1,,,229.5,M,,M,,*76
$GPRMC,152243.0,A,3443.4916,N,08633.1255,W,,,271118,,*19
$GPGGA,152313.0,3443.4916,N,08633.1255,W,1,,,229.2,M,,M,,*75
$GPRMC,152313.0,A,3443.4916,N,08633.1255,W,,,271118,,*1D
$GPGGA,152343.0,3443.4916,N,08633.1255,W,1,,,229.1,M,,M,,*73
$GPRMC,152343.0,A,3443.4916,N,08633.1255,W,,,271118,,*18
$GPGGA,152413.0,3443.4916,N,08633.1255,W,1,,,228.7,M,,M,,*76
$GPRMC,152413.0,A,3443.4916,N,08633.1255,W,,,271118,,*1A
$GPGGA,152443.0,3443.4915,N,08633.1255,W,1,,,228.4,M,,M,,*73
$GPRMC,152443.0,A,3443.4915,N,08633.1255,W,,,271118,,*1C
$GPGGA,152513.0,3443.4915,N,08633.1255,W,1,,,227.8,M,,M,,*74
$GPRMC,152513.0,A,3443.4915,N,08633.1255,W,,,271118,,*18
$GPGGA,152543.0,3443.4915,N,08633.1255,W,1,,,227.6,M,,M,,*7F
$GPRMC,152543.0,A,3443.4915,N,08633.1255,W,,,271118,,*1D
$GPGGA,152613.0,3443.4915,N,08633.1255,W,1,,,227.3,M,,M,,*7C
$GPRMC,152613.0,A,3443.4915,N,08633.1255,W,,,271118,,*1B
$GPGGA,152643.0,3443.4915,N,08633.1255,W,1,,,227.0,M,,M,,*7A
$GPRMC,152643.0,A,3443.4915,N,08633.1255,W,,,271118,,*1E
$GPGGA,152713.0,3443.4916,N,08633.1255,W,1,,,226.7,M,,M,,*7B
$GPRMC,152713.0,A,3443.4916,N,08633.1255,W,,,271118,,*19
$GPGGA,152743.0,3443.4916,N,08633.1255,W,1,,,226.6,M,,M,,*7F
$GPRMC,152743.0,A,3443.4916,N,08633.1255,W,,,271118,,*1C
$GPGGA,152813.1,3443.4916,N,08633.1255,W,1,,,226.3,M,,M,,*71
$GPRMC,152813.1,A,3443.4916,N,08633.1255,W,,,271118,,*17
$GPGGA,152843.0,3443.4916,N,08633.1255,W,1,,,226.3,M,,M,,*75
$GPRMC,152843.0,A,3443.4916,N,08633.1255,W,,,271118,,*13
$GPGGA,152913.0,3443.4915,N,08633.1255,W,1,,,226.3,M,,M,,*72
$GPRMC,152913.0,A,3443.4915,N,08633.1255,W,,,271118,,*14
$GPGGA,152943.0,3443.4915,N,08633.1254,W,1,,,226.4,M,,M,,*71
$GPRMC,152943.0,A,3443.4915,N,08633.1254,W,,,271118,,*10
$GPGGA,153013.0,3443.4914,N,08633.1254,W,1,,,226.4,M,,M,,*7D
$GPRMC,153013.0,A,3443.4914,N,08633.1254,W,,,271118,,*1C
$GPGGA,153043.0,3443.4914,N,08633.1254,W,1,,,226.4,M,,M,,*78
$GPRMC,153043.0,A,3443.4914,N,08633.1254,W,,,271118,,*19
$GPGGA,153113.0,3443.4914,N,08633.1254,W,1,,,226.5,M,,M,,*7D
$GPRMC,153113.0,A,3443.4914,N,08633.1254,W,,,271118,,*1D
$GPGGA,153143.0,3443.4914,N,08633.1254,W,1,,,226.4,M,,M,,*79
$GPRMC,153143.0,A,3443.4914,N,08633.1254,W,,,271118,,*18
$GPGGA,153213.0,3443.4915,N,08633.1254,W,1,,,226.6,M,,M,,*7C
$GPRMC,153213.0,A,3443.4915,N,08633.1254,W,,,271118,,*1F
$GPGGA,153243.0,3443.4915,N,08633.1254,W,1,,,226.7,M,,M,,*78
$GPRMC,153243.0,A,3443.4915,N,08633.1254,W,,,271118,,*1A
$GPGGA,153313.0,3443.4915,N,08633.1254,W,1,,,226.6,M,,M,,*7D
$GPRMC,153313.0,A,3443.4915,N,08633.1254,W,,,271118,,*1E
$GPGGA,153343.0,3443.4916,N,08633.1253,W,1,,,226.4,M,,M,,*7E
$GPRMC,153343.0,A,3443.4916,N,08633.1253,W,,,271118,,*1F
$GPGGA,153413.0,3443.4916,N,08633.1253,W,1,,,226.1,M,,M,,*79
$GPRMC,153413.0,A,3443.4916,N,08633.1253,W,,,271118,,*1D
$GPGGA,153443.0,3443.4916,N,08633.1253,W,1,,,226.2,M,,M,,*7F
$GPRMC,153443.0,A,3443.4916,N,08633.1253,W,,,271118,,*18
$GPGGA,153513.0,3443.4916,N,08633.1253,W,1,,,226.3,M,,M,,*7A
$GPRMC,153513.0,A,3443.4916,N,08633.1253,W,,,271118,,*1C
$GPGGA,153543.0,3443.4916,N,08633.1253,W,1,,,226.5,M,,M,,*79
$GPRMC,153543.0,A,3443.4916,N,08633.1253,W,,,271118,,*19
$GPGGA,153613.0,3443.4916,N,08633.1252,W,1,,,226.6,M,,M,,*7D
$GPRMC,153613.0,A,3443.4916,N,08633.1252,W,,,271118,,*1E
$GPGGA,153643.0,3443.4916,N,08633.1253,W,1,,,226.5,M,,M,,*7A
$GPRMC,153643.0,A,3443.4916,N,08633.1253,W,,,271118,,*1A
$GPGGA,153713.0,3443.4916,N,08633.1252,W,1,,,226.4,M,,M,,*7E
$GPRMC,153713.0,A,3443.4916,N,08633.1252,W,,,271118,,*1F
$GPGGA,153743.0,3443.4916,N,08633.1252,W,1,,,226.4,M,,M,,*7B
$GPRMC,153743.0,A,3443.4916,N,08633.1252,W,,,271118,,*1A
$GPGGA,153813.0,3443.4915,N,08633.1252,W,1,,,226.6,M,,M,,*70
$GPRMC,153813.0,A,3443.4915,N,08633.1252,W,,,271118,,*13
$GPGGA,153843.0,3443.4915,N,08633.1252,W,1,,,226.9,M,,M,,*7A
$GPRMC,153843.0,A,3443.4915,N,08633.1252,W,,,271118,,*16
$GPGGA,153913.0,3443.4915,N,08633.1252,W,1,,,227.1,M,,M,,*77
$GPRMC,153913.0,A,3443.4915,N,08633.1252,W,,,271118,,*12
$GPGGA,153943.0,3443.4915,N,08633.1252,W,1,,,227.1,M,,M,,*72
$GPRMC,153943.0,A,3443.4915,N,08633.1252,W,,,271118,,*17
$GPGGA,154013.0,3443.4915,N,08633.1252,W,1,,,226.9,M,,M,,*70
$GPRMC,154013.0,A,3443.4915,N,08633.1252,W,,,271118,,*1C
$GPGGA,154043.0,3443.4915,N,08633.1252,W,1,,,226.7,M,,M,,*7B
$GPRMC,154043.0,A,3443.4915,N,08633.1252,W,,,271118,,*19
$GPGGA,154113.0,3443.4915,N,08633.1252,W,1,,,226.3,M,,M,,*7B
$GPRMC,154113.0,A,3443.4915,N,08633.1252,W,,,271118,,*1D
$GPGGA,154143.0,3443.4915,N,08633.1252,W,1,,,225.8,M,,M,,*76
$GPRMC,154143.0,A,3443.4915,N,08633.1252,W,,,271118,,*18
$GPGGA,154213.0,3443.4915,N,08633.1252,W,1,,,225.4,M,,M,,*7C
$GPRMC,154213.0,A,3443.4915,N,08633.1252,W,,,271118,,*1E
$GPGGA,154243.0,3443.4915,N,08633.1252,W,1,,,225.1,M,,M,,*7C
$GPRMC,154243.0,A,3443.4915,N,08633.1252,W,,,271118,,*1B
$GPGGA,154313.0,3443.4915,N,08633.1251,W,1,,,225.4,M,,M,,*7E
$GPRMC,154313.0,A,3443.4915,N,08633.1251,W,,,271118,,*1C
$GPGGA,154343.0,3443.4914,N,08633.1251,W,1,,,225.7,M,,M,,*79
$GPRMC,154343.0,A,3443.4914,N,08633.1251,W,,,271118,,*18
$GPGGA,154413.0,3443.4914,N,08633.1251,W,1,,,225.9,M,,M,,*75
$GPRMC,154413.0,A,3443.4914,N,08633.1251,W,,,271118,,*1A
$GPGGA,154443.0,3443.4914,N,08633.1251,W,1,,,226.0,M,,M,,*7A
$GPRMC,154443.0,A,3443.4914,N,08633.1251,W,,,271118,,*1F
$GPGGA,154513.0,3443.4914,N,08633.1251,W,1,,,226.1,M,,M,,*7F
$GPRMC,154513.0,A,3443.4914,N,08633.1251,W,,,271118,,*1B
$GPGGA,154543.0,3443.4914,N,08633.1251,W,1,,,226.1,M,,M,,*7A
$GPRMC,154543.0,A,3443.4914,N,08633.1251,W,,,271118,,*1E
$GPGGA,154613.0,3443.4914,N,08633.1251,W,1,,,226.1,M,,M,,*7C
$GPRMC,154613.0,A,3443.4914,N,08633.1251,W,,,271118,,*18
$GPGGA,154643.0,3443.4914,N,08633.1251,W,1,,,226.2,M,,M,,*7A
$GPRMC,154643.0,A,3443.4914,N,08633.1251,W,,,271118,,*1D
$GPGGA,154713.0,3443.4912,N,08633.1255,W,1,,,227.6,M,,M,,*79
$GPRMC,154713.0,A,3443.4912,N,08633.1255,W,,,271118,,*1B
$GPGGA,154743.0,3443.4912,N,08633.1255,W,1,,,227.7,M,,M,,*7D
$GPRMC,154743.0,A,3443.4912,N,08633.1255,W,,,271118,,*1E
$GPGGA,154813.0,3443.4912,N,08633.1255,W,1,,,227.8,M,,M,,*78
$GPRMC,154813.0,A,3443.4912,N,08633.1255,W,,,271118,,*14
$GPGGA,154843.0,3443.4912,N,08633.1256,W,1,,,228.0,M,,M,,*79
$GPRMC,154843.0,A,3443.4912,N,08633.1256,W,,,271118,,*12
$GPGGA,154913.0,3443.4912,N,08633.1256,W,1,,,228.2,M,,M,,*7F
$GPRMC,154913.0,A,3443.4912,N,08633.1256,W,,,271118,,*16
$GPGGA,154943.0,3443.4912,N,08633.1256,W,1,,,228.3,M,,M,,*7B
$GPRMC,154943.0,A,3443.4912,N,08633.1256,W,,,271118,,*13
$GPGGA,155013.0,3443.4912,N,08633.1256,W,1,,,228.3,M,,M,,*76
$GPRMC,155013.0,A,3443.4912,N,08633.1256,W,,,271118,,*1E
$GPGGA,155043.0,3443.4912,N,08633.1256,W,1,,,228.1,M,,M,,*71
$GPRMC,155043.0,A,3443.4912,N,08633.1256,W,,,271118,,*1B
$GPGGA,155113.0,3443.4912,N,08633.1256,W,1,,,228.1,M,,M,,*75
$GPRMC,155113.0,A,3443.4912,N,08633.1256,W,,,271118,,*1F
$GPGGA,155143.0,3443.4912,N,08633.1255,W,1,,,228.0,M,,M,,*72
$GPRMC,155143.0,A,3443.4912,N,08633.1255,W,,,271118,,*19
$GPGGA,155213.0,3443.4912,N,08633.1255,W,1,,,227.9,M,,M,,*72
$GPRMC,155213.0,A,3443.4912,N,08633.1255,W,,,271118,,*1F
$GPGGA,155243.0,3443.4914,N,08633.1258,W,1,,,226.6,M,,M,,*72
$GPRMC,155243.0,A,3443.4914,N,08633.1258,W,,,271118,,*11
$GPGGA,155313.0,3443.4913,N,08633.1257,W,1,,,226.5,M,,M,,*7D
$GPRMC,155313.0,A,3443.4913,N,08633.1257,W,,,271118,,*1D
$GPGGA,155343.0,3443.4913,N,08633.1257,W,1,,,226.3,M,,M,,*7E
$GPRMC,155343.0,A,3443.4913,N,08633.1257,W,,,271118,,*18
$GPGGA,155413.0,3443.4913,N,08633.1257,W,1,,,226.3,M,,M,,*7C
$GPRMC,155413.0,A,3443.4913,N,08633.1257,W,,,271118,,*1A
$GPGGA,155443.0,3443.4913,N,08633.1257,W,1,,,226.2,M,,M,,*78
$GPRMC,155443.0,A,3443.4913,N,08633.1257,W,,,271118,,*1F
$GPGGA,155513.0,3443.4913,N,08633.1257,W,1,,,226.1,M,,M,,*7F
$GPRMC,155513.0,A,3443.4913,N,08633.1257,W,,,271118,,*1B
$GPGGA,155543.0,3443.4913,N,08633.1257,W,1,,,226.3,M,,M,,*78
$GPRMC,155543.0,A,3443.4913,N,08633.1257,W,,,271118,,*1E
$GPGGA,155613.0,3443.4913,N,08633.1256,W,1,,,226.3,M,,M,,*7F
$GPRMC,155613.0,A,3443.4913,N,08633.1256,W,,,271118,,*19
$GPGGA,155643.0,3443.4913,N,08633.1256,W,1,,,226.3,M,,M,,*7A
$GPRMC,155643.0,A,3443.4913,N,08633.1256,W,,,271118,,*1C
$GPGGA,155713.0,3443.4913,N,08633.1256,W,1,,,226.4,M,,M,,*79
$GPRMC,155713.0,A,3443.4913,N,08633.1256,W,,,271118,,*18
$GPGGA,155743.0,3443.4913,N,08633.1256,W,1,,,226.3,M,,M,,*7B
$GPRMC,155743.0,A,3443.4913,N,08633.1256,W,,,271118,,*1D
$GPGGA,155813.0,3443.4913,N,08633.1256,W,1,,,226.3,M,,M,,*71
$GPRMC,155813.0,A,3443.4913,N,08633.1256,W,,,271118,,*17
$GPGGA,155843.0,3443.4913,N,08633.1256,W,1,,,226.1,M,,M,,*76
$GPRMC,155843.0,A,3443.4913,N,08633.1256,W,,,271118,,*12
$GPGGA,155913.0,3443.4913,N,08633.1256,W,1,,,225.8,M,,M,,*78
$GPRMC,155913.0,A,3443.4913,N,08633.1256,W,,,271118,,*16
$GPGGA,155943.0,3443.4913,N,08633.1256,W,1,,,225.5,M,,M,,*70
$GPRMC,155943.0,A,3443.4913,N,08633.1256,W,,,271118,,*13
$GPGGA,160013.0,3443.4913,N,08633.1256,W,1,,,225.1,M,,M,,*7E
$GPRMC,160013.0,A,3443.4913,N,08633.1256,W,,,271118,,*19
$GPGGA,160043.0,3443.4913,N,08633.1256,W,1,,,224.8,M,,M,,*73
$GPRMC,160043.0,A,3443.4913,N,08633.1256,W,,,271118,,*1C
$GPGGA,160113.0,3443.4913,N,08633.1256,W,1,,,224.8,M,,M,,*77
$GPRMC,160113.0,A,3443.4913,N,08633.1256,W,,,271118,,*18
$GPGGA,160143.0,3443.4913,N,08633.1256,W,1,,,224.6,M,,M,,*7C
$GPRMC,160143.0,A,3443.4913,N,08633.1256,W,,,271118,,*1D
$GPGGA,160213.0,3443.4913,N,08633.1256,W,1,,,224.5,M,,M,,*79
$GPRMC,160213.0,A,3443.4913,N,08633.1256,W,,,271118,,*1B
$GPGGA,160243.0,3443.4913,N,08633.1256,W,1,,,224.4,M,,M,,*7D
$GPRMC,160243.0,A,3443.4913,N,08633.1256,W,,,271118,,*1E
$GPGGA,160313.0,3443.4913,N,08633.1256,W,1,,,224.3,M,,M,,*7E
$GPRMC,160313.0,A,3443.4913,N,08633.1256,W,,,271118,,*1A
$GPGGA,160343.0,3443.4913,N,08633.1255,W,1,,,224.3,M,,M,,*78
$GPRMC,160343.0,A,3443.4913,N,08633.1255,W,,,271118,,*1C
$GPGGA,160413.0,3443.4913,N,08633.1255,W,1,,,224.3,M,,M,,*7A
$GPRMC,160413.0,A,3443.4913,N,08633.1255,W,,,271118,,*1E
$GPGGA,160443.0,3443.4913,N,08633.1255,W,1,,,224.2,M,,M,,*7E
$GPRMC,160443.0,A,3443.4913,N,08633.1255,W,,,271118,,*1B
$GPGGA,160513.0,3443.4913,N,08633.1255,W,1,,,224.2,M,,M,,*7A
$GPRMC,160513.0,A,3443.4913,N,08633.1255,W,,,271118,,*1F
$GPGGA,160543.0,3443.4913,N,08633.1255,W,1,,,224.2,M,,M,,*7F
$GPRMC,160543.0,A,3443.4913,N,08633.1255,W,,,271118,,*1A
$GPGGA,160613.0,3443.4913,N,08633.1255,W,1,,,224.1,M,,M,,*7A
$GPRMC,160613.0,A,3443.4913,N,08633.1255,W,,,271118,,*1C
$GPGGA,160643.0,3443.4913,N,08633.1255,W,1,,,224.2,M,,M,,*7C
$GPRMC,160643.0,A,3443.4913,N,08633.1255,W,,,271118,,*19
$GPGGA,160713.0,3443.4913,N,08633.1255,W,1,,,224.3,M,,M,,*79
$GPRMC,160713.0,A,3443.4913,N,08633.1255,W,,,271118,,*1D
$GPGGA,160743.0,3443.4913,N,08633.1255,W,1,,,224.3,M,,M,,*7C
$GPRMC,160743.0,A,3443.4913,N,08633.1255,W,,,271118,,*18
$GPGGA,160813.0,3443.4913,N,08633.1255,W,1,,,224.3,M,,M,,*76
$GPRMC,160813.0,A,3443.4913,N,08633.1255,W,,,271118,,*12
$GPGGA,160843.0,3443.4913,N,08633.1255,W,1,,,224.3,M,,M,,*73
$GPRMC,160843.0,A,3443.4913,N,08633.1255,W,,,271118,,*17
$GPGGA,160913.0,3443.4913,N,08633.1255,W,1,,,224.3,M,,M,,*77
$GPRMC,160913.0,A,3443.4913,N,08633.1255,W,,,271118,,*13
$GPGGA,160943.0,3443.4913,N,08633.1255,W,1,,,224.0,M,,M,,*71
$GPRMC,160943.0,A,3443.4913,N,08633.1255,W,,,271118,,*16
$GPGGA,161013.0,3443.4913,N,08633.1255,W,1,,,223.7,M,,M,,*7C
$GPRMC,161013.0,A,3443.4913,N,08633.1255,W,,,271118,,*1B
$GPGGA,161043.0,3443.4913,N,08633.1255,W,1,,,223.5,M,,M,,*7B
$GPRMC,161043.0,A,3443.4913,N,08633.1255,W,,,271118,,*1E
$GPGGA,161113.0,3443.4913,N,08633.1255,W,1,,,223.5,M,,M,,*7F
$GPRMC,161113.0,A,3443.4913,N,08633.1255,W,,,271118,,*1A
$GPGGA,161143.0,3443.4913,N,08633.1255,W,1,,,223.5,M,,M,,*7A
$GPRMC,161143.0,A,3443.4913,N,08633.1255,W,,,271118,,*1F
$GPGGA,161213.0,3443.4913,N,08633.1255,W,1,,,223.4,M,,M,,*7D
$GPRMC,161213.0,A,3443.4913,N,08633.1255,W,,,271118,,*19
$GPGGA,161243.0,3443.4913,N,08633.1255,W,1,,,223.4,M,,M,,*78
$GPRMC,161243.0,A,3443.4913,N,08633.1255,W,,,271118,,*1C
$GPGGA,161313.0,3443.4913,N,08633.1255,W,1,,,223.5,M,,M,,*7D
$GPRMC,161313.0,A,3443.4913,N,08633.1255,W,,,271118,,*18
$GPGGA,161343.0,3443.4913,N,08633.1255,W,1,,,223.5,M,,M,,*78
$GPRMC,161343.0,A,3443.4913,N,08633.1255,W,,,271118,,*1D
$GPGGA,161413.0,3443.4913,N,08633.1255,W,1,,,223.5,M,,M,,*7A
$GPRMC,161413.0,A,3443.4913,N,08633.1255,W,,,271118,,*1F
$GPGGA,161443.0,3443.4913,N,08633.1255,W,1,,,223.4,M,,M,,*7E
$GPRMC,161443.0,A,3443.4913,N,08633.1255,W,,,271118,,*1A
$GPGGA,161513.0,3443.4918,N,08633.1251,W,1,,,222.5,M,,M,,*75
$GPRMC,161513.0,A,3443.4918,N,08633.1251,W,,,271118,,*11
$GPGGA,161543.0,3443.4918,N,08633.1251,W,1,,,222.4,M,,M,,*71
$GPRMC,161543.0,A,3443.4918,N,08633.1251,W,,,271118,,*14
$GPGGA,161613.0,3443.4918,N,08633.1251,W,1,,,222.5,M,,M,,*76
$GPRMC,161613.0,A,3443.4918,N,08633.1251,W,,,271118,,*12
$GPGGA,161643.0,3443.4918,N,08633.1251,W,1,,,222.5,M,,M,,*73
$GPRMC,161643.0,A,3443.4918,N,08633.1251,W,,,271118,,*17
$GPGGA,161713.0,3443.4918,N,08633.1251,W,1,,,222.5,M,,M,,*77
$GPRMC,161713.0,A,3443.4918,N,08633.1251,W,,,271118,,*13
$GPGGA,161743.0,3443.4918,N,08633.1251,W,1,,,222.6,M,,M,,*71
$GPRMC,161743.0,A,3443.4918,N,08633.1251,W,,,271118,,*16
$GPGGA,161813.0,3443.4918,N,08633.1251,W,1,,,222.7,M,,M,,*7A
$GPRMC,161813.0,A,3443.4918,N,08633.1251,W,,,271118,,*1C
$GPGGA,161843.0,3443.4918,N,08633.1251,W,1,,,222.8,M,,M,,*70
$GPRMC,161843.0,A,3443.4918,N,08633.1251,W,,,271118,,*19
$GPGGA,161913.0,3443.4918,N,08633.1252,W,1,,,223.0,M,,M,,*7E
$GPRMC,161913.0,A,3443.4918,N,08633.1252,W,,,271118,,*1E
$GPGGA,161943.0,3443.4917,N,08633.1252,W,1,,,223.1,M,,M,,*75
$GPRMC,161943.0,A,3443.4917,N,08633.1252,W,,,271118,,*14
$GPGGA,162013.0,3443.4917,N,08633.1252,W,1,,,223.1,M,,M,,*7A
$GPRMC,162013.0,A,3443.4917,N,08633.1252,W,,,271118,,*1B
$GPGGA,162043.0,3443.4917,N,08633.1252,W,1,,,223.2,M,,M,,*7C
$GPRMC,162043.0,A,3443.4917,N,08633.1252,W,,,271118,,*1E
$GPGGA,162113.0,3443.4917,N,08633.1252,W,1,,,223.2,M,,M,,*78
$GPRMC,162113.0,A,3443.4917,N,08633.1252,W,,,271118,,*1A
$GPGGA,162143.0,3443.4917,N,08633.1252,W,1,,,223.2,M,,M,,*7D
$GPRMC,162143.0,A,3443.4917,N,08633.1252,W,,,271118,,*1F
$GPGGA,162213.0,3443.4917,N,08633.1252,W,1,,,223.3,M,,M,,*7A
$GPRMC,162213.0,A,3443.4917,N,08633.1252,W,,,271118,,*19
$GPGGA,162243.0,3443.4917,N,08633.1252,W,1,,,223.3,M,,M,,*7F
$GPRMC,162243.0,A,3443.4917,N,08633.1252,W,,,271118,,*1C
$GPGGA,162313.0,3443.4917,N,08633.1252,W,1,,,223.3,M,,M,,*7B
$GPRMC,162313.0,A,3443.4917,N,08633.1252,W,,,271118,,*18
$GPGGA,162343.0,3443.4917,N,08633.1252,W,1,,,223.3,M,,M,,*7E
$GPRMC,162343.0,A,3443.4917,N,08633.1252,W,,,271118,,*1D
$GPGGA,162413.0,3443.4917,N,08633.1251,W,1,,,223.3,M,,M,,*7F
$GPRMC,162413.0,A,3443.4917,N,08633.1251,W,,,271118,,*1C
$GPGGA,162443.0,3443.4917,N,08633.1251,W,1,,,223.3,M,,M,,*7A
$GPRMC,162443.0,A,3443.4917,N,08633.1251,W,,,271118,,*19
$GPGGA,162513.0,3443.4917,N,08633.1251,W,1,,,223.3,M,,M,,*7E
$GPRMC,162513.0,A,3443.4917,N,08633.1251,W,,,271118,,*1D
$GPGGA,162543.0,3443.4917,N,08633.1251,W,1,,,223.3,M,,M,,*7B
$GPRMC,162543.0,A,3443.4917,N,08633.1251,W,,,271118,,*18
$GPGGA,162613.0,3443.4917,N,08633.1251,W,1,,,223.3,M,,M,,*7D
$GPRMC,162613.0,A,3443.4917,N,08633.1251,W,,,271118,,*1E
$GPGGA,162643.0,3443.4917,N,08633.1251,W,1,,,223.3,M,,M,,*78
$GPRMC,162643.0,A,3443.4917,N,08633.1251,W,,,271118,,*1B
$GPGGA,162713.0,3443.4922,N,08633.1252,W,1,,,224.0,M,,M,,*7D
$GPRMC,162713.0,A,3443.4922,N,08633.1252,W,,,271118,,*1A
$GPGGA,162743.0,3443.4922,N,08633.1252,W,1,,,223.9,M,,M,,*76
$GPRMC,162743.0,A,3443.4922,N,08633.1252,W,,,271118,,*1F
$GPGGA,162813.0,3443.4922,N,08633.1252,W,1,,,223.9,M,,M,,*7C
$GPRMC,162813.0,A,3443.4922,N,08633.1252,W,,,271118,,*15
$GPGGA,162843.0,3443.4922,N,08633.1252,W,1,,,223.8,M,,M,,*78
$GPRMC,162843.0,A,3443.4922,N,08633.1252,W,,,271118,,*10
$GPGGA,162913.0,3443.4922,N,08633.1252,W,1,,,223.8,M,,M,,*7C
$GPRMC,162913.0,A,3443.4922,N,08633.1252,W,,,271118,,*14
$GPGGA,162943.0,3443.4922,N,08633.1252,W,1,,,223.9,M,,M,,*78
$GPRMC,162943.0,A,3443.4922,N,08633.1252,W,,,271118,,*11
$GPGGA,163013.0,3443.4923,N,08633.1252,W,1,,,223.8,M,,M,,*75
$GPRMC,163013.0,A,3443.4923,N,08633.1252,W,,,271118,,*1D
$GPGGA,163043.0,3443.4923,N,08633.1252,W,1,,,223.9,M,,M,,*71
$GPRMC,163043.0,A,3443.4923,N,08633.1252,W,,,271118,,*18
$GPGGA,163113.0,3443.4923,N,08633.1252,W,1,,,223.9,M,,M,,*75
$GPRMC,163113.0,A,3443.4923,N,08633.1252,W,,,271118,,*1C
$GPGGA,163143.0,3443.4923,N,08633.1252,W,1,,,223.9,M,,M,,*70
$GPRMC,163143.0,A,3443.4923,N,08633.1252,W,,,271118,,*19
$GPGGA,163213.0,3443.4923,N,08633.1252,W,1,,,223.9,M,,M,,*76
$GPRMC,163213.0,A,3443.4923,N,08633.1252,W,,,271118,,*1F
$GPGGA,163243.0,3443.4923,N,08633.1252,W,1,,,223.8,M,,M,,*72
$GPRMC,163243.0,A,3443.4923,N,08633.1252,W,,,271118,,*1A
$GPGGA,163313.0,3443.4923,N,08633.1252,W,1,,,223.8,M,,M,,*76
$GPRMC,163313.0,A,3443.4923,N,08633.1252,W,,,271118,,*1E
$GPGGA,163343.0,3443.4923,N,08633.1252,W,1,,,223.8,M,,M,,*73
$GPRMC,163343.0,A,3443.4923,N,08633.1252,W,,,271118,,*1B
$GPGGA,163413.0,3443.4923,N,08633.1252,W,1,,,223.8,M,,M,,*71
$GPRMC,163413.0,A,3443.4923,N,08633.1252,W,,,271118,,*19
$GPGGA,163443.0,3443.4923,N,08633.1252,W,1,,,223.8,M,,M,,*74
$GPRMC,163443.0,A,3443.4923,N,08633.1252,W,,,271118,,*1C
$GPGGA,163513.0,3443.4927,N,08633.1245,W,1,,,222.4,M,,M,,*7F
$GPRMC,163513.0,A,3443.4927,N,08633.1245,W,,,271118,,*1A
$GPGGA,163543.0,3443.4927,N,08633.1245,W,1,,,222.5,M,,M,,*7B
$GPRMC,163543.0,A,3443.4927,N,08633.1245,W,,,271118,,*1F
$GPGGA,163613.0,3443.4927,N,08633.1245,W,1,,,222.5,M,,M,,*7D
$GPRMC,163613.0,A,3443.4927,N,08633.1245,W,,,271118,,*19
$GPGGA,163643.0,3443.4927,N,08633.1245,W,1,,,222.5,M,,M,,*78
$GPRMC,163643.0,A,3443.4927,N,08633.1245,W,,,271118,,*1C
$GPGGA,163713.0,3443.4927,N,08633.1245,W,1,,,222.5,M,,M,,*7C
$GPRMC,163713.0,A,3443.4927,N,08633.1245,W,,,271118,,*18
$GPGGA,163743.0,3443.4927,N,08633.1245,W,1,,,222.5,M,,M,,*79
$GPRMC,163743.0,A,3443.4927,N,08633.1245,W,,,271118,,*1D
$GPGGA,163813.0,3443.4927,N,08633.1245,W,1,,,222.5,M,,M,,*73
$GPRMC,163813.0,A,3443.4927,N,08633.1245,W,,,271118,,*17
$GPGGA,163843.0,3443.4927,N,08633.1246,W,1,,,222.6,M,,M,,*76
$GPRMC,163843.0,A,3443.4927,N,08633.1246,W,,,271118,,*11
$GPGGA,163913.0,3443.4926,N,08633.1246,W,1,,,222.6,M,,M,,*73
$GPRMC,163913.0,A,3443.4926,N,08633.1246,W,,,271118,,*14
$GPGGA,163943.0,3443.4926,N,08633.1246,W,1,,,222.6,M,,M,,*76
$GPRMC,163943.0,A,3443.4926,N,08633.1246,W,,,271118,,*11
$GPGGA,164013.0,3443.4926,N,08633.1246,W,1,,,222.7,M,,M,,*7C
$GPRMC,164013.0,A,3443.4926,N,08633.1246,W,,,271118,,*1A
$GPGGA,164043.0,3443.4926,N,08633.1246,W,1,,,222.7,M,,M,,*79
$GPRMC,164043.0,A,3443.4926,N,08633.1246,W,,,271118,,*1F
$GPGGA,164113.0,3443.4926,N,08633.1246,W,1,,,222.7,M,,M,,*7D
$GPRMC,164113.0,A,3443.4926,N,08633.1246,W,,,271118,,*1B
$GPGGA,164143.0,3443.4927,N,08633.1248,W,1,,,221.9,M,,M,,*7A
$GPRMC,164143.0,A,3443.4927,N,08633.1248,W,,,271118,,*11
$GPGGA,164213.0,3443.4927,N,08633.1248,W,1,,,221.9,M,,M,,*7C
$GPRMC,164213.0,A,3443.4927,N,08633.1248,W,,,271118,,*17
$GPGGA,164243.0,3443.4926,N,08633.1248,W,1,,,221.9,M,,M,,*78
$GPRMC,164243.0,A,3443.4926,N,08633.1248,W,,,271118,,*13
$GPGGA,164313.0,3443.4927,N,08633.1248,W,1,,,221.9,M,,M,,*7D
$GPRMC,164313.0,A,3443.4927,N,08633.1248,W,,,271118,,*16
$GPGGA,164343.0,3443.4927,N,08633.1248,W,1,,,221.9,M,,M,,*78
$GPRMC,164343.0,A,3443.4927,N,08633.1248,W,,,271118,,*13
$GPGGA,164413.0,3443.4930,N,08633.1247,W,1,,,219.4,M,,M,,*75
$GPRMC,164413.0,A,3443.4930,N,08633.1247,W,,,271118,,*18
$GPGGA,164443.0,3443.4931,N,08633.1247,W,1,,,219.4,M,,M,,*71
$GPRMC,164443.0,A,3443.4931,N,08633.1247,W,,,271118,,*1C
$GPGGA,164513.0,3443.4931,N,08633.1247,W,1,,,219.4,M,,M,,*75
$GPRMC,164513.0,A,3443.4931,N,08633.1247,W,,,271118,,*18
$GPGGA,164543.0,3443.4931,N,08633.1246,W,1,,,219.5,M,,M,,*70
$GPRMC,164543.0,A,3443.4931,N,08633.1246,W,,,271118,,*1C
$GPGGA,164613.0,3443.4931,N,08633.1246,W,1,,,219.5,M,,M,,*76
$GPRMC,164613.0,A,3443.4931,N,08633.1246,W,,,271118,,*1A
$GPGGA,164643.0,3443.4931,N,08633.1246,W,1,,,219.5,M,,M,,*73
$GPRMC,164643.0,A,3443.4931,N,08633.1246,W,,,271118,,*1F
$GPGGA,164713.0,3443.4931,N,08633.1247,W,1,,,219.5,M,,M,,*76
$GPRMC,164713.0,A,3443.4931,N,08633.1247,W,,,271118,,*1A
$GPGGA,164743.0,3443.4936,N,08633.1246,W,1,,,214.4,M,,M,,*79
$GPRMC,164743.0,A,3443.4936,N,08633.1246,W,,,271118,,*19
$GPGGA,164813.0,3443.4936,N,08633.1246,W,1,,,214.4,M,,M,,*73
$GPRMC,164813.0,A,3443.4936,N,08633.1246,W,,,271118,,*13
$GPGGA,164843.0,3443.4936,N,08633.1246,W,1,,,214.6,M,,M,,*74
$GPRMC,164843.0,A,3443.4936,N,08633.1246,W,,,271118,,*16
$GPGGA,164913.0,3443.4936,N,08633.1246,W,1,,,214.7,M,,M,,*71
$GPRMC,164913.0,A,3443.4936,N,08633.1246,W,,,271118,,*12
$GPGGA,164943.0,3443.4936,N,08633.1246,W,1,,,214.8,M,,M,,*7B
$GPRMC,164943.0,A,3443.4936,N,08633.1246,W,,,271118,,*17
$GPGGA,165013.0,3443.4936,N,08633.1246,W,1,,,214.9,M,,M,,*77
$GPRMC,165013.0,A,3443.4936,N,08633.1246,W,,,271118,,*1A
$GPGGA,165043.0,3443.4936,N,08633.1246,W,1,,,214.9,M,,M,,*72
$GPRMC,165043.0,A,3443.4936,N,08633.1246,W,,,271118,,*1F
$GPGGA,165113.0,3443.4935,N,08633.1246,W,1,,,215.0,M,,M,,*7D
$GPRMC,165113.0,A,3443.4935,N,08633.1246,W,,,271118,,*18
$GPGGA,165143.0,3443.4935,N,08633.1246,W,1,,,215.2,M,,M,,*7A
$GPRMC,165143.0,A,3443.4935,N,08633.1246,W,,,271118,,*1D
$GPGGA,165213.0,3443.4935,N,08633.1246,W,1,,,215.3,M,,M,,*7D
$GPRMC,165213.0,A,3443.4935,N,08633.1246,W,,,271118,,*1B
$GPGGA,165243.0,3443.4935,N,08633.1246,W,1,,,215.4,M,,M,,*7F
$GPRMC,165243.0,A,3443.4935,N,08633.1246,W,,,271118,,*1E
$GPGGA,165313.0,3443.4935,N,08633.1246,W,1,,,215.5,M,,M,,*7A
$GPRMC,165313.0,A,3443.4935,N,08633.1246,W,,,271118,,*1A
$GPGGA,165343.0,3443.4935,N,08633.1246,W,1,,,215.6,M,,M,,*7C
$GPRMC,165343.0,A,3443.4935,N,08633.1246,W,,,271118,,*1F
$GPGGA,165413.0,3443.4935,N,08633.1246,W,1,,,215.7,M,,M,,*7F
$GPRMC,165413.0,A,3443.4935,N,08633.1246,W,,,271118,,*1D
$GPGGA,165443.0,3443.4935,N,08633.1246,W,1,,,215.8,M,,M,,*75
$GPRMC,165443.0,A,3443.4935,N,08633.1246,W,,,271118,,*18
$GPGGA,165513.0,3443.4935,N,08633.1246,W,1,,,215.9,M,,M,,*70
$GPRMC,165513.0,A,3443.4935,N,08633.1246,W,,,271118,,*1C
$GPGGA,165543.0,3443.4935,N,08633.1246,W,1,,,216.1,M,,M,,*7E
$GPRMC,165543.0,A,3443.4935,N,08633.1246,W,,,271118,,*19
$GPGGA,165613.0,3443.4935,N,08633.1246,W,1,,,216.2,M,,M,,*7B
$GPRMC,165613.0,A,3443.4935,N,08633.1246,W,,,271118,,*1F
$GPGGA,165643.0,3443.4917,N,08633.1260,W,1,,,216.9,M,,M,,*71
$GPRMC,165643.0,A,3443.4917,N,08633.1260,W,,,271118,,*1E
$GPGGA,165713.0,3443.4917,N,08633.1260,W,1,,,216.9,M,,M,,*75
$GPRMC,165713.0,A,3443.4917,N,08633.1260,W,,,271118,,*1A
$GPGGA,165743.0,3443.4917,N,08633.1260,W,1,,,217.0,M,,M,,*78
$GPRMC,165743.0,A,3443.4917,N,08633.1260,W,,,271118,,*1F
$GPGGA,165813.0,3443.4917,N,08633.1260,W,1,,,217.1,M,,M,,*73
$GPRMC,165813.0,A,3443.4917,N,08633.1260,W,,,271118,,*15
$GPGGA,165843.0,3443.4917,N,08633.1260,W,1,,,217.1,M,,M,,*76
$GPRMC,165843.0,A,3443.4917,N,08633.1260,W,,,271118,,*10
$GPGGA,165913.0,3443.4917,N,08633.1260,W,1,,,217.3,M,,M,,*70
$GPRMC,165913.0,A,3443.4917,N,08633.1260,W,,,271118,,*14
$GPGGA,165943.0,3443.4917,N,08633.1260,W,1,,,217.4,M,,M,,*72
$GPRMC,165943.0,A,3443.4917,N,08633.1260,W,,,271118,,*11
$GPGGA,170013.1,3443.4917,N,08633.1260,W,1,,,217.4,M,,M,,*7B
$GPRMC,170013.1,A,3443.4917,N,08633.1260,W,,,271118,,*18
$GPGGA,170043.0,3443.4917,N,08633.1260,W,1,,,217.4,M,,M,,*7F
$GPRMC,170043.0,A,3443.4917,N,08633.1260,W,,,271118,,*1C
$GPGGA,170113.0,3443.4917,N,08633.1260,W,1,,,217.5,M,,M,,*7A
$GPRMC,170113.0,A,3443.4917,N,08633.1260,W,,,271118,,*18
$GPGGA,170143.0,3443.4917,N,08633.1260,W,1,,,217.6,M,,M,,*7C
$GPRMC,170143.0,A,3443.4917,N,08633.1260,W,,,271118,,*1D
$GPGGA,170213.0,3443.4917,N,08633.1260,W,1,,,217.5,M,,M,,*79
$GPRMC,170213.0,A,3443.4917,N,08633.1260,W,,,271118,,*1B
$GPGGA,170243.0,3443.4917,N,08633.1260,W,1,,,217.5,M,,M,,*7C
$GPRMC,170243.0,A,3443.4917,N,08633.1260,W,,,271118,,*1E
$GPGGA,170313.0,3443.4917,N,08633.1260,W,1,,,217.4,M,,M,,*79
$GPRMC,170313.0,A,3443.4917,N,08633.1260,W,,,271118,,*1A
$GPGGA,170343.0,3443.4917,N,08633.1260,W,1,,,217.4,M,,M,,*7C
$GPRMC,170343.0,A,3443.4917,N,08633.1260,W,,,271118,,*1F
$GPGGA,170413.0,3443.4917,N,08633.1260,W,1,,,217.5,M,,M,,*7F
$GPRMC,170413.0,A,3443.4917,N,08633.1260,W,,,271118,,*1D
$GPGGA,170443.0,3443.4916,N,08633.1260,W,1,,,217.5,M,,M,,*7B
$GPRMC,170443.0,A,3443.4916,N,08633.1260,W,,,271118,,*19
$GPGGA,170513.0,3443.4916,N,08633.1260,W,1,,,217.7,M,,M,,*7D
$GPRMC,170513.0,A,3443.4916,N,08633.1260,W,,,271118,,*1D
$GPGGA,170543.0,3443.4916,N,08633.1260,W,1,,,217.8,M,,M,,*77
$GPRMC,170543.0,A,3443.4916,N,08633.1260,W,,,271118,,*18
$GPGGA,170613.0,3443.4916,N,08633.1260,W,1,,,217.8,M,,M,,*71
$GPRMC,170613.0,A,3443.4916,N,08633.1260,W,,,271118,,*1E
$GPGGA,170643.0,3443.4916,N,08633.1260,W,1,,,217.9,M,,M,,*75
$GPRMC,170643.0,A,3443.4916,N,08633.1260,W,,,271118,,*1B
$GPGGA,170713.0,3443.4916,N,08633.1260,W,1,,,217.9,M,,M,,*71
$GPRMC,170713.0,A,3443.4916,N,08633.1260,W,,,271118,,*1F
$GPGGA,170743.0,3443.4916,N,08633.1260,W,1,,,218.0,M,,M,,*72
$GPRMC,170743.0,A,3443.4916,N,08633.1260,W,,,271118,,*1A
$GPGGA,170813.0,3443.4916,N,08633.1260,W,1,,,218.1,M,,M,,*79
$GPRMC,170813.0,A,3443.4916,N,08633.1260,W,,,271118,,*10
$GPGGA,170843.0,3443.4916,N,08633.1260,W,1,,,218.1,M,,M,,*7C
$GPRMC,170843.0,A,3443.4916,N,08633.1260,W,,,271118,,*15
$GPGGA,170913.0,3443.4916,N,08633.1260,W,1,,,218.1,M,,M,,*78
$GPRMC,170913.0,A,3443.4916,N,08633.1260,W,,,271118,,*11
$GPGGA,170943.0,3443.4916,N,08633.1260,W,1,,,218.2,M,,M,,*7E
$GPRMC,170943.0,A,3443.4916,N,08633.1260,W,,,271118,,*14
$GPGGA,171013.0,3443.4916,N,08633.1260,W,1,,,218.2,M,,M,,*73
$GPRMC,171013.0,A,3443.4916,N,08633.1260,W,,,271118,,*19
$GPGGA,171043.0,3443.4916,N,08633.1260,W,1,,,218.2,M,,M,,*76
$GPRMC,171043.0,A,3443.4916,N,08633.1260,W,,,271118,,*1C
$GPGGA,171113.0,3443.4916,N,08633.1260,W,1,,,218.2,M,,M,,*72
$GPRMC,171113.0,A,3443.4916,N,08633.1260,W,,,271118,,*18
$GPGGA,171143.0,3443.4916,N,08633.1260,W,1,,,218.1,M,,M,,*74
$GPRMC,171143.0,A,3443.4916,N,08633.1260,W,,,271118,,*1D
$GPGGA,171213.0,3443.4916,N,08633.1259,W,1,,,218.0,M,,M,,*79
$GPRMC,171213.0,A,3443.4916,N,08633.1259,W,,,271118,,*11
$GPGGA,171243.0,3443.4916,N,08633.1259,W,1,,,218.0,M,,M,,*7C
$GPRMC,171243.0,A,3443.4916,N,08633.1259,W,,,271118,,*14
$GPGGA,171313.0,3443.4916,N,08633.1259,W,1,,,218.0,M,,M,,*78
$GPRMC,171313.0,A,3443.4916,N,08633.1259,W,,,271118,,*10
$GPGGA,171343.0,3443.4916,N,08633.1259,W,1,,,218.0,M,,M,,*7D
$GPRMC,171343.0,A,3443.4916,N,08633.1259,W,,,271118,,*15
$GPGGA,171413.0,3443.4916,N,08633.1259,W,1,,,218.0,M,,M,,*7F
$GPRMC,171413.0,A,3443.4916,N,08633.1259,W,,,271118,,*17
$GPGGA,171443.0,3443.4916,N,08633.1259,W,1,,,217.9,M,,M,,*7C
$GPRMC,171443.0,A,3443.4916,N,08633.1259,W,,,271118,,*12
$GPGGA,171513.0,3443.4916,N,08633.1259,W,1,,,217.8,M,,M,,*79
$GPRMC,171513.0,A,3443.4916,N,08633.1259,W,,,271118,,*16
$GPGGA,171543.0,3443.4916,N,08633.1258,W,1,,,217.7,M,,M,,*72
$GPRMC,171543.0,A,3443.4916,N,08633.1258,W,,,271118,,*12
$GPGGA,171613.0,3443.4916,N,08633.1258,W,1,,,217.8,M,,M,,*7B
$GPRMC,171613.0,A,3443.4916,N,08633.1258,W,,,271118,,*14
$GPGGA,171643.0,3443.4916,N,08633.1258,W,1,,,217.7,M,,M,,*71
$GPRMC,171643.0,A,3443.4916,N,08633.1258,W,,,271118,,*11
$GPGGA,171713.0,3443.4916,N,08633.1258,W,1,,,217.7,M,,M,,*75
$GPRMC,171713.0,A,3443.4916,N,08633.1258,W,,,271118,,*15
$GPGGA,171743.0,3443.4916,N,08633.1258,W,1,,,217.6,M,,M,,*71
$GPRMC,171743.0,A,3443.4916,N,08633.1258,W,,,271118,,*10
$GPGGA,171813.0,3443.4916,N,08633.1258,W,1,,,217.6,M,,M,,*7B
$GPRMC,171813.0,A,3443.4916,N,08633.1258,W,,,271118,,*1A
$GPGGA,171843.0,3443.4916,N,08633.1258,W,1,,,217.7,M,,M,,*7F
$GPRMC,171843.0,A,3443.4916,N,08633.1258,W,,,271118,,*1F
$GPGGA,171913.0,3443.4916,N,08633.1258,W,1,,,217.7,M,,M,,*7B
$GPRMC,171913.0,A,3443.4916,N,08633.1258,W,,,271118,,*1B
$GPGGA,171943.0,3443.4916,N,08633.1258,W,1,,,217.8,M,,M,,*71
$GPRMC,171943.0,A,3443.4916,N,08633.1258,W,,,271118,,*1E
$GPGGA,172013.0,3443.4916,N,08633.1258,W,1,,,217.8,M,,M,,*7E
$GPRMC,172013.0,A,3443.4916,N,08633.1258,W,,,271118,,*11
$GPGGA,172043.0,3443.4916,N,08633.1258,W,1,,,217.9,M,,M,,*7A
$GPRMC,172043.0,A,3443.4916,N,08633.1258,W,,,271118,,*14
$GPGGA,172113.0,3443.4916,N,08633.1258,W,1,,,217.9,M,,M,,*7E
$GPRMC,172113.0,A,3443.4916,N,08633.1258,W,,,271118,,*10
$GPGGA,172143.0,3443.4916,N,08633.1258,W,1,,,217.9,M,,M,,*7B
$GPRMC,172143.0,A,3443.4916,N,08633.1258,W,,,271118,,*15
$GPGGA,172213.0,3443.4916,N,08633.1258,W,1,,,218.0,M,,M,,*7B
$GPRMC,172213.0,A,3443.4916,N,08633.1258,W,,,271118,,*13
$GPGGA,172243.0,3443.4916,N,08633.1258,W,1,,,218.1,M,,M,,*7F
$GPRMC,172243.0,A,3443.4916,N,08633.1258,W,,,271118,,*16
$GPGGA,172313.0,3443.4916,N,08633.1258,W,1,,,218.2,M,,M,,*78
$GPRMC,172313.0,A,3443.4916,N,08633.1258,W,,,271118,,*12
$GPGGA,172343.0,3443.4916,N,08633.1258,W,1,,,218.3,M,,M,,*7C
$GPRMC,172343.0,A,3443.4916,N,08633.1258,W,,,271118,,*17
$GPGGA,172413.0,3443.4916,N,08633.1257,W,1,,,218.3,M,,M,,*71
$GPRMC,172413.0,A,3443.4916,N,08633.1257,W,,,271118,,*1A
$GPGGA,172443.0,3443.4916,N,08633.1257,W,1,,,218.3,M,,M,,*74
$GPRMC,172443.0,A,3443.4916,N,08633.1257,W,,,271118,,*1F
$GPGGA,172513.0,3443.4916,N,08633.1257,W,1,,,218.2,M,,M,,*71
$GPRMC,172513.0,A,3443.4916,N,08633.1257,W,,,271118,,*1B
$GPGGA,172543.0,3443.4915,N,08633.1257,W,1,,,218.1,M,,M,,*74
$GPRMC,172543.0,A,3443.4915,N,08633.1257,W,,,271118,,*1D
$GPGGA,172613.0,3443.4915,N,08633.1257,W,1,,,218.0,M,,M,,*73
$GPRMC,172613.0,A,3443.4915,N,08633.1257,W,,,271118,,*1B
$GPGGA,172643.0,3443.4915,N,08633.1256,W,1,,,218.0,M,,M,,*77
$GPRMC,172643.0,A,3443.4915,N,08633.1256,W,,,271118,,*1F
$GPGGA,172713.0,3443.4915,N,08633.1256,W,1,,,218.0,M,,M,,*73
$GPRMC,172713.0,A,3443.4915,N,08633.1256,W,,,271118,,*1B
$GPGGA,172743.0,3443.4915,N,08633.1256,W,1,,,218.0,M,,M,,*76
$GPRMC,172743.0,A,3443.4915,N,08633.1256,W,,,271118,,*1E
$GPGGA,172813.0,3443.4915,N,08633.1256,W,1,,,217.9,M,,M,,*7A
$GPRMC,172813.0,A,3443.4915,N,08633.1256,W,,,271118,,*14
$GPGGA,172843.0,3443.4915,N,08633.1255,W,1,,,217.8,M,,M,,*7D
$GPRMC,172843.0,A,3443.4915,N,08633.1255,W,,,271118,,*12
$GPGGA,172913.0,3443.4915,N,08633.1255,W,1,,,217.8,M,,M,,*79
$GPRMC,172913.0,A,3443.4915,N,08633.1255,W,,,271118,,*16
$GPGGA,172943.0,3443.4915,N,08633.1255,W,1,,,217.8,M,,M,,*7C
$GPRMC,172943.0,A,3443.4915,N,08633.1255,W,,,271118,,*13
$GPGGA,173013.0,3443.4915,N,08633.1255,W,1,,,217.8,M,,M,,*71
$GPRMC,173013.0,A,3443.4915,N,08633.1255,W,,,271118,,*1E
$GPGGA,173043.0,3443.4915,N,08633.1255,W,1,,,217.8,M,,M,,*74
$GPRMC,173043.0,A,3443.4915,N,08633.1255,W,,,271118,,*1B
$GPGGA,173113.0,3443.4915,N,08633.1255,W,1,,,217.8,M,,M,,*70
$GPRMC,173113.0,A,3443.4915,N,08633.1255,W,,,271118,,*1F
$GPGGA,173143.0,3443.4915,N,08633.1255,W,1,,,217.7,M,,M,,*7A
$GPRMC,173143.0,A,3443.4915,N,08633.1255,W,,,271118,,*1A
$GPGGA,173213.0,3443.4915,N,08633.1255,W,1,,,217.7,M,,M,,*7C
$GPRMC,173213.0,A,3443.4915,N,08633.1255,W,,,271118,,*1C
$GPGGA,173243.0,3443.4915,N,08633.1255,W,1,,,217.6,M,,M,,*78
$GPRMC,173243.0,A,3443.4915,N,08633.1255,W,,,271118,,*19
$GPGGA,173313.0,3443.4914,N,08633.1255,W,1,,,217.5,M,,M,,*7E
$GPRMC,173313.0,A,3443.4914,N,08633.1255,W,,,271118,,*1C
$GPGGA,173343.0,3443.4914,N,08633.1255,W,1,,,217.5,M,,M,,*7B
$GPRMC,173343.0,A,3443.4914,N,08633.1255,W,,,271118,,*19
$GPGGA,173413.0,3443.4914,N,08633.1255,W,1,,,217.5,M,,M,,*79
$GPRMC,173413.0,A,3443.4914,N,08633.1255,W,,,271118,,*1B
$GPGGA,173443.0,3443.4914,N,08633.1255,W,1,,,217.5,M,,M,,*7C
$GPRMC,173443.0,A,3443.4914,N,08633.1255,W,,,271118,,*1E
$GPGGA,173513.0,3443.4914,N,08633.1255,W,1,,,217.5,M,,M,,*78
$GPRMC,173513.0,A,3443.4914,N,08633.1255,W,,,271118,,*1A
$GPGGA,173543.0,3443.4914,N,08633.1255,W,1,,,217.5,M,,M,,*7D
$GPRMC,173543.0,A,3443.4914,N,08633.1255,W,,,271118,,*1F
$GPGGA,173613.0,3443.4914,N,08633.1255,W,1,,,217.5,M,,M,,*7B
$GPRMC,173613.0,A,3443.4914,N,08633.1255,W,,,271118,,*19
$GPGGA,173643.0,3443.4914,N,08633.1255,W,1,,,217.5,M,,M,,*7E
$GPRMC,173643.0,A,3443.4914,N,08633.1255,W,,,271118,,*1C
$GPGGA,173713.0,3443.4914,N,08633.1255,W,1,,,217.5,M,,M,,*7A
$GPRMC,173713.0,A,3443.4914,N,08633.1255,W,,,271118,,*18
$GPGGA,173743.0,3443.4914,N,08633.1255,W,1,,,217.6,M,,M,,*7C
$GPRMC,173743.0,A,3443.4914,N,08633.1255,W,,,271118,,*1D
$GPGGA,173813.0,3443.4914,N,08633.1255,W,1,,,217.7,M,,M,,*77
$GPRMC,173813.0,A,3443.4914,N,08633.1255,W,,,271118,,*17
$GPGGA,173843.0,3443.4914,N,08633.1255,W,1,,,217.8,M,,M,,*7D
$GPRMC,173843.0,A,3443.4914,N,08633.1255,W,,,271118,,*12
$GPGGA,173913.0,3443.4914,N,08633.1255,W,1,,,217.9,M,,M,,*78
$GPRMC,173913.0,A,3443.4914,N,08633.1255,W,,,271118,,*16
$GPGGA,173943.0,3443.4914,N,08633.1255,W,1,,,218.0,M,,M,,*7B
$GPRMC,173943.0,A,3443.4914,N,08633.1255,W,,,271118,,*13
$GPGGA,174013.0,3443.4914,N,08633.1255,W,1,,,218.1,M,,M,,*71
$GPRMC,174013.0,A,3443.4914,N,08633.1255,W,,,271118,,*18
$GPGGA,174043.0,3443.4914,N,08633.1255,W,1,,,218.1,M,,M,,*74
$GPRMC,174043.0,A,3443.4914,N,08633.1255,W,,,271118,,*1D
$GPGGA,174113.0,3443.4914,N,08633.1255,W,1,,,218.2,M,,M,,*73
$GPRMC,174113.0,A,3443.4914,N,08633.1255,W,,,271118,,*19
$GPGGA,174143.0,3443.4914,N,08633.1255,W,1,,,218.1,M,,M,,*75
$GPRMC,174143.0,A,3443.4914,N,08633.1255,W,,,271118,,*1C
$GPGGA,174213.0,3443.4914,N,08633.1255,W,1,,,218.1,M,,M,,*73
$GPRMC,174213.0,A,3443.4914,N,08633.1255,W,,,271118,,*1A
$GPGGA,174243.0,3443.4914,N,08633.1255,W,1,,,218.0,M,,M,,*77
$GPRMC,174243.0,A,3443.4914,N,08633.1255,W,,,271118,,*1F
$GPGGA,174313.0,3443.4913,N,08633.1255,W,1,,,218.0,M,,M,,*74
$GPRMC,174313.0,A,3443.4913,N,08633.1255,W,,,271118,,*1C
$GPGGA,174343.0,3443.4913,N,08633.1255,W,1,,,218.1,M,,M,,*70
$GPRMC,174343.0,A,3443.4913,N,08633.1255,W,,,271118,,*19
$GPGGA,174413.0,3443.4913,N,08633.1255,W,1,,,218.1,M,,M,,*72
$GPRMC,174413.0,A,3443.4913,N,08633.1255,W,,,271118,,*1B
$GPGGA,174443.0,3443.4913,N,08633.1255,W,1,,,218.1,M,,M,,*77
$GPRMC,174443.0,A,3443.4913,N,08633.1255,W,,,271118,,*1E
$GPGGA,174513.0,3443.4913,N,08633.1255,W,1,,,218.1,M,,M,,*73
$GPRMC,174513.0,A,3443.4913,N,08633.1255,W,,,271118,,*1A
$GPGGA,174543.0,3443.4913,N,08633.1255,W,1,,,218.1,M,,M,,*76
$GPRMC,174543.0,A,3443.4913,N,08633.1255,W,,,271118,,*1F
$GPGGA,174613.0,3443.4913,N,08633.1255,W,1,,,218.0,M,,M,,*71
$GPRMC,174613.0,A,3443.4913,N,08633.1255,W,,,271118,,*19
$GPGGA,174643.0,3443.4913,N,08633.1255,W,1,,,218.0,M,,M,,*74
$GPRMC,174643.0,A,3443.4913,N,08633.1255,W,,,271118,,*1C
$GPGGA,174713.0,3443.4913,N,08633.1255,W,1,,,217.9,M,,M,,*76
$GPRMC,174713.0,A,3443.4913,N,08633.1255,W,,,271118,,*18
$GPGGA,174743.0,3443.4913,N,08633.1255,W,1,,,217.9,M,,M,,*73
$GPRMC,174743.0,A,3443.4913,N,08633.1255,W,,,271118,,*1D
$GPGGA,174813.0,3443.4913,N,08633.1255,W,1,,,217.9,M,,M,,*79
$GPRMC,174813.0,A,3443.4913,N,08633.1255,W,,,271118,,*17
$GPGGA,174843.0,3443.4913,N,08633.1255,W,1,,,217.9,M,,M,,*7C
$GPRMC,174843.0,A,3443.4913,N,08633.1255,W,,,271118,,*12
$GPGGA,174913.0,3443.4913,N,08633.1255,W,1,,,217.9,M,,M,,*78
$GPRMC,174913.0,A,3443.4913,N,08633.1255,W,,,271118,,*16
$GPGGA,174943.0,3443.4913,N,08633.1255,W,1,,,217.8,M,,M,,*7C
$GPRMC,174943.0,A,3443.4913,N,08633.1255,W,,,271118,,*13
$GPGGA,175013.0,3443.4913,N,08633.1255,W,1,,,217.8,M,,M,,*71
$GPRMC,175013.0,A,3443.4913,N,08633.1255,W,,,271118,,*1E
$GPGGA,175043.0,3443.4904,N,08633.1249,W,1,,,214.6,M,,M,,*72
$GPRMC,175043.0,A,3443.4904,N,08633.1249,W,,,271118,,*10
$GPGGA,175113.0,3443.4904,N,08633.1249,W,1,,,214.6,M,,M,,*76
$GPRMC,175113.0,A,3443.4904,N,08633.1249,W,,,271118,,*14
$GPGGA,175143.0,3443.4904,N,08633.1249,W,1,,,214.7,M,,M,,*72
$GPRMC,175143.0,A,3443.4904,N,08633.1249,W,,,271118,,*11
$GPGGA,175213.0,3443.4904,N,08633.1250,W,1,,,214.8,M,,M,,*73
$GPRMC,175213.0,A,3443.4904,N,08633.1250,W,,,271118,,*1F
$GPGGA,175243.0,3443.4904,N,08633.1250,W,1,,,214.8,M,,M,,*76
$GPRMC,175243.0,A,3443.4904,N,08633.1250,W,,,271118,,*1A
$GPGGA,175313.0,3443.4904,N,08633.1250,W,1,,,214.7,M,,M,,*7D
$GPRMC,175313.0,A,3443.4904,N,08633.1250,W,,,271118,,*1E
$GPGGA,175343.0,3443.4904,N,08633.1250,W,1,,,214.8,M,,M,,*77
$GPRMC,175343.0,A,3443.4904,N,08633.1250,W,,,271118,,*1B
$GPGGA,175413.0,3443.4904,N,08633.1250,W,1,,,214.8,M,,M,,*75
$GPRMC,175413.0,A,3443.4904,N,08633.1250,W,,,271118,,*19
$GPGGA,175443.0,3443.4904,N,08633.1250,W,1,,,214.9,M,,M,,*71
$GPRMC,175443.0,A,3443.4904,N,08633.1250,W,,,271118,,*1C
$GPGGA,175513.0,3443.4904,N,08633.1250,W,1,,,214.9,M,,M,,*75
$GPRMC,175513.0,A,3443.4904,N,08633.1250,W,,,271118,,*18
$GPGGA,175543.0,3443.4904,N,08633.1250,W,1,,,214.9,M,,M,,*70
$GPRMC,175543.0,A,3443.4904,N,08633.1250,W,,,271118,,*1D
$GPGGA,175613.0,3443.4904,N,08633.1250,W,1,,,215.0,M,,M,,*7E
$GPRMC,175613.0,A,3443.4904,N,08633.1250,W,,,271118,,*1B
$GPGGA,175643.0,3443.4904,N,08633.1250,W,1,,,215.0,M,,M,,*7B
$GPRMC,175643.0,A,3443.4904,N,08633.1250,W,,,271118,,*1E
$GPGGA,175713.0,3443.4904,N,08633.1250,W,1,,,215.0,M,,M,,*7F
$GPRMC,175713.0,A,3443.4904,N,08633.1250,W,,,271118,,*1A
$GPGGA,175743.0,3443.4904,N,08633.1250,W,1,,,215.0,M,,M,,*7A
$GPRMC,175743.0,A,3443.4904,N,08633.1250,W,,,271118,,*1F
$GPGGA,175813.0,3443.4904,N,08633.1250,W,1,,,215.0,M,,M,,*70
$GPRMC,175813.0,A,3443.4904,N,08633.1250,W,,,271118,,*15
$GPGGA,175843.0,3443.4904,N,08633.1250,W,1,,,215.0,M,,M,,*75
$GPRMC,175843.0,A,3443.4904,N,08633.1250,W,,,271118,,*10
$GPGGA,175913.0,3443.4904,N,08633.1249,W,1,,,215.0,M,,M,,*79
$GPRMC,175913.0,A,3443.4904,N,08633.1249,W,,,271118,,*1C
$GPGGA,175943.0,3443.4904,N,08633.1249,W,1,,,215.0,M,,M,,*7C
$GPRMC,175943.0,A,3443.4904,N,08633.1249,W,,,271118,,*19
$GPGGA,180013.0,3443.4904,N,08633.1249,W,1,,,215.0,M,,M,,*7A
$GPRMC,180013.0,A,3443.4904,N,08633.1249,W,,,271118,,*1F
$GPGGA,180043.0,3443.4904,N,08633.1249,W,1,,,215.0,M,,M,,*7F
$GPRMC,180043.0,A,3443.4904,N,08633.1249,W,,,271118,,*1A
$GPGGA,180113.0,3443.4904,N,08633.1249,W,1,,,214.9,M,,M,,*73
$GPRMC,180113.0,A,3443.4904,N,08633.1249,W,,,271118,,*1E
$GPGGA,180143.0,3443.4904,N,08633.1249,W,1,,,214.8,M,,M,,*77
$GPRMC,180143.0,A,3443.4904,N,08633.1249,W,,,271118,,*1B
$GPGGA,180213.0,3443.4904,N,08633.1248,W,1,,,214.7,M,,M,,*7F
$GPRMC,180213.0,A,3443.4904,N,08633.1248,W,,,271118,,*1C
$GPGGA,180243.0,3443.4904,N,08633.1248,W,1,,,214.6,M,,M,,*7B
$GPRMC,180243.0,A,3443.4904,N,08633.1248,W,,,271118,,*19
$GPGGA,180313.0,3443.4904,N,08633.1248,W,1,,,214.6,M,,M,,*7F
$GPRMC,180313.0,A,3443.4904,N,08633.1248,W,,,271118,,*1D
$GPGGA,180343.0,3443.4904,N,08633.1248,W,1,,,214.5,M,,M,,*79
$GPRMC,180343.0,A,3443.4904,N,08633.1248,W,,,271118,,*18
$GPGGA,180413.0,3443.4904,N,08633.1248,W,1,,,214.4,M,,M,,*7A
$GPRMC,180413.0,A,3443.4904,N,08633.1248,W,,,271118,,*1A
$GPGGA,180443.0,3443.4904,N,08633.1248,W,1,,,214.4,M,,M,,*7F
$GPRMC,180443.0,A,3443.4904,N,08633.1248,W,,,271118,,*1F
$GPGGA,180513.0,3443.4904,N,08633.1248,W,1,,,214.3,M,,M,,*7C
$GPRMC,180513.0,A,3443.4904,N,08633.1248,W,,,271118,,*1B
$GPGGA,180543.0,3443.4904,N,08633.1248,W,1,,,214.3,M,,M,,*79
$GPRMC,180543.0,A,3443.4904,N,08633.1248,W,,,271118,,*1E
$GPGGA,180613.0,3443.4904,N,08633.1247,W,1,,,214.3,M,,M,,*70
$GPRMC,180613.0,A,3443.4904,N,08633.1247,W,,,271118,,*17
$GPGGA,180643.0,3443.4904,N,08633.1247,W,1,,,214.4,M,,M,,*72
$GPRMC,180643.0,A,3443.4904,N,08633.1247,W,,,271118,,*12
$GPGGA,180713.0,3443.4904,N,08633.1247,W,1,,,214.4,M,,M,,*76
$GPRMC,180713.0,A,3443.4904,N,08633.1247,W,,,271118,,*16
$GPGGA,180743.0,3443.4904,N,08633.1247,W,1,,,214.4,M,,M,,*73
$GPRMC,180743.0,A,3443.4904,N,08633.1247,W,,,271118,,*13
$GPGGA,180813.0,3443.4904,N,08633.1247,W,1,,,214.4,M,,M,,*79
$GPRMC,180813.0,A,3443.4904,N,08633.1247,W,,,271118,,*19
$GPGGA,180843.0,3443.4904,N,08633.1247,W,1,,,214.3,M,,M,,*7B
$GPRMC,180843.0,A,3443.4904,N,08633.1247,W,,,271118,,*1C
$GPGGA,180913.0,3443.4904,N,08633.1247,W,1,,,214.3,M,,M,,*7F
$GPRMC,180913.0,A,3443.4904,N,08633.1247,W,,,271118,,*18
$GPGGA,180943.0,3443.4904,N,08633.1247,W,1,,,214.3,M,,M,,*7A
$GPRMC,180943.0,A,3443.4904,N,08633.1247,W,,,271118,,*1D
$GPGGA,181013.0,3443.4904,N,08633.1247,W,1,,,214.3,M,,M,,*77
$GPRMC,181013.0,A,3443.4904,N,08633.1247,W,,,271118,,*10
$GPGGA,181043.0,3443.4904,N,08633.1247,W,1,,,214.3,M,,M,,*72
$GPRMC,181043.0,A,3443.4904,N,08633.1247,W,,,271118,,*15
$GPGGA,181113.0,3443.4904,N,08633.1247,W,1,,,214.3,M,,M,,*76
$GPRMC,181113.0,A,3443.4904,N,08633.1247,W,,,271118,,*11
$GPGGA,181143.0,3443.4904,N,08633.1247,W,1,,,214.3,M,,M,,*73
$GPRMC,181143.0,A,3443.4904,N,08633.1247,W,,,271118,,*14
$GPGGA,181213.0,3443.4904,N,08633.1247,W,1,,,214.3,M,,M,,*75
$GPRMC,181213.0,A,3443.4904,N,08633.1247,W,,,271118,,*12
$GPGGA,181243.0,3443.4904,N,08633.1247,W,1,,,214.3,M,,M,,*70
$GPRMC,181243.0,A,3443.4904,N,08633.1247,W,,,271118,,*17
$GPGGA,181313.0,3443.4904,N,08633.1247,W,1,,,214.3,M,,M,,*74
$GPRMC,181313.0,A,3443.4904,N,08633.1247,W,,,271118,,*13
$GPGGA,181343.0,3443.4904,N,08633.1247,W,1,,,214.3,M,,M,,*71
$GPRMC,181343.0,A,3443.4904,N,08633.1247,W,,,271118,,*16
$GPGGA,181413.0,3443.4904,N,08633.1247,W,1,,,214.3,M,,M,,*73
$GPRMC,181413.0,A,3443.4904,N,08633.1247,W,,,271118,,*14
$GPGGA,181443.0,3443.4904,N,08633.1247,W,1,,,214.3,M,,M,,*76
$GPRMC,181443.0,A,3443.4904,N,08633.1247,W,,,271118,,*11
$GPGGA,181513.0,3443.4904,N,08633.1247,W,1,,,214.3,M,,M,,*72
$GPRMC,181513.0,A,3443.4904,N,08633.1247,W,,,271118,,*15
$GPGGA,181543.0,3443.4904,N,08633.1247,W,1,,,214.4,M,,M,,*70
$GPRMC,181543.0,A,3443.4904,N,08633.1247,W,,,271118,,*10
$GPGGA,181613.0,3443.4904,N,08633.1247,W,1,,,214.4,M,,M,,*76
$GPRMC,181613.0,A,3443.4904,N,08633.1247,W,,,271118,,*16
$GPGGA,181643.0,3443.4904,N,08633.1247,W,1,,,214.4,M,,M,,*73
$GPRMC,181643.0,A,3443.4904,N,08633.1247,W,,,271118,,*13
$GPGGA,181713.0,3443.4904,N,08633.1247,W,1,,,214.4,M,,M,,*77
$GPRMC,181713.0,A,3443.4904,N,08633.1247,W,,,271118,,*17
$GPGGA,181743.0,3443.4904,N,08633.1247,W,1,,,214.4,M,,M,,*72
$GPRMC,181743.0,A,3443.4904,N,08633.1247,W,,,271118,,*12
$GPGGA,181813.0,3443.4904,N,08633.1247,W,1,,,214.4,M,,M,,*78
$GPRMC,181813.0,A,3443.4904,N,08633.1247,W,,,271118,,*18
$GPGGA,181843.0,3443.4904,N,08633.1247,W,1,,,214.4,M,,M,,*7D
$GPRMC,181843.0,A,3443.4904,N,08633.1247,W,,,271118,,*1D
$GPGGA,181913.0,3443.4904,N,08633.1247,W,1,,,214.4,M,,M,,*79
$GPRMC,181913.0,A,3443.4904,N,08633.1247,W,,,271118,,*19
$GPGGA,181943.0,3443.4904,N,08633.1247,W,1,,,214.4,M,,M,,*7C
$GPRMC,181943.0,A,3443.4904,N,08633.1247,W,,,271118,,*1C
$GPGGA,182013.0,3443.4905,N,08633.1247,W,1,,,214.4,M,,M,,*72
$GPRMC,182013.0,A,3443.4905,N,08633.1247,W,,,271118,,*12
$GPGGA,182043.0,3443.4905,N,08633.1247,W,1,,,214.4,M,,M,,*77
$GPRMC,182043.0,A,3443.4905,N,08633.1247,W,,,271118,,*17
$GPGGA,182113.0,3443.4905,N,08633.1247,W,1,,,214.4,M,,M,,*73
$GPRMC,182113.0,A,3443.4905,N,08633.1247,W,,,271118,,*13
$GPGGA,182143.0,3443.4905,N,08633.1247,W,1,,,214.5,M,,M,,*77
$GPRMC,182143.0,A,3443.4905,N,08633.1247,W,,,271118,,*16
$GPGGA,182213.0,3443.4905,N,08633.1247,W,1,,,214.6,M,,M,,*72
$GPRMC,182213.0,A,3443.4905,N,08633.1247,W,,,271118,,*10
$GPGGA,182243.0,3443.4905,N,08633.1247,W,1,,,214.7,M,,M,,*76
$GPRMC,182243.0,A,3443.4905,N,08633.1247,W,,,271118,,*15
$GPGGA,182313.0,3443.4905,N,08633.1247,W,1,,,214.7,M,,M,,*72
$GPRMC,182313.0,A,3443.4905,N,08633.1247,W,,,271118,,*11
$GPGGA,182343.0,3443.4905,N,08633.1247,W,1,,,214.6,M,,M,,*76
$GPRMC,182343.0,A,3443.4905,N,08633.1247,W,,,271118,,*14
$GPGGA,182413.0,3443.4905,N,08633.1247,W,1,,,214.6,M,,M,,*74
$GPRMC,182413.0,A,3443.4905,N,08633.1247,W,,,271118,,*16
$GPGGA,182443.0,3443.4905,N,08633.1247,W,1,,,214.7,M,,M,,*70
$GPRMC,182443.0,A,3443.4905,N,08633.1247,W,,,271118,,*13
$GPGGA,182513.0,3443.4905,N,08633.1247,W,1,,,214.6,M,,M,,*75
$GPRMC,182513.0,A,3443.4905,N,08633.1247,W,,,271118,,*17
$GPGGA,182543.0,3443.4905,N,08633.1247,W,1,,,214.6,M,,M,,*70
$GPRMC,182543.0,A,3443.4905,N,08633.1247,W,,,271118,,*12
$GPGGA,182613.0,3443.4905,N,08633.1247,W,1,,,214.7,M,,M,,*77
$GPRMC,182613.0,A,3443.4905,N,08633.1247,W,,,271118,,*14
$GPGGA,182643.0,3443.4905,N,08633.1247,W,1,,,214.7,M,,M,,*72
$GPRMC,182643.0,A,3443.4905,N,08633.1247,W,,,271118,,*11
$GPGGA,182713.0,3443.4905,N,08633.1247,W,1,,,214.7,M,,M,,*76
$GPRMC,182713.0,A,3443.4905,N,08633.1247,W,,,271118,,*15
$GPGGA,182743.0,3443.4905,N,08633.1247,W,1,,,214.6,M,,M,,*72
$GPRMC,182743.0,A,3443.4905,N,08633.1247,W,,,271118,,*10
$GPGGA,182813.0,3443.4906,N,08633.1247,W,1,,,214.7,M,,M,,*7A
$GPRMC,182813.0,A,3443.4906,N,08633.1247,W,,,271118,,*19
$GPGGA,182843.0,3443.4905,N,08633.1247,W,1,,,214.7,M,,M,,*7C
$GPRMC,182843.0,A,3443.4905,N,08633.1247,W,,,271118,,*1F
$GPGGA,182913.0,3443.4905,N,08633.1247,W,1,,,214.8,M,,M,,*77
$GPRMC,182913.0,A,3443.4905,N,08633.1247,W,,,271118,,*1B
$GPGGA,182943.0,3443.4905,N,08633.1247,W,1,,,214.8,M,,M,,*72
$GPRMC,182943.0,A,3443.4905,N,08633.1247,W,,,271118,,*1E
$GPGGA,183013.0,3443.4905,N,08633.1247,W,1,,,214.8,M,,M,,*7F
$GPRMC,183013.0,A,3443.4905,N,08633.1247,W,,,271118,,*13
$GPGGA,183043.0,3443.4905,N,08633.1247,W,1,,,214.9,M,,M,,*7B
$GPRMC,183043.0,A,3443.4905,N,08633.1247,W,,,271118,,*16
$GPGGA,183113.0,3443.4905,N,08633.1247,W,1,,,214.9,M,,M,,*7F
$GPRMC,183113.0,A,3443.4905,N,08633.1247,W,,,271118,,*12
$GPGGA,183143.0,3443.4905,N,08633.1247,W,1,,,214.9,M,,M,,*7A
$GPRMC,183143.0,A,3443.4905,N,08633.1247,W,,,271118,,*17
$GPGGA,183213.0,3443.4905,N,08633.1247,W,1,,,214.9,M,,M,,*7C
$GPRMC,183213.0,A,3443.4905,N,08633.1247,W,,,271118,,*11
$GPGGA,183243.0,3443.4905,N,08633.1247,W,1,,,214.9,M,,M,,*79
$GPRMC,183243.0,A,3443.4905,N,08633.1247,W,,,271118,,*14
$GPGGA,183313.0,3443.4905,N,08633.1247,W,1,,,215.0,M,,M,,*75
$GPRMC,183313.0,A,3443.4905,N,08633.1247,W,,,271118,,*10
$GPGGA,183343.0,3443.4905,N,08633.1247,W,1,,,215.0,M,,M,,*70
$GPRMC,183343.0,A,3443.4905,N,08633.1247,W,,,271118,,*15
$GPGGA,183413.0,3443.4905,N,08633.1247,W,1,,,215.0,M,,M,,*72
$GPRMC,183413.0,A,3443.4905,N,08633.1247,W,,,271118,,*17
$GPGGA,183443.0,3443.4905,N,08633.1247,W,1,,,214.9,M,,M,,*7F
$GPRMC,183443.0,A,3443.4905,N,08633.1247,W,,,271118,,*12
$GPGGA,183513.0,3443.4905,N,08633.1247,W,1,,,214.9,M,,M,,*7B
$GPRMC,183513.0,A,3443.4905,N,08633.1247,W,,,271118,,*16
$GPGGA,183543.0,3443.4905,N,08633.1247,W,1,,,214.9,M,,M,,*7E
$GPRMC,183543.0,A,3443.4905,N,08633.1247,W,,,271118,,*13
$GPGGA,183613.0,3443.4905,N,08633.1247,W,1,,,214.9,M,,M,,*78
$GPRMC,183613.0,A,3443.4905,N,08633.1247,W,,,271118,,*15
$GPGGA,183643.0,3443.4905,N,08633.1247,W,1,,,214.9,M,,M,,*7D
$GPRMC,183643.0,A,3443.4905,N,08633.1247,W,,,271118,,*10
$GPGGA,183713.0,3443.4905,N,08633.1247,W,1,,,214.9,M,,M,,*79
$GPRMC,183713.0,A,3443.4905,N,08633.1247,W,,,271118,,*14
$GPGGA,183743.0,3443.4902,N,08633.1246,W,1,,,215.4,M,,M,,*76
$GPRMC,183743.0,A,3443.4902,N,08633.1246,W,,,271118,,*17
$GPGGA,183813.0,3443.4902,N,08633.1246,W,1,,,215.3,M,,M,,*7B
$GPRMC,183813.0,A,3443.4902,N,08633.1246,W,,,271118,,*1D
$GPGGA,183843.0,3443.4902,N,08633.1246,W,1,,,215.3,M,,M,,*7E
$GPRMC,183843.0,A,3443.4902,N,08633.1246,W,,,271118,,*18
$GPGGA,183913.0,3443.4902,N,08633.1246,W,1,,,215.3,M,,M,,*7A
$GPRMC,183913.0,A,3443.4902,N,08633.1246,W,,,271118,,*1C
$GPGGA,183943.0,3443.4902,N,08633.1246,W,1,,,215.3,M,,M,,*7F
$GPRMC,183943.0,A,3443.4902,N,08633.1246,W,,,271118,,*19
$GPGGA,184013.0,3443.4902,N,08633.1246,W,1,,,215.3,M,,M,,*74
$GPRMC,184013.0,A,3443.4902,N,08633.1246,W,,,271118,,*12
$GPGGA,184043.0,3443.4903,N,08633.1246,W,1,,,215.3,M,,M,,*70
$GPRMC,184043.0,A,3443.4903,N,08633.1246,W,,,271118,,*16
$GPGGA,184113.0,3443.4903,N,08633.1246,W,1,,,215.4,M,,M,,*73
$GPRMC,184113.0,A,3443.4903,N,08633.1246,W,,,271118,,*12
$GPGGA,184143.0,3443.4903,N,08633.1246,W,1,,,215.4,M,,M,,*76
$GPRMC,184143.0,A,3443.4903,N,08633.1246,W,,,271118,,*17
$GPGGA,184213.0,3443.4903,N,08633.1246,W,1,,,215.4,M,,M,,*70
$GPRMC,184213.0,A,3443.4903,N,08633.1246,W,,,271118,,*11
$GPGGA,184243.0,3443.4903,N,08633.1246,W,1,,,215.4,M,,M,,*75
$GPRMC,184243.0,A,3443.4903,N,08633.1246,W,,,271118,,*14
$GPGGA,184313.0,3443.4903,N,08633.1246,W,1,,,215.4,M,,M,,*71
$GPRMC,184313.0,A,3443.4903,N,08633.1246,W,,,271118,,*10
$GPGGA,184343.0,3443.4902,N,08633.1246,W,1,,,215.5,M,,M,,*74
$GPRMC,184343.0,A,3443.4902,N,08633.1246,W,,,271118,,*14
$GPGGA,184413.0,3443.4902,N,08633.1246,W,1,,,215.5,M,,M,,*76
$GPRMC,184413.0,A,3443.4902,N,08633.1246,W,,,271118,,*16
$GPGGA,184443.0,3443.4902,N,08633.1246,W,1,,,215.5,M,,M,,*73
$GPRMC,184443.0,A,3443.4902,N,08633.1246,W,,,271118,,*13
$GPGGA,184513.0,3443.4902,N,08633.1246,W,1,,,215.5,M,,M,,*77
$GPRMC,184513.0,A,3443.4902,N,08633.1246,W,,,271118,,*17
$GPGGA,184543.0,3443.4902,N,08633.1246,W,1,,,215.5,M,,M,,*72
$GPRMC,184543.0,A,3443.4902,N,08633.1246,W,,,271118,,*12
$GPGGA,184613.0,3443.4902,N,08633.1246,W,1,,,215.5,M,,M,,*74
$GPRMC,184613.0,A,3443.4902,N,08633.1246,W,,,271118,,*14
$GPGGA,184643.0,3443.4902,N,08633.1246,W,1,,,215.6,M,,M,,*72
$GPRMC,184643.0,A,3443.4902,N,08633.1246,W,,,271118,,*11
$GPGGA,184713.1,3443.4903,N,08633.1246,W,1,,,215.6,M,,M,,*76
$GPRMC,184713.1,A,3443.4903,N,08633.1246,W,,,271118,,*15
$GPGGA,184743.0,3443.4903,N,08633.1246,W,1,,,215.6,M,,M,,*72
$GPRMC,184743.0,A,3443.4903,N,08633.1246,W,,,271118,,*11
$GPGGA,184813.0,3443.4903,N,08633.1246,W,1,,,215.6,M,,M,,*78
$GPRMC,184813.0,A,3443.4903,N,08633.1246,W,,,271118,,*1B
$GPGGA,184843.0,3443.4903,N,08633.1246,W,1,,,215.6,M,,M,,*7D
$GPRMC,184843.0,A,3443.4903,N,08633.1246,W,,,271118,,*1E
$GPGGA,184913.1,3443.4903,N,08633.1246,W,1,,,215.7,M,,M,,*79
$GPRMC,184913.1,A,3443.4903,N,08633.1246,W,,,271118,,*1B
$GPGGA,184943.0,3443.4903,N,08633.1246,W,1,,,215.8,M,,M,,*72
$GPRMC,184943.0,A,3443.4903,N,08633.1246,W,,,271118,,*1F
$GPGGA,185013.0,3443.4903,N,08633.1246,W,1,,,215.9,M,,M,,*7E
$GPRMC,185013.0,A,3443.4903,N,08633.1246,W,,,271118,,*12
$GPGGA,185043.0,3443.4902,N,08633.1246,W,1,,,215.9,M,,M,,*7A
$GPRMC,185043.0,A,3443.4902,N,08633.1246,W,,,271118,,*16
$GPGGA,185113.0,3443.4902,N,08633.1246,W,1,,,215.9,M,,M,,*7E
$GPRMC,185113.0,A,3443.4902,N,08633.1246,W,,,271118,,*12
$GPGGA,185143.0,3443.4902,N,08633.1246,W,1,,,216.0,M,,M,,*71
$GPRMC,185143.0,A,3443.4902,N,08633.1246,W,,,271118,,*17
$GPGGA,185213.3,3443.4902,N,08633.1246,W,1,,,216.1,M,,M,,*75
$GPRMC,185213.3,A,3443.4902,N,08633.1246,W,,,271118,,*12
$GPGGA,185243.0,3443.4902,N,08633.1247,W,1,,,216.2,M,,M,,*71
$GPRMC,185243.0,A,3443.4902,N,08633.1247,W,,,271118,,*15
$GPGGA,185313.0,3443.4902,N,08633.1247,W,1,,,216.2,M,,M,,*75
$GPRMC,185313.0,A,3443.4902,N,08633.1247,W,,,271118,,*11
$GPGGA,185343.0,3443.4902,N,08633.1246,W,1,,,216.3,M,,M,,*70
$GPRMC,185343.0,A,3443.4902,N,08633.1246,W,,,271118,,*15
$GPGGA,185413.0,3443.4902,N,08633.1247,W,1,,,216.4,M,,M,,*74
$GPRMC,185413.0,A,3443.4902,N,08633.1247,W,,,271118,,*16
$GPGGA,185443.0,3443.4902,N,08633.1247,W,1,,,216.4,M,,M,,*71
$GPRMC,185443.0,A,3443.4902,N,08633.1247,W,,,271118,,*13
$GPGGA,185513.0,3443.4902,N,08633.1247,W,1,,,216.4,M,,M,,*75
$GPRMC,185513.0,A,3443.4902,N,08633.1247,W,,,271118,,*17
$GPGGA,185543.0,3443.4902,N,08633.1247,W,1,,,216.4,M,,M,,*70
$GPRMC,185543.0,A,3443.4902,N,08633.1247,W,,,271118,,*12
$GPGGA,185613.0,3443.4902,N,08633.1247,W,1,,,216.4,M,,M,,*76
$GPRMC,185613.0,A,3443.4902,N,08633.1247,W,,,271118,,*14
$GPGGA,185643.0,3443.4902,N,08633.1247,W,1,,,216.4,M,,M,,*73
$GPRMC,185643.0,A,3443.4902,N,08633.1247,W,,,271118,,*11
$GPGGA,185713.0,3443.4902,N,08633.1247,W,1,,,216.5,M,,M,,*76
$GPRMC,185713.0,A,3443.4902,N,08633.1247,W,,,271118,,*15
$GPGGA,185743.0,3443.4902,N,08633.1247,W,1,,,216.5,M,,M,,*73
$GPRMC,185743.0,A,3443.4902,N,08633.1247,W,,,271118,,*10
$GPGGA,185813.0,3443.4902,N,08633.1247,W,1,,,216.5,M,,M,,*79
$GPRMC,185813.0,A,3443.4902,N,08633.1247,W,,,271118,,*1A
$GPGGA,185843.0,3443.4902,N,08633.1247,W,1,,,216.6,M,,M,,*7F
$GPRMC,185843.0,A,3443.4902,N,08633.1247,W,,,271118,,*1F
$GPGGA,185913.0,3443.4902,N,08633.1247,W,1,,,216.6,M,,M,,*7B
$GPRMC,185913.0,A,3443.4902,N,08633.1247,W,,,271118,,*1B
$GPGGA,185943.0,3443.4902,N,08633.1247,W,1,,,216.7,M,,M,,*7F
$GPRMC,185943.0,A,3443.4902,N,08633.1247,W,,,271118,,*1E
$GPGGA,190013.3,3443.4902,N,08633.1247,W,1,,,216.7,M,,M,,*74
$GPRMC,190013.3,A,3443.4902,N,08633.1247,W,,,271118,,*15
$GPGGA,190043.0,3443.4902,N,08633.1247,W,1,,,216.7,M,,M,,*72
$GPRMC,190043.0,A,3443.4902,N,08633.1247,W,,,271118,,*13
$GPGGA,190113.0,3443.4902,N,08633.1247,W,1,,,216.7,M,,M,,*76
$GPRMC,190113.0,A,3443.4902,N,08633.1247,W,,,271118,,*17
$GPGGA,190143.0,3443.4902,N,08633.1247,W,1,,,216.8,M,,M,,*7C
$GPRMC,190143.0,A,3443.4902,N,08633.1247,W,,,271118,,*12
$GPGGA,190213.0,3443.4902,N,08633.1247,W,1,,,216.9,M,,M,,*7B
$GPRMC,190213.0,A,3443.4902,N,08633.1247,W,,,271118,,*14
$GPGGA,190243.0,3443.4902,N,08633.1246,W,1,,,217.0,M,,M,,*77
$GPRMC,190243.0,A,3443.4902,N,08633.1246,W,,,271118,,*10
$GPGGA,190313.0,3443.4902,N,08633.1246,W,1,,,217.0,M,,M,,*73
$GPRMC,190313.0,A,3443.4902,N,08633.1246,W,,,271118,,*14
$GPGGA,190343.0,3443.4902,N,08633.1246,W,1,,,217.0,M,,M,,*76
$GPRMC,190343.0,A,3443.4902,N,08633.1246,W,,,271118,,*11
$GPGGA,190413.0,3443.4902,N,08633.1247,W,1,,,217.0,M,,M,,*75
$GPRMC,190413.0,A,3443.4902,N,08633.1247,W,,,271118,,*12
$GPGGA,190443.0,3443.4902,N,08633.1247,W,1,,,217.0,M,,M,,*70
$GPRMC,190443.0,A,3443.4902,N,08633.1247,W,,,271118,,*17
$GPGGA,190513.0,3443.4902,N,08633.1247,W,1,,,217.0,M,,M,,*74
$GPRMC,190513.0,A,3443.4902,N,08633.1247,W,,,271118,,*13
$GPGGA,190543.0,3443.4902,N,08633.1247,W,1,,,217.0,M,,M,,*71
$GPRMC,190543.0,A,3443.4902,N,08633.1247,W,,,271118,,*16
$GPGGA,190613.0,3443.4902,N,08633.1247,W,1,,,217.1,M,,M,,*76
$GPRMC,190613.0,A,3443.4902,N,08633.1247,W,,,271118,,*10
$GPGGA,190643.0,3443.4902,N,08633.1247,W,1,,,217.1,M,,M,,*73
$GPRMC,190643.0,A,3443.4902,N,08633.1247,W,,,271118,,*15
$GPGGA,190713.0,3443.4897,N,08633.1247,W,1,,,217.0,M,,M,,*7B
$GPRMC,190713.0,A,3443.4897,N,08633.1247,W,,,271118,,*1C
$GPGGA,190743.0,3443.4897,N,08633.1247,W,1,,,217.1,M,,M,,*7F
$GPRMC,190743.0,A,3443.4897,N,08633.1247,W,,,271118,,*19
$GPGGA,190813.0,3443.4897,N,08633.1247,W,1,,,217.1,M,,M,,*75
$GPRMC,190813.0,A,3443.4897,N,08633.1247,W,,,271118,,*13
$GPGGA,190843.0,3443.4897,N,08633.1247,W,1,,,217.1,M,,M,,*70
$GPRMC,190843.0,A,3443.4897,N,08633.1247,W,,,271118,,*16
$GPGGA,190913.0,3443.4897,N,08633.1247,W,1,,,217.2,M,,M,,*77
$GPRMC,190913.0,A,3443.4897,N,08633.1247,W,,,271118,,*12
$GPGGA,190943.0,3443.4897,N,08633.1247,W,1,,,217.2,M,,M,,*72
$GPRMC,190943.0,A,3443.4897,N,08633.1247,W,,,271118,,*17
$GPGGA,191013.0,3443.4897,N,08633.1247,W,1,,,217.2,M,,M,,*7F
$GPRMC,191013.0,A,3443.4897,N,08633.1247,W,,,271118,,*1A
$GPGGA,191043.0,3443.4897,N,08633.1247,W,1,,,217.2,M,,M,,*7A
$GPRMC,191043.0,A,3443.4897,N,08633.1247,W,,,271118,,*1F
$GPGGA,191113.0,3443.4897,N,08633.1247,W,1,,,217.2,M,,M,,*7E
$GPRMC,191113.0,A,3443.4897,N,08633.1247,W,,,271118,,*1B
$GPGGA,191143.0,3443.4897,N,08633.1247,W,1,,,217.2,M,,M,,*7B
$GPRMC,191143.0,A,3443.4897,N,08633.1247,W,,,271118,,*1E
$GPGGA,191213.0,3443.4897,N,08633.1247,W,1,,,217.1,M,,M,,*7E
$GPRMC,191213.0,A,3443.4897,N,08633.1247,W,,,271118,,*18
$GPGGA,191243.0,3443.4897,N,08633.1247,W,1,,,217.1,M,,M,,*7B
$GPRMC,191243.0,A,3443.4897,N,08633.1247,W,,,271118,,*1D
$GPGGA,191313.0,3443.4897,N,08633.1247,W,1,,,217.1,M,,M,,*7F
$GPRMC,191313.0,A,3443.4897,N,08633.1247,W,,,271118,,*19
$GPGGA,191343.0,3443.4897,N,08633.1247,W,1,,,217.1,M,,M,,*7A
$GPRMC,191343.0,A,3443.4897,N,08633.1247,W,,,271118,,*1C
