@Olympus/+0900/+0900
$GPGGA,150019.0,3443.4908,N,08633.1256,W,1,,,223.8,M,,M,,*72
$GPRMC,150019.0,A,3443.4908,N,08633.1256,W,,,281118,,*15
$GPGGA,150049.0,3443.4908,N,08633.1256,W,1,,,223.7,M,,M,,*78
$GPRMC,150049.0,A,3443.4908,N,08633.1256,W,,,281118,,*10
$GPGGA,150119.0,3443.4908,N,08633.1256,W,1,,,223.6,M,,M,,*7D
$GPRMC,150119.0,A,3443.4908,N,08633.1256,W,,,281118,,*14
$GPGGA,150149.0,3443.4908,N,08633.1257,W,1,,,223.5,M,,M,,*7A
$GPRMC,150149.0,A,3443.4908,N,08633.1257,W,,,281118,,*10
$GPGGA,150219.0,3443.4908,N,08633.1257,W,1,,,223.4,M,,M,,*7D
$GPRMC,150219.0,A,3443.4908,N,08633.1257,W,,,281118,,*16
$GPGGA,150249.0,3443.4908,N,08633.1257,W,1,,,223.4,M,,M,,*78
$GPRMC,150249.0,A,3443.4908,N,08633.1257,W,,,281118,,*13
$GPGGA,150319.0,3443.4908,N,08633.1257,W,1,,,223.5,M,,M,,*7D
$GPRMC,150319.0,A,3443.4908,N,08633.1257,W,,,281118,,*17
$GPGGA,150349.0,3443.4908,N,08633.1257,W,1,,,223.6,M,,M,,*7B
$GPRMC,150349.0,A,3443.4908,N,08633.1257,W,,,281118,,*12
$GPGGA,150419.0,3443.4908,N,08633.1258,W,1,,,223.5,M,,M,,*75
$GPRMC,150419.0,A,3443.4908,N,08633.1258,W,,,281118,,*1F
$GPGGA,150449.0,3443.4908,N,08633.1258,W,1,,,223.4,M,,M,,*71
$GPRMC,150449.0,A,3443.4908,N,08633.1258,W,,,281118,,*1A
$GPGGA,150519.0,3443.4907,N,08633.1258,W,1,,,223.1,M,,M,,*7F
$GPRMC,150519.0,A,3443.4907,N,08633.1258,W,,,281118,,*11
$GPGGA,150549.0,3443.4906,N,08633.1258,W,1,,,222.8,M,,M,,*73
$GPRMC,150549.0,A,3443.4906,N,08633.1258,W,,,281118,,*15
$GPGGA,150619.0,3443.4894,N,08633.1260,W,1,,,223.7,M,,M,,*7A
$GPRMC,150619.0,A,3443.4894,N,08633.1260,W,,,281118,,*12
$GPGGA,150649.0,3443.4894,N,08633.1260,W,1,,,221.8,M,,M,,*72
$GPRMC,150649.0,A,3443.4894,N,08633.1260,W,,,281118,,*17
$GPGGA,150719.0,3443.4894,N,08633.1259,W,1,,,221.5,M,,M,,*71
$GPRMC,150719.0,A,3443.4894,N,08633.1259,W,,,281118,,*19
$GPGGA,150749.0,3443.4894,N,08633.1259,W,1,,,221.1,M,,M,,*70
$GPRMC,150749.0,A,3443.4894,N,08633.1259,W,,,281118,,*1C
$GPGGA,150819.0,3443.4894,N,08633.1258,W,1,,,220.0,M,,M,,*7B
$GPRMC,150819.0,A,3443.4894,N,08633.1258,W,,,281118,,*17
$GPGGA,150849.0,3443.4893,N,08633.1257,W,1,,,219.9,M,,M,,*75
$GPRMC,150849.0,A,3443.4893,N,08633.1257,W,,,281118,,*1A
$GPGGA,150919.0,3443.4892,N,08633.1256,W,1,,,220.9,M,,M,,*7B
$GPRMC,150919.0,A,3443.4892,N,08633.1256,W,,,281118,,*1E
$GPGGA,150949.0,3443.4892,N,08633.1255,W,1,,,221.7,M,,M,,*72
$GPRMC,150949.0,A,3443.4892,N,08633.1255,W,,,281118,,*18
$GPGGA,151019.0,3443.4892,N,08633.1255,W,1,,,221.9,M,,M,,*71
$GPRMC,151019.0,A,3443.4892,N,08633.1255,W,,,281118,,*15
$GPGGA,151049.0,3443.4893,N,08633.1255,W,1,,,222.4,M,,M,,*7B
$GPRMC,151049.0,A,3443.4893,N,08633.1255,W,,,281118,,*11
$GPGGA,151119.0,3443.4893,N,08633.1256,W,1,,,222.7,M,,M,,*7F
$GPRMC,151119.0,A,3443.4893,N,08633.1256,W,,,281118,,*16
$GPGGA,151149.0,3443.4893,N,08633.1256,W,1,,,222.4,M,,M,,*79
$GPRMC,151149.0,A,3443.4893,N,08633.1256,W,,,281118,,*13
$GPGGA,151219.0,3443.4893,N,08633.1255,W,1,,,221.9,M,,M,,*72
$GPRMC,151219.0,A,3443.4893,N,08633.1255,W,,,281118,,*16
$GPGGA,151249.0,3443.4893,N,08633.1255,W,1,,,221.4,M,,M,,*7A
$GPRMC,151249.0,A,3443.4893,N,08633.1255,W,,,281118,,*13
$GPGGA,151319.0,3443.4893,N,08633.1254,W,1,,,221.2,M,,M,,*79
$GPRMC,151319.0,A,3443.4893,N,08633.1254,W,,,281118,,*16
$GPGGA,151349.0,3443.4893,N,08633.1254,W,1,,,221.1,M,,M,,*7F
$GPRMC,151349.0,A,3443.4893,N,08633.1254,W,,,281118,,*13
$GPGGA,151419.0,3443.4893,N,08633.1254,W,1,,,221.2,M,,M,,*7E
$GPRMC,151419.0,A,3443.4893,N,08633.1254,W,,,281118,,*11
$GPGGA,151449.0,3443.4894,N,08633.1255,W,1,,,221.3,M,,M,,*7C
$GPRMC,151449.0,A,3443.4894,N,08633.1255,W,,,281118,,*12
$GPGGA,151519.0,3443.4894,N,08633.1255,W,1,,,221.2,M,,M,,*79
$GPRMC,151519.0,A,3443.4894,N,08633.1255,W,,,281118,,*16
$GPGGA,151549.0,3443.4895,N,08633.1255,W,1,,,221.3,M,,M,,*7C
$GPRMC,151549.0,A,3443.4895,N,08633.1255,W,,,281118,,*12
$GPGGA,151619.0,3443.4895,N,08633.1256,W,1,,,221.0,M,,M,,*7A
$GPRMC,151619.0,A,3443.4895,N,08633.1256,W,,,281118,,*17
$GPGGA,151649.0,3443.4894,N,08633.1256,W,1,,,220.2,M,,M,,*7D
$GPRMC,151649.0,A,3443.4894,N,08633.1256,W,,,281118,,*13
$GPGGA,151719.0,3443.4894,N,08633.1257,W,1,,,219.5,M,,M,,*75
$GPRMC,151719.0,A,3443.4894,N,08633.1257,W,,,281118,,*16
$GPGGA,151749.0,3443.4894,N,08633.1257,W,1,,,219.5,M,,M,,*70
$GPRMC,151749.0,A,3443.4894,N,08633.1257,W,,,281118,,*13
$GPGGA,151819.0,3443.4894,N,08633.1256,W,1,,,219.5,M,,M,,*7B
$GPRMC,151819.0,A,3443.4894,N,08633.1256,W,,,281118,,*18
$GPGGA,151849.0,3443.4893,N,08633.1257,W,1,,,219.2,M,,M,,*7F
$GPRMC,151849.0,A,3443.4893,N,08633.1257,W,,,281118,,*1B
$GPGGA,151919.0,3443.4893,N,08633.1258,W,1,,,218.7,M,,M,,*70
$GPRMC,151919.0,A,3443.4893,N,08633.1258,W,,,281118,,*10
$GPGGA,151949.0,3443.4892,N,08633.1258,W,1,,,218.4,M,,M,,*77
$GPRMC,151949.0,A,3443.4892,N,08633.1258,W,,,281118,,*14
$GPGGA,152019.0,3443.4892,N,08633.1258,W,1,,,218.2,M,,M,,*7E
$GPRMC,152019.0,A,3443.4892,N,08633.1258,W,,,281118,,*1B
$GPGGA,152049.0,3443.4892,N,08633.1259,W,1,,,218.3,M,,M,,*7B
$GPRMC,152049.0,A,3443.4892,N,08633.1259,W,,,281118,,*1F
$GPGGA,152119.0,3443.4892,N,08633.1259,W,1,,,218.5,M,,M,,*79
$GPRMC,152119.0,A,3443.4892,N,08633.1259,W,,,281118,,*1B
$GPGGA,152149.0,3443.4893,N,08633.1259,W,1,,,218.3,M,,M,,*7B
$GPRMC,152149.0,A,3443.4893,N,08633.1259,W,,,281118,,*1F
$GPGGA,152219.0,3443.4891,N,08633.1260,W,1,,,218.2,M,,M,,*74
$GPRMC,152219.0,A,3443.4891,N,08633.1260,W,,,281118,,*11
$GPGGA,152249.0,3443.4891,N,08633.1261,W,1,,,218.6,M,,M,,*74
$GPRMC,152249.0,A,3443.4891,N,08633.1261,W,,,281118,,*15
$GPGGA,152319.0,3443.4892,N,08633.1261,W,1,,,219.2,M,,M,,*76
$GPRMC,152319.0,A,3443.4892,N,08633.1261,W,,,281118,,*12
$GPGGA,152349.0,3443.4892,N,08633.1261,W,1,,,219.9,M,,M,,*78
$GPRMC,152349.0,A,3443.4892,N,08633.1261,W,,,281118,,*17
$GPGGA,152419.0,3443.4891,N,08633.1265,W,1,,,221.7,M,,M,,*78
$GPRMC,152419.0,A,3443.4891,N,08633.1265,W,,,281118,,*12
$GPGGA,152449.0,3443.4891,N,08633.1266,W,1,,,222.0,M,,M,,*7A
$GPRMC,152449.0,A,3443.4891,N,08633.1266,W,,,281118,,*14
$GPGGA,152519.0,3443.4891,N,08633.1266,W,1,,,222.1,M,,M,,*7F
$GPRMC,152519.0,A,3443.4891,N,08633.1266,W,,,281118,,*10
$GPGGA,152549.0,3443.4891,N,08633.1266,W,1,,,222.4,M,,M,,*7F
$GPRMC,152549.0,A,3443.4891,N,08633.1266,W,,,281118,,*15
$GPGGA,152619.0,3443.4893,N,08633.1261,W,1,,,221.5,M,,M,,*7E
$GPRMC,152619.0,A,3443.4893,N,08633.1261,W,,,281118,,*16
$GPGGA,152649.0,3443.4893,N,08633.1261,W,1,,,221.9,M,,M,,*77
$GPRMC,152649.0,A,3443.4893,N,08633.1261,W,,,281118,,*13
$GPGGA,152719.0,3443.4893,N,08633.1262,W,1,,,222.1,M,,M,,*7B
$GPRMC,152719.0,A,3443.4893,N,08633.1262,W,,,281118,,*14
$GPGGA,152749.0,3443.4905,N,08633.1250,W,1,,,231.9,M,,M,,*7B
$GPRMC,152749.0,A,3443.4905,N,08633.1250,W,,,281118,,*1E
$GPGGA,152819.0,3443.4904,N,08633.1251,W,1,,,235.0,M,,M,,*7C
$GPRMC,152819.0,A,3443.4904,N,08633.1251,W,,,281118,,*14
$GPGGA,152849.0,3443.4904,N,08633.1253,W,1,,,233.1,M,,M,,*7C
$GPRMC,152849.0,A,3443.4904,N,08633.1253,W,,,281118,,*13
$GPGGA,152919.0,3443.4905,N,08633.1253,W,1,,,230.3,M,,M,,*78
$GPRMC,152919.0,A,3443.4905,N,08633.1253,W,,,281118,,*16
$GPGGA,152949.0,3443.4905,N,08633.1254,W,1,,,230.2,M,,M,,*7B
$GPRMC,152949.0,A,3443.4905,N,08633.1254,W,,,281118,,*14
$GPGGA,153019.0,3443.4905,N,08633.1255,W,1,,,230.2,M,,M,,*77
$GPRMC,153019.0,A,3443.4905,N,08633.1255,W,,,281118,,*18
$GPGGA,153049.0,3443.4905,N,08633.1256,W,1,,,229.5,M,,M,,*7E
$GPRMC,153049.0,A,3443.4905,N,08633.1256,W,,,281118,,*1E
$GPGGA,153119.0,3443.4905,N,08633.1256,W,1,,,229.6,M,,M,,*79
$GPRMC,153119.0,A,3443.4905,N,08633.1256,W,,,281118,,*1A
$GPGGA,153149.0,3443.4905,N,08633.1256,W,1,,,229.4,M,,M,,*7E
$GPRMC,153149.0,A,3443.4905,N,08633.1256,W,,,281118,,*1F
$GPGGA,153219.0,3443.4906,N,08633.1256,W,1,,,229.6,M,,M,,*79
$GPRMC,153219.0,A,3443.4906,N,08633.1256,W,,,281118,,*1A
$GPGGA,153249.0,3443.4907,N,08633.1259,W,1,,,229.5,M,,M,,*71
$GPRMC,153249.0,A,3443.4907,N,08633.1259,W,,,281118,,*11
$GPGGA,153319.0,3443.4907,N,08633.1259,W,1,,,229.2,M,,M,,*72
$GPRMC,153319.0,A,3443.4907,N,08633.1259,W,,,281118,,*15
$GPGGA,153349.0,3443.4907,N,08633.1243,W,1,,,227.1,M,,M,,*71
$GPRMC,153349.0,A,3443.4907,N,08633.1243,W,,,281118,,*1B
$GPGGA,153419.0,3443.4907,N,08633.1243,W,1,,,224.6,M,,M,,*77
$GPRMC,153419.0,A,3443.4907,N,08633.1243,W,,,281118,,*19
$GPGGA,153449.0,3443.4909,N,08633.1244,W,1,,,225.6,M,,M,,*7A
$GPRMC,153449.0,A,3443.4909,N,08633.1244,W,,,281118,,*15
$GPGGA,153519.0,3443.4909,N,08633.1246,W,1,,,227.3,M,,M,,*7B
$GPRMC,153519.0,A,3443.4909,N,08633.1246,W,,,281118,,*13
$GPGGA,153549.0,3443.4910,N,08633.1248,W,1,,,226.9,M,,M,,*73
$GPRMC,153549.0,A,3443.4910,N,08633.1248,W,,,281118,,*10
$GPGGA,153619.0,3443.4910,N,08633.1253,W,1,,,226.6,M,,M,,*70
$GPRMC,153619.0,A,3443.4910,N,08633.1253,W,,,281118,,*1C
$GPGGA,153649.0,3443.4910,N,08633.1255,W,1,,,225.4,M,,M,,*72
$GPRMC,153649.0,A,3443.4910,N,08633.1255,W,,,281118,,*1F
$GPGGA,153719.0,3443.4910,N,08633.1255,W,1,,,225.5,M,,M,,*77
$GPRMC,153719.0,A,3443.4910,N,08633.1255,W,,,281118,,*1B
$GPGGA,153749.0,3443.4910,N,08633.1255,W,1,,,226.3,M,,M,,*77
$GPRMC,153749.0,A,3443.4910,N,08633.1255,W,,,281118,,*1E
$GPGGA,153819.0,3443.4910,N,08633.1255,W,1,,,227.2,M,,M,,*7D
$GPRMC,153819.0,A,3443.4910,N,08633.1255,W,,,281118,,*14
$GPGGA,153849.0,3443.4911,N,08633.1255,W,1,,,226.9,M,,M,,*73
$GPRMC,153849.0,A,3443.4911,N,08633.1255,W,,,281118,,*10
$GPGGA,153919.0,3443.4912,N,08633.1256,W,1,,,226.8,M,,M,,*76
$GPRMC,153919.0,A,3443.4912,N,08633.1256,W,,,281118,,*14
$GPGGA,153949.0,3443.4912,N,08633.1255,W,1,,,226.2,M,,M,,*7A
$GPRMC,153949.0,A,3443.4912,N,08633.1255,W,,,281118,,*12
$GPGGA,154019.0,3443.4912,N,08633.1255,W,1,,,225.9,M,,M,,*79
$GPRMC,154019.0,A,3443.4912,N,08633.1255,W,,,281118,,*19
$GPGGA,154049.0,3443.4912,N,08633.1255,W,1,,,225.6,M,,M,,*73
$GPRMC,154049.0,A,3443.4912,N,08633.1255,W,,,281118,,*1C
$GPGGA,154119.0,3443.4912,N,08633.1255,W,1,,,225.6,M,,M,,*77
$GPRMC,154119.0,A,3443.4912,N,08633.1255,W,,,281118,,*18
$GPGGA,154149.0,3443.4916,N,08633.1257,W,1,,,226.3,M,,M,,*72
$GPRMC,154149.0,A,3443.4916,N,08633.1257,W,,,281118,,*1B
$GPGGA,154219.0,3443.4920,N,08633.1258,W,1,,,228.1,M,,M,,*72
$GPRMC,154219.0,A,3443.4920,N,08633.1258,W,,,281118,,*17
$GPGGA,154249.0,3443.4920,N,08633.1258,W,1,,,228.1,M,,M,,*77
$GPRMC,154249.0,A,3443.4920,N,08633.1258,W,,,281118,,*12
$GPGGA,154319.0,3443.4920,N,08633.1258,W,1,,,227.6,M,,M,,*7B
$GPRMC,154319.0,A,3443.4920,N,08633.1258,W,,,281118,,*16
$GPGGA,154349.0,3443.4920,N,08633.1257,W,1,,,227.5,M,,M,,*72
$GPRMC,154349.0,A,3443.4920,N,08633.1257,W,,,281118,,*1C
$GPGGA,154419.0,3443.4920,N,08633.1257,W,1,,,227.3,M,,M,,*76
$GPRMC,154419.0,A,3443.4920,N,08633.1257,W,,,281118,,*1E
$GPGGA,154449.0,3443.4930,N,08633.1268,W,1,,,221.5,M,,M,,*7E
$GPRMC,154449.0,A,3443.4930,N,08633.1268,W,,,281118,,*16
$GPGGA,154519.0,3443.4930,N,08633.1268,W,1,,,219.7,M,,M,,*73
$GPRMC,154519.0,A,3443.4930,N,08633.1268,W,,,281118,,*12
$GPGGA,154549.0,3443.4938,N,08633.1256,W,1,,,219.7,M,,M,,*73
$GPRMC,154549.0,A,3443.4938,N,08633.1256,W,,,281118,,*12
$GPGGA,154619.0,3443.4938,N,08633.1257,W,1,,,220.2,M,,M,,*7B
$GPRMC,154619.0,A,3443.4938,N,08633.1257,W,,,281118,,*15
$GPGGA,154649.0,3443.4938,N,08633.1257,W,1,,,220.9,M,,M,,*75
$GPRMC,154649.0,A,3443.4938,N,08633.1257,W,,,281118,,*10
$GPGGA,154719.0,3443.4939,N,08633.1257,W,1,,,221.0,M,,M,,*78
$GPRMC,154719.0,A,3443.4939,N,08633.1257,W,,,281118,,*15
$GPGGA,154749.0,3443.4939,N,08633.1257,W,1,,,221.3,M,,M,,*7E
$GPRMC,154749.0,A,3443.4939,N,08633.1257,W,,,281118,,*10
$GPGGA,154819.0,3443.4939,N,08633.1257,W,1,,,221.3,M,,M,,*74
$GPRMC,154819.0,A,3443.4939,N,08633.1257,W,,,281118,,*1A
$GPGGA,154849.0,3443.4939,N,08633.1258,W,1,,,221.3,M,,M,,*7E
$GPRMC,154849.0,A,3443.4939,N,08633.1258,W,,,281118,,*10
$GPGGA,154919.0,3443.4939,N,08633.1257,W,1,,,220.5,M,,M,,*72
$GPRMC,154919.0,A,3443.4939,N,08633.1257,W,,,281118,,*1B
$GPGGA,154949.0,3443.4935,N,08633.1259,W,1,,,220.9,M,,M,,*79
$GPRMC,154949.0,A,3443.4935,N,08633.1259,W,,,281118,,*1C
$GPGGA,155019.0,3443.4936,N,08633.1258,W,1,,,220.3,M,,M,,*7C
$GPRMC,155019.0,A,3443.4936,N,08633.1258,W,,,281118,,*13
$GPGGA,155049.0,3443.4935,N,08633.1257,W,1,,,220.9,M,,M,,*7F
$GPRMC,155049.0,A,3443.4935,N,08633.1257,W,,,281118,,*1A
$GPGGA,155119.0,3443.4935,N,08633.1256,W,1,,,220.7,M,,M,,*74
$GPRMC,155119.0,A,3443.4935,N,08633.1256,W,,,281118,,*1F
$GPGGA,155149.0,3443.4935,N,08633.1255,W,1,,,220.4,M,,M,,*71
$GPRMC,155149.0,A,3443.4935,N,08633.1255,W,,,281118,,*19
$GPGGA,155219.0,3443.4935,N,08633.1255,W,1,,,220.3,M,,M,,*70
$GPRMC,155219.0,A,3443.4935,N,08633.1255,W,,,281118,,*1F
$GPGGA,155249.0,3443.4935,N,08633.1255,W,1,,,220.3,M,,M,,*75
$GPRMC,155249.0,A,3443.4935,N,08633.1255,W,,,281118,,*1A
$GPGGA,155319.0,3443.4934,N,08633.1254,W,1,,,220.9,M,,M,,*7B
$GPRMC,155319.0,A,3443.4934,N,08633.1254,W,,,281118,,*1E
$GPGGA,155349.0,3443.4934,N,08633.1253,W,1,,,220.9,M,,M,,*79
$GPRMC,155349.0,A,3443.4934,N,08633.1253,W,,,281118,,*1C
$GPGGA,155419.0,3443.4934,N,08633.1252,W,1,,,221.3,M,,M,,*71
$GPRMC,155419.0,A,3443.4934,N,08633.1252,W,,,281118,,*1F
$GPGGA,155449.0,3443.4937,N,08633.1254,W,1,,,221.4,M,,M,,*76
$GPRMC,155449.0,A,3443.4937,N,08633.1254,W,,,281118,,*1F
$GPGGA,155519.0,3443.4937,N,08633.1254,W,1,,,221.7,M,,M,,*71
$GPRMC,155519.0,A,3443.4937,N,08633.1254,W,,,281118,,*1B
$GPGGA,155549.0,3443.4936,N,08633.1253,W,1,,,221.7,M,,M,,*72
$GPRMC,155549.0,A,3443.4936,N,08633.1253,W,,,281118,,*18
$GPGGA,155619.0,3443.4935,N,08633.1252,W,1,,,221.8,M,,M,,*79
$GPRMC,155619.0,A,3443.4935,N,08633.1252,W,,,281118,,*1C
$GPGGA,155649.0,3443.4934,N,08633.1251,W,1,,,221.5,M,,M,,*73
$GPRMC,155649.0,A,3443.4934,N,08633.1251,W,,,281118,,*1B
$GPGGA,155719.0,3443.4932,N,08633.1252,W,1,,,221.8,M,,M,,*7F
$GPRMC,155719.0,A,3443.4932,N,08633.1252,W,,,281118,,*1A
$GPGGA,155749.0,3443.4931,N,08633.1251,W,1,,,221.9,M,,M,,*7B
$GPRMC,155749.0,A,3443.4931,N,08633.1251,W,,,281118,,*1F
$GPGGA,155819.0,3443.4930,N,08633.1251,W,1,,,222.3,M,,M,,*79
$GPRMC,155819.0,A,3443.4930,N,08633.1251,W,,,281118,,*14
$GPGGA,155849.0,3443.4930,N,08633.1250,W,1,,,222.2,M,,M,,*7C
$GPRMC,155849.0,A,3443.4930,N,08633.1250,W,,,281118,,*10
$GPGGA,155919.0,3443.4930,N,08633.1250,W,1,,,222.1,M,,M,,*7B
$GPRMC,155919.0,A,3443.4930,N,08633.1250,W,,,281118,,*14
$GPGGA,155949.0,3443.4925,N,08633.1251,W,1,,,222.8,M,,M,,*72
$GPRMC,155949.0,A,3443.4925,N,08633.1251,W,,,281118,,*14
$GPGGA,160019.0,3443.4925,N,08633.1251,W,1,,,222.8,M,,M,,*78
$GPRMC,160019.0,A,3443.4925,N,08633.1251,W,,,281118,,*1E
$GPGGA,160049.0,3443.4924,N,08633.1251,W,1,,,222.8,M,,M,,*7C
$GPRMC,160049.0,A,3443.4924,N,08633.1251,W,,,281118,,*1A
$GPGGA,160119.0,3443.4924,N,08633.1250,W,1,,,222.8,M,,M,,*79
$GPRMC,160119.0,A,3443.4924,N,08633.1250,W,,,281118,,*1F
$GPGGA,160149.0,3443.4924,N,08633.1250,W,1,,,222.8,M,,M,,*7C
$GPRMC,160149.0,A,3443.4924,N,08633.1250,W,,,281118,,*1A
$GPGGA,160219.0,3443.4925,N,08633.1250,W,1,,,222.5,M,,M,,*76
$GPRMC,160219.0,A,3443.4925,N,08633.1250,W,,,281118,,*1D
$GPGGA,160249.0,3443.4925,N,08633.1250,W,1,,,222.5,M,,M,,*73
$GPRMC,160249.0,A,3443.4925,N,08633.1250,W,,,281118,,*18
$GPGGA,160319.0,3443.4928,N,08633.1248,W,1,,,221.1,M,,M,,*74
$GPRMC,160319.0,A,3443.4928,N,08633.1248,W,,,281118,,*18
$GPGGA,160349.0,3443.4927,N,08633.1248,W,1,,,221.3,M,,M,,*7C
$GPRMC,160349.0,A,3443.4927,N,08633.1248,W,,,281118,,*12
$GPGGA,160419.0,3443.4928,N,08633.1248,W,1,,,221.2,M,,M,,*70
$GPRMC,160419.0,A,3443.4928,N,08633.1248,W,,,281118,,*1F
$GPGGA,160449.0,3443.4928,N,08633.1248,W,1,,,221.2,M,,M,,*75
$GPRMC,160449.0,A,3443.4928,N,08633.1248,W,,,281118,,*1A
$GPGGA,160519.0,3443.4928,N,08633.1248,W,1,,,221.3,M,,M,,*70
$GPRMC,160519.0,A,3443.4928,N,08633.1248,W,,,281118,,*1E
$GPGGA,160549.0,3443.4928,N,08633.1248,W,1,,,221.4,M,,M,,*72
$GPRMC,160549.0,A,3443.4928,N,08633.1248,W,,,281118,,*1B
$GPGGA,160619.0,3443.4927,N,08633.1249,W,1,,,222.1,M,,M,,*7C
$GPRMC,160619.0,A,3443.4927,N,08633.1249,W,,,281118,,*13
$GPGGA,160649.0,3443.4927,N,08633.1249,W,1,,,222.4,M,,M,,*7C
$GPRMC,160649.0,A,3443.4927,N,08633.1249,W,,,281118,,*16
$GPGGA,160719.0,3443.4927,N,08633.1249,W,1,,,222.6,M,,M,,*7A
$GPRMC,160719.0,A,3443.4927,N,08633.1249,W,,,281118,,*12
$GPGGA,160749.0,3443.4927,N,08633.1249,W,1,,,222.8,M,,M,,*71
$GPRMC,160749.0,A,3443.4927,N,08633.1249,W,,,281118,,*17
$GPGGA,160819.0,3443.4927,N,08633.1249,W,1,,,222.9,M,,M,,*7A
$GPRMC,160819.0,A,3443.4927,N,08633.1249,W,,,281118,,*1D
$GPGGA,160849.0,3443.4927,N,08633.1248,W,1,,,222.8,M,,M,,*7F
$GPRMC,160849.0,A,3443.4927,N,08633.1248,W,,,281118,,*19
$GPGGA,160919.0,3443.4927,N,08633.1248,W,1,,,222.8,M,,M,,*7B
$GPRMC,160919.0,A,3443.4927,N,08633.1248,W,,,281118,,*1D
$GPGGA,160949.0,3443.4927,N,08633.1248,W,1,,,222.8,M,,M,,*7E
$GPRMC,160949.0,A,3443.4927,N,08633.1248,W,,,281118,,*18
$GPGGA,161019.0,3443.4927,N,08633.1248,W,1,,,222.8,M,,M,,*73
$GPRMC,161019.0,A,3443.4927,N,08633.1248,W,,,281118,,*15
$GPGGA,161049.0,3443.4927,N,08633.1248,W,1,,,222.9,M,,M,,*77
$GPRMC,161049.0,A,3443.4927,N,08633.1248,W,,,281118,,*10
$GPGGA,161119.0,3443.4927,N,08633.1248,W,1,,,223.7,M,,M,,*7C
$GPRMC,161119.0,A,3443.4927,N,08633.1248,W,,,281118,,*14
$GPGGA,161149.0,3443.4926,N,08633.1248,W,1,,,224.3,M,,M,,*7B
$GPRMC,161149.0,A,3443.4926,N,08633.1248,W,,,281118,,*10
$GPGGA,161219.0,3443.4926,N,08633.1249,W,1,,,224.9,M,,M,,*76
$GPRMC,161219.0,A,3443.4926,N,08633.1249,W,,,281118,,*17
$GPGGA,161249.0,3443.4926,N,08633.1249,W,1,,,225.4,M,,M,,*7F
$GPRMC,161249.0,A,3443.4926,N,08633.1249,W,,,281118,,*12
$GPGGA,161319.0,3443.4925,N,08633.1248,W,1,,,225.9,M,,M,,*74
$GPRMC,161319.0,A,3443.4925,N,08633.1248,W,,,281118,,*14
$GPGGA,161349.0,3443.4925,N,08633.1248,W,1,,,226.1,M,,M,,*7A
$GPRMC,161349.0,A,3443.4925,N,08633.1248,W,,,281118,,*11
$GPGGA,161419.0,3443.4925,N,08633.1248,W,1,,,226.1,M,,M,,*78
$GPRMC,161419.0,A,3443.4925,N,08633.1248,W,,,281118,,*13
$GPGGA,161449.0,3443.4925,N,08633.1248,W,1,,,226.1,M,,M,,*7D
$GPRMC,161449.0,A,3443.4925,N,08633.1248,W,,,281118,,*16
$GPGGA,161519.0,3443.4925,N,08633.1248,W,1,,,226.1,M,,M,,*79
$GPRMC,161519.0,A,3443.4925,N,08633.1248,W,,,281118,,*12
$GPGGA,161549.0,3443.4925,N,08633.1248,W,1,,,226.1,M,,M,,*7C
$GPRMC,161549.0,A,3443.4925,N,08633.1248,W,,,281118,,*17
$GPGGA,161619.0,3443.4925,N,08633.1248,W,1,,,226.3,M,,M,,*78
$GPRMC,161619.0,A,3443.4925,N,08633.1248,W,,,281118,,*11
$GPGGA,161649.0,3443.4925,N,08633.1248,W,1,,,226.2,M,,M,,*7C
$GPRMC,161649.0,A,3443.4925,N,08633.1248,W,,,281118,,*14
$GPGGA,161719.0,3443.4925,N,08633.1248,W,1,,,226.3,M,,M,,*79
$GPRMC,161719.0,A,3443.4925,N,08633.1248,W,,,281118,,*10
$GPGGA,161749.0,3443.4925,N,08633.1248,W,1,,,226.4,M,,M,,*7B
$GPRMC,161749.0,A,3443.4925,N,08633.1248,W,,,281118,,*15
$GPGGA,161819.0,3443.4925,N,08633.1248,W,1,,,226.4,M,,M,,*71
$GPRMC,161819.0,A,3443.4925,N,08633.1248,W,,,281118,,*1F
$GPGGA,161849.0,3443.4925,N,08633.1248,W,1,,,226.6,M,,M,,*76
$GPRMC,161849.0,A,3443.4925,N,08633.1248,W,,,281118,,*1A
$GPGGA,161919.0,3443.4925,N,08633.1248,W,1,,,226.9,M,,M,,*7D
$GPRMC,161919.0,A,3443.4925,N,08633.1248,W,,,281118,,*1E
$GPGGA,161949.0,3443.4924,N,08633.1248,W,1,,,227.1,M,,M,,*70
$GPRMC,161949.0,A,3443.4924,N,08633.1248,W,,,281118,,*1A
$GPGGA,162019.0,3443.4924,N,08633.1248,W,1,,,226.9,M,,M,,*76
$GPRMC,162019.0,A,3443.4924,N,08633.1248,W,,,281118,,*15
$GPGGA,162049.0,3443.4924,N,08633.1248,W,1,,,226.9,M,,M,,*73
$GPRMC,162049.0,A,3443.4924,N,08633.1248,W,,,281118,,*10
$GPGGA,162119.0,3443.4924,N,08633.1248,W,1,,,226.9,M,,M,,*77
$GPRMC,162119.0,A,3443.4924,N,08633.1248,W,,,281118,,*14
$GPGGA,162149.0,3443.4924,N,08633.1248,W,1,,,226.7,M,,M,,*7C
$GPRMC,162149.0,A,3443.4924,N,08633.1248,W,,,281118,,*11
$GPGGA,162219.0,3443.4925,N,08633.1248,W,1,,,226.4,M,,M,,*78
$GPRMC,162219.0,A,3443.4925,N,08633.1248,W,,,281118,,*16
$GPGGA,162249.0,3443.4944,N,08633.1243,W,1,,,223.4,M,,M,,*74
$GPRMC,162249.0,A,3443.4944,N,08633.1243,W,,,281118,,*1F
$GPGGA,162319.0,3443.4944,N,08633.1242,W,1,,,221.6,M,,M,,*71
$GPRMC,162319.0,A,3443.4944,N,08633.1242,W,,,281118,,*1A
$GPGGA,162349.0,3443.4944,N,08633.1242,W,1,,,219.8,M,,M,,*71
$GPRMC,162349.0,A,3443.4944,N,08633.1242,W,,,281118,,*1F
$GPGGA,162419.0,3443.4944,N,08633.1242,W,1,,,219.3,M,,M,,*78
$GPRMC,162419.0,A,3443.4944,N,08633.1242,W,,,281118,,*1D
$GPGGA,162449.0,3443.4944,N,08633.1242,W,1,,,219.7,M,,M,,*79
$GPRMC,162449.0,A,3443.4944,N,08633.1242,W,,,281118,,*18
$GPGGA,162519.0,3443.4943,N,08633.1242,W,1,,,220.3,M,,M,,*74
$GPRMC,162519.0,A,3443.4943,N,08633.1242,W,,,281118,,*1B
$GPGGA,162549.0,3443.4943,N,08633.1242,W,1,,,220.3,M,,M,,*71
$GPRMC,162549.0,A,3443.4943,N,08633.1242,W,,,281118,,*1E
$GPGGA,162619.0,3443.4942,N,08633.1242,W,1,,,219.9,M,,M,,*76
$GPRMC,162619.0,A,3443.4942,N,08633.1242,W,,,281118,,*19
$GPGGA,162649.0,3443.4942,N,08633.1243,W,1,,,220.1,M,,M,,*70
$GPRMC,162649.0,A,3443.4942,N,08633.1243,W,,,281118,,*1D
$GPGGA,162719.0,3443.4942,N,08633.1243,W,1,,,219.9,M,,M,,*76
$GPRMC,162719.0,A,3443.4942,N,08633.1243,W,,,281118,,*19
$GPGGA,162749.0,3443.4941,N,08633.1243,W,1,,,220.4,M,,M,,*77
$GPRMC,162749.0,A,3443.4941,N,08633.1243,W,,,281118,,*1F
$GPGGA,162819.0,3443.4947,N,08633.1243,W,1,,,220.4,M,,M,,*7B
$GPRMC,162819.0,A,3443.4947,N,08633.1243,W,,,281118,,*13
$GPGGA,162849.0,3443.4946,N,08633.1243,W,1,,,220.0,M,,M,,*7B
$GPRMC,162849.0,A,3443.4946,N,08633.1243,W,,,281118,,*17
$GPGGA,162919.0,3443.4946,N,08633.1243,W,1,,,219.6,M,,M,,*73
$GPRMC,162919.0,A,3443.4946,N,08633.1243,W,,,281118,,*13
$GPGGA,162949.0,3443.4946,N,08633.1243,W,1,,,219.2,M,,M,,*72
$GPRMC,162949.0,A,3443.4946,N,08633.1243,W,,,281118,,*16
$GPGGA,163019.0,3443.4946,N,08633.1243,W,1,,,218.8,M,,M,,*74
$GPRMC,163019.0,A,3443.4946,N,08633.1243,W,,,281118,,*1B
$GPGGA,163049.0,3443.4946,N,08633.1243,W,1,,,218.8,M,,M,,*71
$GPRMC,163049.0,A,3443.4946,N,08633.1243,W,,,281118,,*1E
$GPGGA,163119.0,3443.4946,N,08633.1243,W,1,,,218.7,M,,M,,*7A
$GPRMC,163119.0,A,3443.4946,N,08633.1243,W,,,281118,,*1A
$GPGGA,163149.0,3443.4946,N,08633.1243,W,1,,,218.5,M,,M,,*7D
$GPRMC,163149.0,A,3443.4946,N,08633.1243,W,,,281118,,*1F
$GPGGA,163219.0,3443.4920,N,08633.1239,W,1,,,218.5,M,,M,,*76
$GPRMC,163219.0,A,3443.4920,N,08633.1239,W,,,281118,,*14
$GPGGA,163249.0,3443.4920,N,08633.1239,W,1,,,218.6,M,,M,,*70
$GPRMC,163249.0,A,3443.4920,N,08633.1239,W,,,281118,,*11
$GPGGA,163319.0,3443.4920,N,08633.1239,W,1,,,218.5,M,,M,,*77
$GPRMC,163319.0,A,3443.4920,N,08633.1239,W,,,281118,,*15
$GPGGA,163349.0,3443.4920,N,08633.1239,W,1,,,218.6,M,,M,,*71
$GPRMC,163349.0,A,3443.4920,N,08633.1239,W,,,281118,,*10
$GPGGA,163419.0,3443.4920,N,08633.1239,W,1,,,218.2,M,,M,,*77
$GPRMC,163419.0,A,3443.4920,N,08633.1239,W,,,281118,,*12
$GPGGA,163449.0,3443.4921,N,08633.1238,W,1,,,217.8,M,,M,,*77
$GPRMC,163449.0,A,3443.4921,N,08633.1238,W,,,281118,,*17
$GPGGA,163519.0,3443.4909,N,08633.1239,W,1,,,218.4,M,,M,,*7B
$GPRMC,163519.0,A,3443.4909,N,08633.1239,W,,,281118,,*18
$GPGGA,163549.0,3443.4909,N,08633.1238,W,1,,,217.9,M,,M,,*7D
$GPRMC,163549.0,A,3443.4909,N,08633.1238,W,,,281118,,*1C
$GPGGA,163619.0,3443.4896,N,08633.1233,W,1,,,216.0,M,,M,,*7F
$GPRMC,163619.0,A,3443.4896,N,08633.1233,W,,,281118,,*16
$GPGGA,163649.0,3443.4891,N,08633.1238,W,1,,,218.9,M,,M,,*71
$GPRMC,163649.0,A,3443.4891,N,08633.1238,W,,,281118,,*1F
$GPGGA,163719.0,3443.4891,N,08633.1238,W,1,,,219.6,M,,M,,*7B
$GPRMC,163719.0,A,3443.4891,N,08633.1238,W,,,281118,,*1B
$GPGGA,163749.0,3443.4891,N,08633.1238,W,1,,,219.7,M,,M,,*7F
$GPRMC,163749.0,A,3443.4891,N,08633.1238,W,,,281118,,*1E
$GPGGA,163819.0,3443.4892,N,08633.1238,W,1,,,219.3,M,,M,,*72
$GPRMC,163819.0,A,3443.4892,N,08633.1238,W,,,281118,,*17
$GPGGA,163849.0,3443.4892,N,08633.1238,W,1,,,218.4,M,,M,,*71
$GPRMC,163849.0,A,3443.4892,N,08633.1238,W,,,281118,,*12
$GPGGA,163919.0,3443.4893,N,08633.1238,W,1,,,218.0,M,,M,,*70
$GPRMC,163919.0,A,3443.4893,N,08633.1238,W,,,281118,,*17
$GPGGA,163949.0,3443.4894,N,08633.1237,W,1,,,217.6,M,,M,,*74
$GPRMC,163949.0,A,3443.4894,N,08633.1237,W,,,281118,,*1A
$GPGGA,164019.0,3443.4893,N,08633.1243,W,1,,,217.8,M,,M,,*75
$GPRMC,164019.0,A,3443.4893,N,08633.1243,W,,,281118,,*15
$GPGGA,164049.0,3443.4893,N,08633.1242,W,1,,,217.1,M,,M,,*78
$GPRMC,164049.0,A,3443.4893,N,08633.1242,W,,,281118,,*11
$GPGGA,164119.0,3443.4893,N,08633.1241,W,1,,,217.1,M,,M,,*7F
$GPRMC,164119.0,A,3443.4893,N,08633.1241,W,,,281118,,*16
$GPGGA,164149.0,3443.4893,N,08633.1241,W,1,,,217.0,M,,M,,*7B
$GPRMC,164149.0,A,3443.4893,N,08633.1241,W,,,281118,,*13
$GPGGA,164219.0,3443.4893,N,08633.1241,W,1,,,216.8,M,,M,,*74
$GPRMC,164219.0,A,3443.4893,N,08633.1241,W,,,281118,,*15
$GPGGA,164249.0,3443.4893,N,08633.1241,W,1,,,216.7,M,,M,,*7E
$GPRMC,164249.0,A,3443.4893,N,08633.1241,W,,,281118,,*10
$GPGGA,164319.0,3443.4894,N,08633.1240,W,1,,,216.5,M,,M,,*7E
$GPRMC,164319.0,A,3443.4894,N,08633.1240,W,,,281118,,*12
$GPGGA,164349.0,3443.4903,N,08633.1239,W,1,,,216.5,M,,M,,*7A
$GPRMC,164349.0,A,3443.4903,N,08633.1239,W,,,281118,,*16
$GPGGA,164419.0,3443.4903,N,08633.1238,W,1,,,216.5,M,,M,,*79
$GPRMC,164419.0,A,3443.4903,N,08633.1238,W,,,281118,,*15
$GPGGA,164449.0,3443.4903,N,08633.1238,W,1,,,216.8,M,,M,,*71
$GPRMC,164449.0,A,3443.4903,N,08633.1238,W,,,281118,,*10
$GPGGA,164519.0,3443.4903,N,08633.1238,W,1,,,217.0,M,,M,,*7C
$GPRMC,164519.0,A,3443.4903,N,08633.1238,W,,,281118,,*14
$GPGGA,164549.0,3443.4904,N,08633.1239,W,1,,,217.1,M,,M,,*7E
$GPRMC,164549.0,A,3443.4904,N,08633.1239,W,,,281118,,*17
$GPGGA,164619.0,3443.4913,N,08633.1240,W,1,,,216.9,M,,M,,*79
$GPRMC,164619.0,A,3443.4913,N,08633.1240,W,,,281118,,*19
$GPGGA,164649.0,3443.4913,N,08633.1240,W,1,,,217.0,M,,M,,*74
$GPRMC,164649.0,A,3443.4913,N,08633.1240,W,,,281118,,*1C
$GPGGA,164719.0,3443.4913,N,08633.1240,W,1,,,216.9,M,,M,,*78
$GPRMC,164719.0,A,3443.4913,N,08633.1240,W,,,281118,,*18
$GPGGA,164749.0,3443.4919,N,08633.1227,W,1,,,214.2,M,,M,,*7F
$GPRMC,164749.0,A,3443.4919,N,08633.1227,W,,,281118,,*16
$GPGGA,164819.0,3443.4918,N,08633.1228,W,1,,,214.4,M,,M,,*7D
$GPRMC,164819.0,A,3443.4918,N,08633.1228,W,,,281118,,*12
$GPGGA,164849.0,3443.4918,N,08633.1228,W,1,,,214.4,M,,M,,*78
$GPRMC,164849.0,A,3443.4918,N,08633.1228,W,,,281118,,*17
$GPGGA,164919.0,3443.4918,N,08633.1229,W,1,,,214.1,M,,M,,*78
$GPRMC,164919.0,A,3443.4918,N,08633.1229,W,,,281118,,*12
$GPGGA,164949.0,3443.4943,N,08633.1223,W,1,,,206.8,M,,M,,*73
$GPRMC,164949.0,A,3443.4943,N,08633.1223,W,,,281118,,*13
$GPGGA,165019.0,3443.4943,N,08633.1224,W,1,,,210.4,M,,M,,*72
$GPRMC,165019.0,A,3443.4943,N,08633.1224,W,,,281118,,*19
$GPGGA,165049.0,3443.4943,N,08633.1225,W,1,,,212.7,M,,M,,*77
$GPRMC,165049.0,A,3443.4943,N,08633.1225,W,,,281118,,*1D
$GPGGA,165119.0,3443.4943,N,08633.1226,W,1,,,211.5,M,,M,,*71
$GPRMC,165119.0,A,3443.4943,N,08633.1226,W,,,281118,,*1A
$GPGGA,165149.0,3443.4942,N,08633.1226,W,1,,,211.2,M,,M,,*72
$GPRMC,165149.0,A,3443.4942,N,08633.1226,W,,,281118,,*1E
$GPGGA,165219.0,3443.4940,N,08633.1227,W,1,,,211.0,M,,M,,*75
$GPRMC,165219.0,A,3443.4940,N,08633.1227,W,,,281118,,*1B
$GPGGA,165249.0,3443.4938,N,08633.1229,W,1,,,210.9,M,,M,,*79
$GPRMC,165249.0,A,3443.4938,N,08633.1229,W,,,281118,,*1F
$GPGGA,165319.0,3443.4938,N,08633.1231,W,1,,,212.4,M,,M,,*7B
$GPRMC,165319.0,A,3443.4938,N,08633.1231,W,,,281118,,*12
$GPGGA,165349.0,3443.4937,N,08633.1233,W,1,,,214.3,M,,M,,*72
$GPRMC,165349.0,A,3443.4937,N,08633.1233,W,,,281118,,*1A
$GPGGA,165419.0,3443.4937,N,08633.1235,W,1,,,215.4,M,,M,,*70
$GPRMC,165419.0,A,3443.4937,N,08633.1235,W,,,281118,,*1E
$GPGGA,165449.0,3443.4936,N,08633.1235,W,1,,,215.6,M,,M,,*76
$GPRMC,165449.0,A,3443.4936,N,08633.1235,W,,,281118,,*1A
$GPGGA,165519.0,3443.4935,N,08633.1236,W,1,,,215.9,M,,M,,*7D
$GPRMC,165519.0,A,3443.4935,N,08633.1236,W,,,281118,,*1E
$GPGGA,165549.0,3443.4933,N,08633.1237,W,1,,,216.8,M,,M,,*7D
$GPRMC,165549.0,A,3443.4933,N,08633.1237,W,,,281118,,*1C
$GPGGA,165619.0,3443.4932,N,08633.1237,W,1,,,217.0,M,,M,,*73
$GPRMC,165619.0,A,3443.4932,N,08633.1237,W,,,281118,,*1B
$GPGGA,165649.0,3443.4931,N,08633.1238,W,1,,,216.7,M,,M,,*7C
$GPRMC,165649.0,A,3443.4931,N,08633.1238,W,,,281118,,*12
$GPGGA,165719.0,3443.4931,N,08633.1238,W,1,,,216.5,M,,M,,*7A
$GPRMC,165719.0,A,3443.4931,N,08633.1238,W,,,281118,,*16
$GPGGA,165749.0,3443.4931,N,08633.1238,W,1,,,216.3,M,,M,,*79
$GPRMC,165749.0,A,3443.4931,N,08633.1238,W,,,281118,,*13
$GPGGA,165819.0,3443.4930,N,08633.1239,W,1,,,216.3,M,,M,,*73
$GPRMC,165819.0,A,3443.4930,N,08633.1239,W,,,281118,,*19
$GPGGA,165849.0,3443.4929,N,08633.1240,W,1,,,216.3,M,,M,,*70
$GPRMC,165849.0,A,3443.4929,N,08633.1240,W,,,281118,,*1A
$GPGGA,165919.0,3443.4928,N,08633.1240,W,1,,,216.4,M,,M,,*72
$GPRMC,165919.0,A,3443.4928,N,08633.1240,W,,,281118,,*1F
$GPGGA,165949.0,3443.4928,N,08633.1240,W,1,,,216.8,M,,M,,*7B
$GPRMC,165949.0,A,3443.4928,N,08633.1240,W,,,281118,,*1A
$GPGGA,170019.0,3443.4927,N,08633.1241,W,1,,,217.0,M,,M,,*74
$GPRMC,170019.0,A,3443.4927,N,08633.1241,W,,,281118,,*1C
$GPGGA,170049.0,3443.4926,N,08633.1241,W,1,,,217.0,M,,M,,*70
$GPRMC,170049.0,A,3443.4926,N,08633.1241,W,,,281118,,*18
$GPGGA,170119.0,3443.4925,N,08633.1241,W,1,,,217.0,M,,M,,*77
$GPRMC,170119.0,A,3443.4925,N,08633.1241,W,,,281118,,*1F
$GPGGA,170149.0,3443.4924,N,08633.1241,W,1,,,217.0,M,,M,,*73
$GPRMC,170149.0,A,3443.4924,N,08633.1241,W,,,281118,,*1B
$GPGGA,170219.0,3443.4923,N,08633.1241,W,1,,,217.0,M,,M,,*72
$GPRMC,170219.0,A,3443.4923,N,08633.1241,W,,,281118,,*1A
$GPGGA,170249.0,3443.4922,N,08633.1241,W,1,,,217.2,M,,M,,*74
$GPRMC,170249.0,A,3443.4922,N,08633.1241,W,,,281118,,*1E
$GPGGA,170319.0,3443.4922,N,08633.1241,W,1,,,217.5,M,,M,,*77
$GPRMC,170319.0,A,3443.4922,N,08633.1241,W,,,281118,,*1A
$GPGGA,170349.0,3443.4922,N,08633.1241,W,1,,,217.6,M,,M,,*71
$GPRMC,170349.0,A,3443.4922,N,08633.1241,W,,,281118,,*1F
$GPGGA,170419.0,3443.4922,N,08633.1241,W,1,,,217.6,M,,M,,*73
$GPRMC,170419.0,A,3443.4922,N,08633.1241,W,,,281118,,*1D
$GPGGA,170449.0,3443.4922,N,08633.1241,W,1,,,217.6,M,,M,,*76
$GPRMC,170449.0,A,3443.4922,N,08633.1241,W,,,281118,,*18
$GPGGA,170519.0,3443.4922,N,08633.1241,W,1,,,217.6,M,,M,,*72
$GPRMC,170519.0,A,3443.4922,N,08633.1241,W,,,281118,,*1C
$GPGGA,170549.0,3443.4922,N,08633.1241,W,1,,,217.7,M,,M,,*76
$GPRMC,170549.0,A,3443.4922,N,08633.1241,W,,,281118,,*19
$GPGGA,170619.0,3443.4921,N,08633.1248,W,1,,,223.8,M,,M,,*72
$GPRMC,170619.0,A,3443.4921,N,08633.1248,W,,,281118,,*15
$GPGGA,170649.0,3443.4921,N,08633.1248,W,1,,,223.5,M,,M,,*7A
$GPRMC,170649.0,A,3443.4921,N,08633.1248,W,,,281118,,*10
$GPGGA,170719.0,3443.4922,N,08633.1248,W,1,,,222.6,M,,M,,*7F
$GPRMC,170719.0,A,3443.4922,N,08633.1248,W,,,281118,,*17
$GPGGA,170749.0,3443.4922,N,08633.1248,W,1,,,222.3,M,,M,,*7F
$GPRMC,170749.0,A,3443.4922,N,08633.1248,W,,,281118,,*12
$GPGGA,170819.0,3443.4922,N,08633.1248,W,1,,,222.0,M,,M,,*76
$GPRMC,170819.0,A,3443.4922,N,08633.1248,W,,,281118,,*18
$GPGGA,170849.0,3443.4922,N,08633.1247,W,1,,,221.8,M,,M,,*77
$GPRMC,170849.0,A,3443.4922,N,08633.1247,W,,,281118,,*12
$GPGGA,170919.0,3443.4917,N,08633.1246,W,1,,,221.6,M,,M,,*7A
$GPRMC,170919.0,A,3443.4917,N,08633.1246,W,,,281118,,*11
$GPGGA,170949.0,3443.4914,N,08633.1246,W,1,,,221.8,M,,M,,*72
$GPRMC,170949.0,A,3443.4914,N,08633.1246,W,,,281118,,*17
$GPGGA,171019.0,3443.4914,N,08633.1245,W,1,,,221.6,M,,M,,*72
$GPRMC,171019.0,A,3443.4914,N,08633.1245,W,,,281118,,*19
$GPGGA,171049.0,3443.4914,N,08633.1245,W,1,,,221.5,M,,M,,*74
$GPRMC,171049.0,A,3443.4914,N,08633.1245,W,,,281118,,*1C
$GPGGA,171119.0,3443.4914,N,08633.1245,W,1,,,221.6,M,,M,,*73
$GPRMC,171119.0,A,3443.4914,N,08633.1245,W,,,281118,,*18
$GPGGA,171149.0,3443.4913,N,08633.1245,W,1,,,221.6,M,,M,,*71
$GPRMC,171149.0,A,3443.4913,N,08633.1245,W,,,281118,,*1A
$GPGGA,171219.0,3443.4919,N,08633.1243,W,1,,,222.9,M,,M,,*77
$GPRMC,171219.0,A,3443.4919,N,08633.1243,W,,,281118,,*10
$GPGGA,171249.0,3443.4920,N,08633.1245,W,1,,,223.6,M,,M,,*70
$GPRMC,171249.0,A,3443.4920,N,08633.1245,W,,,281118,,*19
$GPGGA,171319.0,3443.4919,N,08633.1245,W,1,,,223.9,M,,M,,*71
$GPRMC,171319.0,A,3443.4919,N,08633.1245,W,,,281118,,*17
$GPGGA,171349.0,3443.4919,N,08633.1245,W,1,,,224.1,M,,M,,*7B
$GPRMC,171349.0,A,3443.4919,N,08633.1245,W,,,281118,,*12
$GPGGA,171419.0,3443.4921,N,08633.1246,W,1,,,224.8,M,,M,,*78
$GPRMC,171419.0,A,3443.4921,N,08633.1246,W,,,281118,,*18
$GPGGA,171449.0,3443.4926,N,08633.1246,W,1,,,224.9,M,,M,,*7B
$GPRMC,171449.0,A,3443.4926,N,08633.1246,W,,,281118,,*1A
$GPGGA,171519.0,3443.4926,N,08633.1247,W,1,,,224.9,M,,M,,*7E
$GPRMC,171519.0,A,3443.4926,N,08633.1247,W,,,281118,,*1F
$GPGGA,171549.0,3443.4926,N,08633.1247,W,1,,,224.8,M,,M,,*7A
$GPRMC,171549.0,A,3443.4926,N,08633.1247,W,,,281118,,*1A
$GPGGA,171619.0,3443.4926,N,08633.1247,W,1,,,224.7,M,,M,,*73
$GPRMC,171619.0,A,3443.4926,N,08633.1247,W,,,281118,,*1C
$GPGGA,171649.0,3443.4926,N,08633.1246,W,1,,,224.4,M,,M,,*74
$GPRMC,171649.0,A,3443.4926,N,08633.1246,W,,,281118,,*18
$GPGGA,171719.0,3443.4926,N,08633.1247,W,1,,,224.2,M,,M,,*77
$GPRMC,171719.0,A,3443.4926,N,08633.1247,W,,,281118,,*1D
$GPGGA,171749.0,3443.4925,N,08633.1246,W,1,,,223.9,M,,M,,*7C
$GPRMC,171749.0,A,3443.4925,N,08633.1246,W,,,281118,,*1A
$GPGGA,171819.0,3443.4925,N,08633.1246,W,1,,,223.6,M,,M,,*79
$GPRMC,171819.0,A,3443.4925,N,08633.1246,W,,,281118,,*10
$GPGGA,171849.0,3443.4925,N,08633.1246,W,1,,,223.4,M,,M,,*7E
$GPRMC,171849.0,A,3443.4925,N,08633.1246,W,,,281118,,*15
$GPGGA,171919.0,3443.4924,N,08633.1247,W,1,,,223.2,M,,M,,*7C
$GPRMC,171919.0,A,3443.4924,N,08633.1247,W,,,281118,,*11
$GPGGA,171949.0,3443.4924,N,08633.1247,W,1,,,222.9,M,,M,,*73
$GPRMC,171949.0,A,3443.4924,N,08633.1247,W,,,281118,,*14
$GPGGA,172019.0,3443.4923,N,08633.1247,W,1,,,222.8,M,,M,,*7A
$GPRMC,172019.0,A,3443.4923,N,08633.1247,W,,,281118,,*1C
$GPGGA,172049.0,3443.4923,N,08633.1246,W,1,,,222.6,M,,M,,*70
$GPRMC,172049.0,A,3443.4923,N,08633.1246,W,,,281118,,*18
$GPGGA,172119.0,3443.4922,N,08633.1246,W,1,,,222.5,M,,M,,*76
$GPRMC,172119.0,A,3443.4922,N,08633.1246,W,,,281118,,*1D
$GPGGA,172149.0,3443.4922,N,08633.1246,W,1,,,222.3,M,,M,,*75
$GPRMC,172149.0,A,3443.4922,N,08633.1246,W,,,281118,,*18
$GPGGA,172219.0,3443.4921,N,08633.1246,W,1,,,222.4,M,,M,,*77
$GPRMC,172219.0,A,3443.4921,N,08633.1246,W,,,281118,,*1D
$GPGGA,172249.0,3443.4921,N,08633.1247,W,1,,,222.4,M,,M,,*73
$GPRMC,172249.0,A,3443.4921,N,08633.1247,W,,,281118,,*19
$GPGGA,172319.0,3443.4920,N,08633.1247,W,1,,,222.2,M,,M,,*70
$GPRMC,172319.0,A,3443.4920,N,08633.1247,W,,,281118,,*1C
$GPGGA,172349.0,3443.4920,N,08633.1247,W,1,,,221.9,M,,M,,*7D
$GPRMC,172349.0,A,3443.4920,N,08633.1247,W,,,281118,,*19
$GPGGA,172419.0,3443.4920,N,08633.1247,W,1,,,221.8,M,,M,,*7E
$GPRMC,172419.0,A,3443.4920,N,08633.1247,W,,,281118,,*1B
$GPGGA,172449.0,3443.4919,N,08633.1247,W,1,,,221.8,M,,M,,*71
$GPRMC,172449.0,A,3443.4919,N,08633.1247,W,,,281118,,*14
$GPGGA,172519.0,3443.4919,N,08633.1247,W,1,,,221.9,M,,M,,*74
$GPRMC,172519.0,A,3443.4919,N,08633.1247,W,,,281118,,*10
$GPGGA,172549.0,3443.4919,N,08633.1243,W,1,,,220.8,M,,M,,*75
$GPRMC,172549.0,A,3443.4919,N,08633.1243,W,,,281118,,*11
$GPGGA,172619.0,3443.4919,N,08633.1243,W,1,,,220.7,M,,M,,*7C
$GPRMC,172619.0,A,3443.4919,N,08633.1243,W,,,281118,,*17
$GPGGA,172649.0,3443.4916,N,08633.1241,W,1,,,219.6,M,,M,,*7F
$GPRMC,172649.0,A,3443.4916,N,08633.1241,W,,,281118,,*1F
$GPGGA,172719.0,3443.4914,N,08633.1239,W,1,,,210.9,M,,M,,*70
$GPRMC,172719.0,A,3443.4914,N,08633.1239,W,,,281118,,*16
$GPGGA,172749.0,3443.4913,N,08633.1239,W,1,,,210.7,M,,M,,*7C
$GPRMC,172749.0,A,3443.4913,N,08633.1239,W,,,281118,,*14
$GPGGA,172819.0,3443.4913,N,08633.1241,W,1,,,212.4,M,,M,,*78
$GPRMC,172819.0,A,3443.4913,N,08633.1241,W,,,281118,,*11
$GPGGA,172849.0,3443.4912,N,08633.1243,W,1,,,213.5,M,,M,,*7E
$GPRMC,172849.0,A,3443.4912,N,08633.1243,W,,,281118,,*17
$GPGGA,172919.0,3443.4911,N,08633.1242,W,1,,,213.3,M,,M,,*7E
$GPRMC,172919.0,A,3443.4911,N,08633.1242,W,,,281118,,*11
$GPGGA,172949.0,3443.4911,N,08633.1242,W,1,,,213.3,M,,M,,*7B
$GPRMC,172949.0,A,3443.4911,N,08633.1242,W,,,281118,,*14
$GPGGA,173019.0,3443.4910,N,08633.1242,W,1,,,212.9,M,,M,,*7C
$GPRMC,173019.0,A,3443.4910,N,08633.1242,W,,,281118,,*18
$GPGGA,173049.0,3443.4909,N,08633.1241,W,1,,,212.4,M,,M,,*7F
$GPRMC,173049.0,A,3443.4909,N,08633.1241,W,,,281118,,*16
$GPGGA,173119.0,3443.4909,N,08633.1242,W,1,,,212.3,M,,M,,*7F
$GPRMC,173119.0,A,3443.4909,N,08633.1242,W,,,281118,,*11
$GPGGA,173149.0,3443.4910,N,08633.1244,W,1,,,212.8,M,,M,,*7F
$GPRMC,173149.0,A,3443.4910,N,08633.1244,W,,,281118,,*1A
$GPGGA,173219.0,3443.4906,N,08633.1243,W,1,,,213.4,M,,M,,*74
$GPRMC,173219.0,A,3443.4906,N,08633.1243,W,,,281118,,*1C
$GPGGA,173249.0,3443.4906,N,08633.1244,W,1,,,213.6,M,,M,,*74
$GPRMC,173249.0,A,3443.4906,N,08633.1244,W,,,281118,,*1E
$GPGGA,173319.0,3443.4927,N,08633.1257,W,1,,,212.3,M,,M,,*75
$GPRMC,173319.0,A,3443.4927,N,08633.1257,W,,,281118,,*1B
$GPGGA,173349.0,3443.4924,N,08633.1255,W,1,,,206.1,M,,M,,*76
$GPRMC,173349.0,A,3443.4924,N,08633.1255,W,,,281118,,*1F
$GPGGA,173419.0,3443.4923,N,08633.1254,W,1,,,206.3,M,,M,,*70
$GPRMC,173419.0,A,3443.4923,N,08633.1254,W,,,281118,,*1B
$GPGGA,173449.0,3443.4921,N,08633.1253,W,1,,,207.0,M,,M,,*72
$GPRMC,173449.0,A,3443.4921,N,08633.1253,W,,,281118,,*1B
$GPGGA,173519.0,3443.4920,N,08633.1253,W,1,,,207.3,M,,M,,*74
$GPRMC,173519.0,A,3443.4920,N,08633.1253,W,,,281118,,*1E
$GPGGA,173549.0,3443.4919,N,08633.1254,W,1,,,207.3,M,,M,,*7C
$GPRMC,173549.0,A,3443.4919,N,08633.1254,W,,,281118,,*16
$GPGGA,173619.0,3443.4919,N,08633.1256,W,1,,,207.7,M,,M,,*7C
$GPRMC,173619.0,A,3443.4919,N,08633.1256,W,,,281118,,*12
$GPGGA,173649.0,3443.4918,N,08633.1258,W,1,,,209.5,M,,M,,*7A
$GPRMC,173649.0,A,3443.4918,N,08633.1258,W,,,281118,,*18
$GPGGA,173719.0,3443.4915,N,08633.1262,W,1,,,211.7,M,,M,,*71
$GPRMC,173719.0,A,3443.4915,N,08633.1262,W,,,281118,,*18
$GPGGA,173749.0,3443.4913,N,08633.1263,W,1,,,213.3,M,,M,,*75
$GPRMC,173749.0,A,3443.4913,N,08633.1263,W,,,281118,,*1A
$GPGGA,173819.0,3443.4912,N,08633.1263,W,1,,,214.6,M,,M,,*7C
$GPRMC,173819.0,A,3443.4912,N,08633.1263,W,,,281118,,*11
$GPGGA,173849.0,3443.4911,N,08633.1264,W,1,,,215.4,M,,M,,*7E
$GPRMC,173849.0,A,3443.4911,N,08633.1264,W,,,281118,,*10
$GPGGA,173919.0,3443.4910,N,08633.1264,W,1,,,215.5,M,,M,,*7A
$GPRMC,173919.0,A,3443.4910,N,08633.1264,W,,,281118,,*15
$GPGGA,173949.0,3443.4910,N,08633.1264,W,1,,,215.4,M,,M,,*7E
$GPRMC,173949.0,A,3443.4910,N,08633.1264,W,,,281118,,*10
$GPGGA,174019.0,3443.4909,N,08633.1260,W,1,,,214.3,M,,M,,*7F
$GPRMC,174019.0,A,3443.4909,N,08633.1260,W,,,281118,,*17
$GPGGA,174049.0,3443.4909,N,08633.1261,W,1,,,214.3,M,,M,,*7B
$GPRMC,174049.0,A,3443.4909,N,08633.1261,W,,,281118,,*13
$GPGGA,174119.0,3443.4909,N,08633.1262,W,1,,,214.4,M,,M,,*7B
$GPRMC,174119.0,A,3443.4909,N,08633.1262,W,,,281118,,*14
$GPGGA,174149.0,3443.4909,N,08633.1263,W,1,,,214.6,M,,M,,*7D
$GPRMC,174149.0,A,3443.4909,N,08633.1263,W,,,281118,,*10
$GPGGA,174219.0,3443.4910,N,08633.1264,W,1,,,215.1,M,,M,,*72
$GPRMC,174219.0,A,3443.4910,N,08633.1264,W,,,281118,,*19
$GPGGA,174249.0,3443.4914,N,08633.1274,W,1,,,213.9,M,,M,,*7C
$GPRMC,174249.0,A,3443.4914,N,08633.1274,W,,,281118,,*19
$GPGGA,174319.0,3443.4914,N,08633.1274,W,1,,,220.3,M,,M,,*72
$GPRMC,174319.0,A,3443.4914,N,08633.1274,W,,,281118,,*1D
$GPGGA,174349.0,3443.4913,N,08633.1273,W,1,,,223.1,M,,M,,*76
$GPRMC,174349.0,A,3443.4913,N,08633.1273,W,,,281118,,*18
$GPGGA,174419.0,3443.4913,N,08633.1273,W,1,,,224.6,M,,M,,*74
$GPRMC,174419.0,A,3443.4913,N,08633.1273,W,,,281118,,*1A
$GPGGA,174449.0,3443.4912,N,08633.1273,W,1,,,227.3,M,,M,,*76
$GPRMC,174449.0,A,3443.4912,N,08633.1273,W,,,281118,,*1E
$GPGGA,174519.0,3443.4911,N,08633.1274,W,1,,,229.0,M,,M,,*7B
$GPRMC,174519.0,A,3443.4911,N,08633.1274,W,,,281118,,*1E
$GPGGA,174549.0,3443.4911,N,08633.1274,W,1,,,229.6,M,,M,,*78
$GPRMC,174549.0,A,3443.4911,N,08633.1274,W,,,281118,,*1B
$GPGGA,174619.0,3443.4911,N,08633.1274,W,1,,,229.1,M,,M,,*79
$GPRMC,174619.0,A,3443.4911,N,08633.1274,W,,,281118,,*1D
$GPGGA,174649.0,3443.4910,N,08633.1274,W,1,,,228.8,M,,M,,*75
$GPRMC,174649.0,A,3443.4910,N,08633.1274,W,,,281118,,*19
$GPGGA,174719.0,3443.4910,N,08633.1275,W,1,,,227.7,M,,M,,*70
$GPRMC,174719.0,A,3443.4910,N,08633.1275,W,,,281118,,*1C
$GPGGA,174749.0,3443.4910,N,08633.1276,W,1,,,228.0,M,,M,,*7E
$GPRMC,174749.0,A,3443.4910,N,08633.1276,W,,,281118,,*1A
$GPGGA,174819.0,3443.4909,N,08633.1276,W,1,,,227.8,M,,M,,*7B
$GPRMC,174819.0,A,3443.4909,N,08633.1276,W,,,281118,,*18
$GPGGA,174849.0,3443.4909,N,08633.1276,W,1,,,227.3,M,,M,,*75
$GPRMC,174849.0,A,3443.4909,N,08633.1276,W,,,281118,,*1D
$GPGGA,174919.0,3443.4910,N,08633.1276,W,1,,,226.6,M,,M,,*7D
$GPRMC,174919.0,A,3443.4910,N,08633.1276,W,,,281118,,*11
$GPGGA,174949.0,3443.4911,N,08633.1275,W,1,,,226.1,M,,M,,*7D
$GPRMC,174949.0,A,3443.4911,N,08633.1275,W,,,281118,,*16
$GPGGA,175019.0,3443.4918,N,08633.1278,W,1,,,227.9,M,,M,,*7D
$GPRMC,175019.0,A,3443.4918,N,08633.1278,W,,,281118,,*1F
$GPGGA,175049.0,3443.4919,N,08633.1278,W,1,,,224.7,M,,M,,*74
$GPRMC,175049.0,A,3443.4919,N,08633.1278,W,,,281118,,*1B
$GPGGA,175119.0,3443.4919,N,08633.1276,W,1,,,221.4,M,,M,,*78
$GPRMC,175119.0,A,3443.4919,N,08633.1276,W,,,281118,,*11
$GPGGA,175149.0,3443.4918,N,08633.1276,W,1,,,221.6,M,,M,,*7E
$GPRMC,175149.0,A,3443.4918,N,08633.1276,W,,,281118,,*15
$GPGGA,175219.0,3443.4917,N,08633.1276,W,1,,,221.8,M,,M,,*79
$GPRMC,175219.0,A,3443.4917,N,08633.1276,W,,,281118,,*1C
$GPGGA,175249.0,3443.4916,N,08633.1276,W,1,,,221.3,M,,M,,*76
$GPRMC,175249.0,A,3443.4916,N,08633.1276,W,,,281118,,*18
$GPGGA,175319.0,3443.4915,N,08633.1275,W,1,,,220.2,M,,M,,*72
$GPRMC,175319.0,A,3443.4915,N,08633.1275,W,,,281118,,*1C
$GPGGA,175349.0,3443.4914,N,08633.1275,W,1,,,220.5,M,,M,,*71
$GPRMC,175349.0,A,3443.4914,N,08633.1275,W,,,281118,,*18
$GPGGA,175419.0,3443.4914,N,08633.1273,W,1,,,219.9,M,,M,,*73
$GPRMC,175419.0,A,3443.4914,N,08633.1273,W,,,281118,,*1C
$GPGGA,175449.0,3443.4913,N,08633.1272,W,1,,,220.3,M,,M,,*70
$GPRMC,175449.0,A,3443.4913,N,08633.1272,W,,,281118,,*1F
$GPGGA,175519.0,3443.4913,N,08633.1272,W,1,,,220.5,M,,M,,*72
$GPRMC,175519.0,A,3443.4913,N,08633.1272,W,,,281118,,*1B
$GPGGA,175549.0,3443.4912,N,08633.1272,W,1,,,221.2,M,,M,,*70
$GPRMC,175549.0,A,3443.4912,N,08633.1272,W,,,281118,,*1F
$GPGGA,175619.0,3443.4911,N,08633.1272,W,1,,,221.6,M,,M,,*71
$GPRMC,175619.0,A,3443.4911,N,08633.1272,W,,,281118,,*1A
$GPGGA,175649.0,3443.4911,N,08633.1273,W,1,,,222.1,M,,M,,*71
$GPRMC,175649.0,A,3443.4911,N,08633.1273,W,,,281118,,*1E
$GPGGA,175719.0,3443.4911,N,08633.1273,W,1,,,222.6,M,,M,,*72
$GPRMC,175719.0,A,3443.4911,N,08633.1273,W,,,281118,,*1A
$GPGGA,175749.0,3443.4911,N,08633.1274,W,1,,,222.9,M,,M,,*7F
$GPRMC,175749.0,A,3443.4911,N,08633.1274,W,,,281118,,*18
$GPGGA,175819.0,3443.4911,N,08633.1274,W,1,,,223.1,M,,M,,*7C
$GPRMC,175819.0,A,3443.4911,N,08633.1274,W,,,281118,,*12
$GPGGA,175849.0,3443.4911,N,08633.1274,W,1,,,223.2,M,,M,,*7A
$GPRMC,175849.0,A,3443.4911,N,08633.1274,W,,,281118,,*17
$GPGGA,175919.0,3443.4911,N,08633.1274,W,1,,,223.4,M,,M,,*78
$GPRMC,175919.0,A,3443.4911,N,08633.1274,W,,,281118,,*13
$GPGGA,175949.0,3443.4911,N,08633.1274,W,1,,,223.5,M,,M,,*7C
$GPRMC,175949.0,A,3443.4911,N,08633.1274,W,,,281118,,*16
$GPGGA,180019.0,3443.4911,N,08633.1274,W,1,,,223.9,M,,M,,*76
$GPRMC,180019.0,A,3443.4911,N,08633.1274,W,,,281118,,*10
$GPGGA,180049.0,3443.4911,N,08633.1274,W,1,,,224.2,M,,M,,*7F
$GPRMC,180049.0,A,3443.4911,N,08633.1274,W,,,281118,,*15
$GPGGA,180119.0,3443.4911,N,08633.1275,W,1,,,224.6,M,,M,,*7E
$GPRMC,180119.0,A,3443.4911,N,08633.1275,W,,,281118,,*10
$GPGGA,180149.0,3443.4911,N,08633.1275,W,1,,,225.1,M,,M,,*7D
$GPRMC,180149.0,A,3443.4911,N,08633.1275,W,,,281118,,*15
$GPGGA,180219.0,3443.4911,N,08633.1276,W,1,,,225.2,M,,M,,*7B
$GPRMC,180219.0,A,3443.4911,N,08633.1276,W,,,281118,,*10
$GPGGA,180249.0,3443.4911,N,08633.1277,W,1,,,225.6,M,,M,,*7B
$GPRMC,180249.0,A,3443.4911,N,08633.1277,W,,,281118,,*14
$GPGGA,180319.0,3443.4910,N,08633.1278,W,1,,,227.1,M,,M,,*74
$GPRMC,180319.0,A,3443.4910,N,08633.1278,W,,,281118,,*1E
$GPGGA,180349.0,3443.4910,N,08633.1279,W,1,,,228.7,M,,M,,*79
$GPRMC,180349.0,A,3443.4910,N,08633.1279,W,,,281118,,*1A
$GPGGA,180419.0,3443.4910,N,08633.1279,W,1,,,229.6,M,,M,,*7B
$GPRMC,180419.0,A,3443.4910,N,08633.1279,W,,,281118,,*18
$GPGGA,180449.0,3443.4902,N,08633.1276,W,1,,,224.7,M,,M,,*7E
$GPRMC,180449.0,A,3443.4902,N,08633.1276,W,,,281118,,*11
$GPGGA,180519.0,3443.4903,N,08633.1277,W,1,,,224.6,M,,M,,*7B
$GPRMC,180519.0,A,3443.4903,N,08633.1277,W,,,281118,,*15
$GPGGA,180549.0,3443.4904,N,08633.1278,W,1,,,225.6,M,,M,,*77
$GPRMC,180549.0,A,3443.4904,N,08633.1278,W,,,281118,,*18
$GPGGA,180619.0,3443.4905,N,08633.1279,W,1,,,227.0,M,,M,,*75
$GPRMC,180619.0,A,3443.4905,N,08633.1279,W,,,281118,,*1E
$GPGGA,180649.0,3443.4906,N,08633.1280,W,1,,,227.5,M,,M,,*70
$GPRMC,180649.0,A,3443.4906,N,08633.1280,W,,,281118,,*1E
$GPGGA,180719.0,3443.4907,N,08633.1279,W,1,,,228.6,M,,M,,*7F
$GPRMC,180719.0,A,3443.4907,N,08633.1279,W,,,281118,,*1D
$GPGGA,180749.0,3443.4907,N,08633.1278,W,1,,,228.2,M,,M,,*7F
$GPRMC,180749.0,A,3443.4907,N,08633.1278,W,,,281118,,*19
$GPGGA,180819.0,3443.4908,N,08633.1277,W,1,,,226.9,M,,M,,*70
$GPRMC,180819.0,A,3443.4908,N,08633.1277,W,,,281118,,*13
$GPGGA,180849.0,3443.4908,N,08633.1276,W,1,,,226.8,M,,M,,*75
$GPRMC,180849.0,A,3443.4908,N,08633.1276,W,,,281118,,*17
$GPGGA,180919.0,3443.4909,N,08633.1276,W,1,,,226.8,M,,M,,*70
$GPRMC,180919.0,A,3443.4909,N,08633.1276,W,,,281118,,*12
$GPGGA,180949.0,3443.4909,N,08633.1275,W,1,,,226.5,M,,M,,*7B
$GPRMC,180949.0,A,3443.4909,N,08633.1275,W,,,281118,,*14
$GPGGA,181019.0,3443.4910,N,08633.1275,W,1,,,226.7,M,,M,,*7C
$GPRMC,181019.0,A,3443.4910,N,08633.1275,W,,,281118,,*11
$GPGGA,181049.0,3443.4910,N,08633.1276,W,1,,,226.3,M,,M,,*7E
$GPRMC,181049.0,A,3443.4910,N,08633.1276,W,,,281118,,*17
$GPGGA,181119.0,3443.4911,N,08633.1278,W,1,,,226.2,M,,M,,*74
$GPRMC,181119.0,A,3443.4911,N,08633.1278,W,,,281118,,*1C
$GPGGA,181149.0,3443.4912,N,08633.1278,W,1,,,225.4,M,,M,,*77
$GPRMC,181149.0,A,3443.4912,N,08633.1278,W,,,281118,,*1A
$GPGGA,181219.0,3443.4912,N,08633.1278,W,1,,,224.0,M,,M,,*74
$GPRMC,181219.0,A,3443.4912,N,08633.1278,W,,,281118,,*1C
$GPGGA,181249.0,3443.4912,N,08633.1279,W,1,,,223.4,M,,M,,*73
$GPRMC,181249.0,A,3443.4912,N,08633.1279,W,,,281118,,*18
$GPGGA,181319.0,3443.4912,N,08633.1280,W,1,,,222.9,M,,M,,*7D
$GPRMC,181319.0,A,3443.4912,N,08633.1280,W,,,281118,,*1A
$GPGGA,181349.0,3443.4912,N,08633.1280,W,1,,,222.6,M,,M,,*77
$GPRMC,181349.0,A,3443.4912,N,08633.1280,W,,,281118,,*1F
$GPGGA,181419.0,3443.4911,N,08633.1279,W,1,,,222.3,M,,M,,*75
$GPRMC,181419.0,A,3443.4911,N,08633.1279,W,,,281118,,*18
$GPGGA,181449.0,3443.4912,N,08633.1279,W,1,,,222.6,M,,M,,*76
$GPRMC,181449.0,A,3443.4912,N,08633.1279,W,,,281118,,*1E
$GPGGA,181519.0,3443.4912,N,08633.1278,W,1,,,222.2,M,,M,,*77
$GPRMC,181519.0,A,3443.4912,N,08633.1278,W,,,281118,,*1B
$GPGGA,181549.0,3443.4911,N,08633.1277,W,1,,,222.2,M,,M,,*7E
$GPRMC,181549.0,A,3443.4911,N,08633.1277,W,,,281118,,*12
$GPGGA,181619.0,3443.4911,N,08633.1277,W,1,,,222.0,M,,M,,*7A
$GPRMC,181619.0,A,3443.4911,N,08633.1277,W,,,281118,,*14
$GPGGA,181649.0,3443.4911,N,08633.1276,W,1,,,222.2,M,,M,,*7C
$GPRMC,181649.0,A,3443.4911,N,08633.1276,W,,,281118,,*10
$GPGGA,181719.0,3443.4912,N,08633.1276,W,1,,,222.4,M,,M,,*7D
$GPRMC,181719.0,A,3443.4912,N,08633.1276,W,,,281118,,*17
$GPGGA,181749.0,3443.4912,N,08633.1276,W,1,,,222.5,M,,M,,*79
$GPRMC,181749.0,A,3443.4912,N,08633.1276,W,,,281118,,*12
$GPGGA,181819.0,3443.4912,N,08633.1275,W,1,,,222.4,M,,M,,*71
$GPRMC,181819.0,A,3443.4912,N,08633.1275,W,,,281118,,*1B
$GPGGA,181849.0,3443.4913,N,08633.1276,W,1,,,222.8,M,,M,,*7A
$GPRMC,181849.0,A,3443.4913,N,08633.1276,W,,,281118,,*1C
$GPGGA,181919.0,3443.4913,N,08633.1276,W,1,,,223.7,M,,M,,*70
$GPRMC,181919.0,A,3443.4913,N,08633.1276,W,,,281118,,*18
$GPGGA,181949.0,3443.4914,N,08633.1276,W,1,,,224.3,M,,M,,*71
$GPRMC,181949.0,A,3443.4914,N,08633.1276,W,,,281118,,*1A
$GPGGA,182019.0,3443.4914,N,08633.1276,W,1,,,224.2,M,,M,,*7F
$GPRMC,182019.0,A,3443.4914,N,08633.1276,W,,,281118,,*15
$GPGGA,182049.0,3443.4914,N,08633.1276,W,1,,,224.0,M,,M,,*78
$GPRMC,182049.0,A,3443.4914,N,08633.1276,W,,,281118,,*10
$GPGGA,182119.0,3443.4915,N,08633.1275,W,1,,,223.7,M,,M,,*7E
$GPRMC,182119.0,A,3443.4915,N,08633.1275,W,,,281118,,*16
$GPGGA,182149.0,3443.4915,N,08633.1274,W,1,,,223.1,M,,M,,*7C
$GPRMC,182149.0,A,3443.4915,N,08633.1274,W,,,281118,,*12
$GPGGA,182219.0,3443.4915,N,08633.1274,W,1,,,222.9,M,,M,,*73
$GPRMC,182219.0,A,3443.4915,N,08633.1274,W,,,281118,,*14
$GPGGA,182249.0,3443.4915,N,08633.1273,W,1,,,222.9,M,,M,,*71
$GPRMC,182249.0,A,3443.4915,N,08633.1273,W,,,281118,,*16
$GPGGA,182319.0,3443.4915,N,08633.1273,W,1,,,223.2,M,,M,,*7F
$GPRMC,182319.0,A,3443.4915,N,08633.1273,W,,,281118,,*12
$GPGGA,182349.0,3443.4915,N,08633.1271,W,1,,,223.0,M,,M,,*7A
$GPRMC,182349.0,A,3443.4915,N,08633.1271,W,,,281118,,*15
$GPGGA,182419.0,3443.4915,N,08633.1271,W,1,,,222.8,M,,M,,*71
$GPRMC,182419.0,A,3443.4915,N,08633.1271,W,,,281118,,*17
$GPGGA,182449.0,3443.4914,N,08633.1270,W,1,,,222.6,M,,M,,*7A
$GPRMC,182449.0,A,3443.4914,N,08633.1270,W,,,281118,,*12
$GPGGA,182519.0,3443.4914,N,08633.1270,W,1,,,222.2,M,,M,,*7A
$GPRMC,182519.0,A,3443.4914,N,08633.1270,W,,,281118,,*16
$GPGGA,182549.0,3443.4913,N,08633.1269,W,1,,,222.0,M,,M,,*72
$GPRMC,182549.0,A,3443.4913,N,08633.1269,W,,,281118,,*1C
$GPGGA,182619.0,3443.4914,N,08633.1269,W,1,,,222.0,M,,M,,*73
$GPRMC,182619.0,A,3443.4914,N,08633.1269,W,,,281118,,*1D
$GPGGA,182649.0,3443.4914,N,08633.1269,W,1,,,221.9,M,,M,,*7C
$GPRMC,182649.0,A,3443.4914,N,08633.1269,W,,,281118,,*18
$GPGGA,182719.0,3443.4913,N,08633.1269,W,1,,,221.8,M,,M,,*7E
$GPRMC,182719.0,A,3443.4913,N,08633.1269,W,,,281118,,*1B
$GPGGA,182749.0,3443.4913,N,08633.1269,W,1,,,221.9,M,,M,,*7A
$GPRMC,182749.0,A,3443.4913,N,08633.1269,W,,,281118,,*1E
$GPGGA,182819.0,3443.4913,N,08633.1269,W,1,,,222.0,M,,M,,*7A
$GPRMC,182819.0,A,3443.4913,N,08633.1269,W,,,281118,,*14
$GPGGA,182849.0,3443.4913,N,08633.1269,W,1,,,222.1,M,,M,,*7E
$GPRMC,182849.0,A,3443.4913,N,08633.1269,W,,,281118,,*11
$GPGGA,182919.0,3443.4913,N,08633.1269,W,1,,,222.2,M,,M,,*79
$GPRMC,182919.0,A,3443.4913,N,08633.1269,W,,,281118,,*15
$GPGGA,182949.0,3443.4913,N,08633.1269,W,1,,,222.3,M,,M,,*7D
$GPRMC,182949.0,A,3443.4913,N,08633.1269,W,,,281118,,*10
$GPGGA,183019.0,3443.4913,N,08633.1269,W,1,,,222.1,M,,M,,*72
$GPRMC,183019.0,A,3443.4913,N,08633.1269,W,,,281118,,*1D
$GPGGA,183049.0,3443.4913,N,08633.1268,W,1,,,221.8,M,,M,,*7C
$GPRMC,183049.0,A,3443.4913,N,08633.1268,W,,,281118,,*19
$GPGGA,183119.0,3443.4913,N,08633.1268,W,1,,,221.6,M,,M,,*76
$GPRMC,183119.0,A,3443.4913,N,08633.1268,W,,,281118,,*1D
$GPGGA,183149.0,3443.4913,N,08633.1268,W,1,,,221.5,M,,M,,*70
$GPRMC,183149.0,A,3443.4913,N,08633.1268,W,,,281118,,*18
$GPGGA,183219.0,3443.4913,N,08633.1268,W,1,,,221.4,M,,M,,*77
$GPRMC,183219.0,A,3443.4913,N,08633.1268,W,,,281118,,*1E
$GPGGA,183249.0,3443.4913,N,08633.1268,W,1,,,221.4,M,,M,,*72
$GPRMC,183249.0,A,3443.4913,N,08633.1268,W,,,281118,,*1B
$GPGGA,183319.0,3443.4913,N,08633.1268,W,1,,,221.4,M,,M,,*76
$GPRMC,183319.0,A,3443.4913,N,08633.1268,W,,,281118,,*1F
$GPGGA,183349.0,3443.4913,N,08633.1268,W,1,,,221.5,M,,M,,*72
$GPRMC,183349.0,A,3443.4913,N,08633.1268,W,,,281118,,*1A
$GPGGA,183419.0,3443.4913,N,08633.1268,W,1,,,221.4,M,,M,,*71
$GPRMC,183419.0,A,3443.4913,N,08633.1268,W,,,281118,,*18
$GPGGA,183449.0,3443.4918,N,08633.1265,W,1,,,218.9,M,,M,,*75
$GPRMC,183449.0,A,3443.4918,N,08633.1265,W,,,281118,,*1B
$GPGGA,183519.0,3443.4918,N,08633.1265,W,1,,,219.0,M,,M,,*79
$GPRMC,183519.0,A,3443.4918,N,08633.1265,W,,,281118,,*1F
$GPGGA,183549.0,3443.4917,N,08633.1265,W,1,,,219.0,M,,M,,*73
$GPRMC,183549.0,A,3443.4917,N,08633.1265,W,,,281118,,*15
$GPGGA,183619.0,3443.4917,N,08633.1265,W,1,,,219.1,M,,M,,*74
$GPRMC,183619.0,A,3443.4917,N,08633.1265,W,,,281118,,*13
$GPGGA,183649.0,3443.4917,N,08633.1265,W,1,,,219.0,M,,M,,*70
$GPRMC,183649.0,A,3443.4917,N,08633.1265,W,,,281118,,*16
$GPGGA,183719.0,3443.4917,N,08633.1265,W,1,,,219.0,M,,M,,*74
$GPRMC,183719.0,A,3443.4917,N,08633.1265,W,,,281118,,*12
$GPGGA,183749.0,3443.4917,N,08633.1265,W,1,,,219.0,M,,M,,*71
$GPRMC,183749.0,A,3443.4917,N,08633.1265,W,,,281118,,*17
$GPGGA,183819.0,3443.4916,N,08633.1265,W,1,,,219.3,M,,M,,*79
$GPRMC,183819.0,A,3443.4916,N,08633.1265,W,,,281118,,*1C
$GPGGA,183849.0,3443.4916,N,08633.1265,W,1,,,219.4,M,,M,,*7B
$GPRMC,183849.0,A,3443.4916,N,08633.1265,W,,,281118,,*19
$GPGGA,183919.0,3443.4916,N,08633.1266,W,1,,,219.5,M,,M,,*7D
$GPRMC,183919.0,A,3443.4916,N,08633.1266,W,,,281118,,*1E
$GPGGA,183949.0,3443.4916,N,08633.1266,W,1,,,219.8,M,,M,,*75
$GPRMC,183949.0,A,3443.4916,N,08633.1266,W,,,281118,,*1B
$GPGGA,184019.0,3443.4916,N,08633.1266,W,1,,,219.8,M,,M,,*7E
$GPRMC,184019.0,A,3443.4916,N,08633.1266,W,,,281118,,*10
$GPGGA,184049.0,3443.4903,N,08633.1271,W,1,,,223.9,M,,M,,*71
$GPRMC,184049.0,A,3443.4903,N,08633.1271,W,,,281118,,*17
$GPGGA,184119.0,3443.4903,N,08633.1271,W,1,,,225.2,M,,M,,*78
$GPRMC,184119.0,A,3443.4903,N,08633.1271,W,,,281118,,*13
$GPGGA,184149.0,3443.4904,N,08633.1271,W,1,,,226.8,M,,M,,*73
$GPRMC,184149.0,A,3443.4904,N,08633.1271,W,,,281118,,*11
$GPGGA,184219.0,3443.4904,N,08633.1271,W,1,,,228.4,M,,M,,*77
$GPRMC,184219.0,A,3443.4904,N,08633.1271,W,,,281118,,*17
$GPGGA,184249.0,3443.4904,N,08633.1273,W,1,,,230.2,M,,M,,*7F
$GPRMC,184249.0,A,3443.4904,N,08633.1273,W,,,281118,,*10
$GPGGA,184319.0,3443.4904,N,08633.1272,W,1,,,226.6,M,,M,,*79
$GPRMC,184319.0,A,3443.4904,N,08633.1272,W,,,281118,,*15
$GPGGA,184349.0,3443.4904,N,08633.1272,W,1,,,226.2,M,,M,,*78
$GPRMC,184349.0,A,3443.4904,N,08633.1272,W,,,281118,,*10
$GPGGA,184419.0,3443.4904,N,08633.1273,W,1,,,226.0,M,,M,,*79
$GPRMC,184419.0,A,3443.4904,N,08633.1273,W,,,281118,,*13
$GPGGA,184449.0,3443.4905,N,08633.1272,W,1,,,224.4,M,,M,,*7A
$GPRMC,184449.0,A,3443.4905,N,08633.1272,W,,,281118,,*16
$GPGGA,184519.0,3443.4905,N,08633.1271,W,1,,,223.3,M,,M,,*7D
$GPRMC,184519.0,A,3443.4905,N,08633.1271,W,,,281118,,*11
$GPGGA,184549.0,3443.4905,N,08633.1270,W,1,,,223.0,M,,M,,*7A
$GPRMC,184549.0,A,3443.4905,N,08633.1270,W,,,281118,,*15
$GPGGA,184619.0,3443.4904,N,08633.1270,W,1,,,223.4,M,,M,,*79
$GPRMC,184619.0,A,3443.4904,N,08633.1270,W,,,281118,,*12
$GPGGA,184649.1,3443.4904,N,08633.1269,W,1,,,223.1,M,,M,,*70
$GPRMC,184649.1,A,3443.4904,N,08633.1269,W,,,281118,,*1E
$GPGGA,184719.0,3443.4905,N,08633.1267,W,1,,,223.1,M,,M,,*7A
$GPRMC,184719.0,A,3443.4905,N,08633.1267,W,,,281118,,*14
$GPGGA,184749.0,3443.4905,N,08633.1266,W,1,,,222.7,M,,M,,*79
$GPRMC,184749.0,A,3443.4905,N,08633.1266,W,,,281118,,*10
$GPGGA,184819.0,3443.4905,N,08633.1266,W,1,,,222.6,M,,M,,*72
$GPRMC,184819.0,A,3443.4905,N,08633.1266,W,,,281118,,*1A
$GPGGA,184849.0,3443.4905,N,08633.1266,W,1,,,222.5,M,,M,,*74
$GPRMC,184849.0,A,3443.4905,N,08633.1266,W,,,281118,,*1F
$GPGGA,184919.0,3443.4905,N,08633.1266,W,1,,,222.7,M,,M,,*72
$GPRMC,184919.0,A,3443.4905,N,08633.1266,W,,,281118,,*1B
$GPGGA,184949.0,3443.4905,N,08633.1266,W,1,,,222.8,M,,M,,*78
$GPRMC,184949.0,A,3443.4905,N,08633.1266,W,,,281118,,*1E
$GPGGA,185019.0,3443.4905,N,08633.1267,W,1,,,222.4,M,,M,,*78
$GPRMC,185019.0,A,3443.4905,N,08633.1267,W,,,281118,,*12
$GPGGA,185049.0,3443.4905,N,08633.1267,W,1,,,222.1,M,,M,,*78
$GPRMC,185049.0,A,3443.4905,N,08633.1267,W,,,281118,,*17
$GPGGA,185119.0,3443.4906,N,08633.1267,W,1,,,221.4,M,,M,,*79
$GPRMC,185119.0,A,3443.4906,N,08633.1267,W,,,281118,,*10
$GPGGA,185149.0,3443.4906,N,08633.1267,W,1,,,221.3,M,,M,,*7B
$GPRMC,185149.0,A,3443.4906,N,08633.1267,W,,,281118,,*15
$GPGGA,185219.0,3443.4906,N,08633.1267,W,1,,,221.3,M,,M,,*7D
$GPRMC,185219.0,A,3443.4906,N,08633.1267,W,,,281118,,*13
$GPGGA,185249.0,3443.4905,N,08633.1267,W,1,,,221.2,M,,M,,*7A
$GPRMC,185249.0,A,3443.4905,N,08633.1267,W,,,281118,,*15
$GPGGA,185319.0,3443.4899,N,08633.1263,W,1,,,221.9,M,,M,,*75
$GPRMC,185319.0,A,3443.4899,N,08633.1263,W,,,281118,,*11
$GPGGA,185349.0,3443.4899,N,08633.1263,W,1,,,221.5,M,,M,,*7C
$GPRMC,185349.0,A,3443.4899,N,08633.1263,W,,,281118,,*14
$GPGGA,185419.0,3443.4899,N,08633.1263,W,1,,,221.5,M,,M,,*7E
$GPRMC,185419.0,A,3443.4899,N,08633.1263,W,,,281118,,*16
$GPGGA,185449.0,3443.4901,N,08633.1265,W,1,,,222.0,M,,M,,*7B
$GPRMC,185449.0,A,3443.4901,N,08633.1265,W,,,281118,,*15
$GPGGA,185519.0,3443.4901,N,08633.1264,W,1,,,221.4,M,,M,,*79
$GPRMC,185519.0,A,3443.4901,N,08633.1264,W,,,281118,,*10
$GPGGA,185549.0,3443.4901,N,08633.1264,W,1,,,221.4,M,,M,,*7C
$GPRMC,185549.0,A,3443.4901,N,08633.1264,W,,,281118,,*15
$GPGGA,185619.0,3443.4901,N,08633.1265,W,1,,,221.3,M,,M,,*7C
$GPRMC,185619.0,A,3443.4901,N,08633.1265,W,,,281118,,*12
$GPGGA,185649.0,3443.4901,N,08633.1265,W,1,,,221.0,M,,M,,*7A
$GPRMC,185649.0,A,3443.4901,N,08633.1265,W,,,281118,,*17
$GPGGA,185719.0,3443.4902,N,08633.1265,W,1,,,220.2,M,,M,,*7E
$GPRMC,185719.0,A,3443.4902,N,08633.1265,W,,,281118,,*10
$GPGGA,185749.0,3443.4902,N,08633.1265,W,1,,,220.4,M,,M,,*7D
$GPRMC,185749.0,A,3443.4902,N,08633.1265,W,,,281118,,*15
$GPGGA,185819.0,3443.4902,N,08633.1265,W,1,,,220.4,M,,M,,*77
$GPRMC,185819.0,A,3443.4902,N,08633.1265,W,,,281118,,*1F
$GPGGA,185849.0,3443.4902,N,08633.1265,W,1,,,220.4,M,,M,,*72
$GPRMC,185849.0,A,3443.4902,N,08633.1265,W,,,281118,,*1A
$GPGGA,185919.0,3443.4852,N,08633.1256,W,1,,,229.6,M,,M,,*79
$GPRMC,185919.0,A,3443.4852,N,08633.1256,W,,,281118,,*1A
$GPGGA,185949.0,3443.4853,N,08633.1253,W,1,,,224.0,M,,M,,*73
$GPRMC,185949.0,A,3443.4853,N,08633.1253,W,,,281118,,*1B
$GPGGA,190019.0,3443.4854,N,08633.1252,W,1,,,221.2,M,,M,,*7A
$GPRMC,190019.0,A,3443.4854,N,08633.1252,W,,,281118,,*15
$GPGGA,190049.0,3443.4852,N,08633.1259,W,1,,,222.6,M,,M,,*75
$GPRMC,190049.0,A,3443.4852,N,08633.1259,W,,,281118,,*1D
$GPGGA,190119.0,3443.4852,N,08633.1259,W,1,,,223.2,M,,M,,*74
$GPRMC,190119.0,A,3443.4852,N,08633.1259,W,,,281118,,*19
$GPGGA,190149.0,3443.4852,N,08633.1259,W,1,,,222.9,M,,M,,*7B
$GPRMC,190149.0,A,3443.4852,N,08633.1259,W,,,281118,,*1C
$GPGGA,190219.0,3443.4852,N,08633.1259,W,1,,,221.5,M,,M,,*72
$GPRMC,190219.0,A,3443.4852,N,08633.1259,W,,,281118,,*1A
$GPGGA,190249.0,3443.4853,N,08633.1259,W,1,,,218.1,M,,M,,*78
$GPRMC,190249.0,A,3443.4853,N,08633.1259,W,,,281118,,*1E
$GPGGA,190319.0,3443.4856,N,08633.1259,W,1,,,217.2,M,,M,,*75
$GPRMC,190319.0,A,3443.4856,N,08633.1259,W,,,281118,,*1F
$GPGGA,190349.0,3443.4857,N,08633.1260,W,1,,,217.7,M,,M,,*7E
$GPRMC,190349.0,A,3443.4857,N,08633.1260,W,,,281118,,*11
$GPGGA,190419.0,3443.4891,N,08633.1252,W,1,,,220.2,M,,M,,*76
$GPRMC,190419.0,A,3443.4891,N,08633.1252,W,,,281118,,*18
$GPGGA,190449.0,3443.4890,N,08633.1251,W,1,,,221.5,M,,M,,*77
$GPRMC,190449.0,A,3443.4890,N,08633.1251,W,,,281118,,*1F
$GPGGA,190519.0,3443.4890,N,08633.1251,W,1,,,221.6,M,,M,,*70
$GPRMC,190519.0,A,3443.4890,N,08633.1251,W,,,281118,,*1B
$GPGGA,190549.0,3443.4890,N,08633.1251,W,1,,,222.1,M,,M,,*71
$GPRMC,190549.0,A,3443.4890,N,08633.1251,W,,,281118,,*1E
$GPGGA,190619.0,3443.4890,N,08633.1251,W,1,,,222.5,M,,M,,*73
$GPRMC,190619.0,A,3443.4890,N,08633.1251,W,,,281118,,*18
$GPGGA,190649.0,3443.4896,N,08633.1248,W,1,,,220.4,M,,M,,*7B
$GPRMC,190649.0,A,3443.4896,N,08633.1248,W,,,281118,,*13
$GPGGA,190719.0,3443.4896,N,08633.1248,W,1,,,220.2,M,,M,,*79
$GPRMC,190719.0,A,3443.4896,N,08633.1248,W,,,281118,,*17
$GPGGA,190749.0,3443.4905,N,08633.1245,W,1,,,217.8,M,,M,,*74
$GPRMC,190749.0,A,3443.4905,N,08633.1245,W,,,281118,,*14
$GPGGA,190819.0,3443.4905,N,08633.1245,W,1,,,218.3,M,,M,,*7A
$GPRMC,190819.0,A,3443.4905,N,08633.1245,W,,,281118,,*1E
$GPGGA,190849.0,3443.4905,N,08633.1245,W,1,,,218.4,M,,M,,*78
$GPRMC,190849.0,A,3443.4905,N,08633.1245,W,,,281118,,*1B
$GPGGA,190919.0,3443.4904,N,08633.1245,W,1,,,219.4,M,,M,,*7C
$GPRMC,190919.0,A,3443.4904,N,08633.1245,W,,,281118,,*1E
$GPGGA,190949.0,3443.4904,N,08633.1245,W,1,,,222.7,M,,M,,*72
$GPRMC,190949.0,A,3443.4904,N,08633.1245,W,,,281118,,*1B
$GPGGA,191019.0,3443.4904,N,08633.1247,W,1,,,226.5,M,,M,,*7B
$GPRMC,191019.0,A,3443.4904,N,08633.1247,W,,,281118,,*14
$GPGGA,191049.0,3443.4904,N,08633.1248,W,1,,,227.8,M,,M,,*7D
$GPRMC,191049.0,A,3443.4904,N,08633.1248,W,,,281118,,*1E
$GPGGA,191119.0,3443.4904,N,08633.1248,W,1,,,227.9,M,,M,,*78
$GPRMC,191119.0,A,3443.4904,N,08633.1248,W,,,281118,,*1A
$GPGGA,191149.0,3443.4904,N,08633.1248,W,1,,,228.0,M,,M,,*7B
$GPRMC,191149.0,A,3443.4904,N,08633.1248,W,,,281118,,*1F
$GPGGA,191219.0,3443.4904,N,08633.1248,W,1,,,228.2,M,,M,,*7F
$GPRMC,191219.0,A,3443.4904,N,08633.1248,W,,,281118,,*19
$GPGGA,191249.0,3443.4904,N,08633.1248,W,1,,,228.2,M,,M,,*7A
$GPRMC,191249.0,A,3443.4904,N,08633.1248,W,,,281118,,*1C
$GPGGA,191319.0,3443.4904,N,08633.1248,W,1,,,228.1,M,,M,,*7D
$GPRMC,191319.0,A,3443.4904,N,08633.1248,W,,,281118,,*18
$GPGGA,191349.0,3443.4904,N,08633.1248,W,1,,,227.7,M,,M,,*71
$GPRMC,191349.0,A,3443.4904,N,08633.1248,W,,,281118,,*1D
