@Olympus/+0900/+0900
$GPGGA,150024.0,3443.4961,N,08633.1248,W,1,,,231.6,M,,M,,*71
$GPRMC,150024.0,A,3443.4961,N,08633.1248,W,,,251118,,*16
$GPGGA,150054.0,3443.4961,N,08633.1248,W,1,,,231.8,M,,M,,*78
$GPRMC,150054.0,A,3443.4961,N,08633.1248,W,,,251118,,*11
$GPGGA,150124.0,3443.4961,N,08633.1247,W,1,,,231.9,M,,M,,*70
$GPRMC,150124.0,A,3443.4961,N,08633.1247,W,,,251118,,*18
$GPGGA,150154.0,3443.4961,N,08633.1247,W,1,,,232.0,M,,M,,*7D
$GPRMC,150154.0,A,3443.4961,N,08633.1247,W,,,251118,,*1F
$GPGGA,150224.0,3443.4961,N,08633.1247,W,1,,,232.0,M,,M,,*79
$GPRMC,150224.0,A,3443.4961,N,08633.1247,W,,,251118,,*1B
$GPGGA,150254.0,3443.4961,N,08633.1249,W,1,,,226.3,M,,M,,*76
$GPRMC,150254.0,A,3443.4961,N,08633.1249,W,,,251118,,*12
$GPGGA,150324.0,3443.4961,N,08633.1250,W,1,,,226.5,M,,M,,*7E
$GPRMC,150324.0,A,3443.4961,N,08633.1250,W,,,251118,,*1C
$GPGGA,150354.0,3443.4961,N,08633.1251,W,1,,,227.1,M,,M,,*7D
$GPRMC,150354.0,A,3443.4961,N,08633.1251,W,,,251118,,*1A
$GPGGA,150424.0,3443.4962,N,08633.1252,W,1,,,227.7,M,,M,,*7B
$GPRMC,150424.0,A,3443.4962,N,08633.1252,W,,,251118,,*1A
$GPGGA,150454.0,3443.4956,N,08633.1252,W,1,,,225.6,M,,M,,*78
$GPRMC,150454.0,A,3443.4956,N,08633.1252,W,,,251118,,*1A
$GPGGA,150524.0,3443.4957,N,08633.1253,W,1,,,225.7,M,,M,,*7F
$GPRMC,150524.0,A,3443.4957,N,08633.1253,W,,,251118,,*1C
$GPGGA,150554.0,3443.4957,N,08633.1254,W,1,,,225.8,M,,M,,*70
$GPRMC,150554.0,A,3443.4957,N,08633.1254,W,,,251118,,*1C
$GPGGA,150624.0,3443.4957,N,08633.1254,W,1,,,225.9,M,,M,,*75
$GPRMC,150624.0,A,3443.4957,N,08633.1254,W,,,251118,,*18
$GPGGA,150654.0,3443.4939,N,08633.1241,W,1,,,225.7,M,,M,,*70
$GPRMC,150654.0,A,3443.4939,N,08633.1241,W,,,251118,,*13
$GPGGA,150724.0,3443.4939,N,08633.1241,W,1,,,225.8,M,,M,,*79
$GPRMC,150724.0,A,3443.4939,N,08633.1241,W,,,251118,,*15
$GPGGA,150754.0,3443.4940,N,08633.1242,W,1,,,225.9,M,,M,,*72
$GPRMC,150754.0,A,3443.4940,N,08633.1242,W,,,251118,,*1F
$GPGGA,150824.0,3443.4940,N,08633.1242,W,1,,,226.1,M,,M,,*71
$GPRMC,150824.0,A,3443.4940,N,08633.1242,W,,,251118,,*17
$GPGGA,150854.0,3443.4940,N,08633.1242,W,1,,,226.1,M,,M,,*76
$GPRMC,150854.0,A,3443.4940,N,08633.1242,W,,,251118,,*10
$GPGGA,150924.0,3443.4940,N,08633.1242,W,1,,,226.1,M,,M,,*70
$GPRMC,150924.0,A,3443.4940,N,08633.1242,W,,,251118,,*16
$GPGGA,150954.0,3443.4939,N,08633.1241,W,1,,,225.8,M,,M,,*70
$GPRMC,150954.0,A,3443.4939,N,08633.1241,W,,,251118,,*1C
$GPGGA,151024.0,3443.4938,N,08633.1238,W,1,,,225.4,M,,M,,*7C
$GPRMC,151024.0,A,3443.4938,N,08633.1238,W,,,251118,,*1C
$GPGGA,151054.0,3443.4937,N,08633.1237,W,1,,,225.6,M,,M,,*79
$GPRMC,151054.0,A,3443.4937,N,08633.1237,W,,,251118,,*1B
$GPGGA,151124.0,3443.4936,N,08633.1238,W,1,,,225.6,M,,M,,*71
$GPRMC,151124.0,A,3443.4936,N,08633.1238,W,,,251118,,*13
$GPGGA,151154.0,3443.4936,N,08633.1238,W,1,,,225.6,M,,M,,*76
$GPRMC,151154.0,A,3443.4936,N,08633.1238,W,,,251118,,*14
$GPGGA,151224.0,3443.4936,N,08633.1238,W,1,,,225.7,M,,M,,*73
$GPRMC,151224.0,A,3443.4936,N,08633.1238,W,,,251118,,*10
$GPGGA,151254.0,3443.4936,N,08633.1238,W,1,,,225.7,M,,M,,*74
$GPRMC,151254.0,A,3443.4936,N,08633.1238,W,,,251118,,*17
$GPGGA,151324.0,3443.4936,N,08633.1238,W,1,,,225.7,M,,M,,*72
$GPRMC,151324.0,A,3443.4936,N,08633.1238,W,,,251118,,*11
$GPGGA,151354.0,3443.4936,N,08633.1238,W,1,,,225.6,M,,M,,*74
$GPRMC,151354.0,A,3443.4936,N,08633.1238,W,,,251118,,*16
$GPGGA,151424.0,3443.4936,N,08633.1238,W,1,,,225.5,M,,M,,*77
$GPRMC,151424.0,A,3443.4936,N,08633.1238,W,,,251118,,*16
$GPGGA,151454.0,3443.4936,N,08633.1238,W,1,,,225.5,M,,M,,*70
$GPRMC,151454.0,A,3443.4936,N,08633.1238,W,,,251118,,*11
$GPGGA,151524.0,3443.4936,N,08633.1238,W,1,,,225.5,M,,M,,*76
$GPRMC,151524.0,A,3443.4936,N,08633.1238,W,,,251118,,*17
$GPGGA,151554.0,3443.4936,N,08633.1238,W,1,,,225.5,M,,M,,*71
$GPRMC,151554.0,A,3443.4936,N,08633.1238,W,,,251118,,*10
$GPGGA,151624.0,3443.4936,N,08633.1238,W,1,,,225.4,M,,M,,*74
$GPRMC,151624.0,A,3443.4936,N,08633.1238,W,,,251118,,*14
$GPGGA,151654.0,3443.4936,N,08633.1238,W,1,,,225.4,M,,M,,*73
$GPRMC,151654.0,A,3443.4936,N,08633.1238,W,,,251118,,*13
$GPGGA,151724.0,3443.4936,N,08633.1238,W,1,,,225.4,M,,M,,*75
$GPRMC,151724.0,A,3443.4936,N,08633.1238,W,,,251118,,*15
$GPGGA,151754.0,3443.4936,N,08633.1238,W,1,,,225.4,M,,M,,*72
$GPRMC,151754.0,A,3443.4936,N,08633.1238,W,,,251118,,*12
$GPGGA,151824.0,3443.4936,N,08633.1238,W,1,,,225.3,M,,M,,*7D
$GPRMC,151824.0,A,3443.4936,N,08633.1238,W,,,251118,,*1A
$GPGGA,151854.0,3443.4936,N,08633.1238,W,1,,,225.3,M,,M,,*7A
$GPRMC,151854.0,A,3443.4936,N,08633.1238,W,,,251118,,*1D
$GPGGA,151924.0,3443.4936,N,08633.1238,W,1,,,225.3,M,,M,,*7C
$GPRMC,151924.0,A,3443.4936,N,08633.1238,W,,,251118,,*1B
$GPGGA,151954.0,3443.4936,N,08633.1238,W,1,,,225.4,M,,M,,*7C
$GPRMC,151954.0,A,3443.4936,N,08633.1238,W,,,251118,,*1C
$GPGGA,152024.0,3443.4936,N,08633.1238,W,1,,,225.4,M,,M,,*71
$GPRMC,152024.0,A,3443.4936,N,08633.1238,W,,,251118,,*11
$GPGGA,152054.0,3443.4936,N,08633.1238,W,1,,,225.4,M,,M,,*76
$GPRMC,152054.0,A,3443.4936,N,08633.1238,W,,,251118,,*16
$GPGGA,152124.0,3443.4936,N,08633.1238,W,1,,,225.4,M,,M,,*70
$GPRMC,152124.0,A,3443.4936,N,08633.1238,W,,,251118,,*10
$GPGGA,152154.0,3443.4954,N,08633.1234,W,1,,,224.1,M,,M,,*7B
$GPRMC,152154.0,A,3443.4954,N,08633.1234,W,,,251118,,*1F
$GPGGA,152224.0,3443.4954,N,08633.1234,W,1,,,224.2,M,,M,,*7C
$GPRMC,152224.0,A,3443.4954,N,08633.1234,W,,,251118,,*1B
$GPGGA,152254.0,3443.4954,N,08633.1234,W,1,,,224.4,M,,M,,*7D
$GPRMC,152254.0,A,3443.4954,N,08633.1234,W,,,251118,,*1C
$GPGGA,152324.0,3443.4954,N,08633.1234,W,1,,,224.5,M,,M,,*7A
$GPRMC,152324.0,A,3443.4954,N,08633.1234,W,,,251118,,*1A
$GPGGA,152354.0,3443.4954,N,08633.1234,W,1,,,224.4,M,,M,,*7C
$GPRMC,152354.0,A,3443.4954,N,08633.1234,W,,,251118,,*1D
$GPGGA,152424.0,3443.4954,N,08633.1234,W,1,,,224.4,M,,M,,*7C
$GPRMC,152424.0,A,3443.4954,N,08633.1234,W,,,251118,,*1D
$GPGGA,152454.0,3443.4954,N,08633.1234,W,1,,,224.3,M,,M,,*7C
$GPRMC,152454.0,A,3443.4954,N,08633.1234,W,,,251118,,*1A
$GPGGA,152524.0,3443.4954,N,08633.1234,W,1,,,224.5,M,,M,,*7C
$GPRMC,152524.0,A,3443.4954,N,08633.1234,W,,,251118,,*1C
$GPGGA,152554.0,3443.4953,N,08633.1234,W,1,,,224.6,M,,M,,*7F
$GPRMC,152554.0,A,3443.4953,N,08633.1234,W,,,251118,,*1C
$GPGGA,152624.0,3443.4953,N,08633.1234,W,1,,,224.4,M,,M,,*79
$GPRMC,152624.0,A,3443.4953,N,08633.1234,W,,,251118,,*18
$GPGGA,152654.0,3443.4952,N,08633.1244,W,1,,,227.8,M,,M,,*77
$GPRMC,152654.0,A,3443.4952,N,08633.1244,W,,,251118,,*19
$GPGGA,152724.0,3443.4950,N,08633.1244,W,1,,,227.7,M,,M,,*7C
$GPRMC,152724.0,A,3443.4950,N,08633.1244,W,,,251118,,*1D
$GPGGA,152754.0,3443.4949,N,08633.1244,W,1,,,227.7,M,,M,,*73
$GPRMC,152754.0,A,3443.4949,N,08633.1244,W,,,251118,,*12
$GPGGA,152824.0,3443.4949,N,08633.1244,W,1,,,227.7,M,,M,,*7B
$GPRMC,152824.0,A,3443.4949,N,08633.1244,W,,,251118,,*1A
$GPGGA,152854.0,3443.4949,N,08633.1244,W,1,,,227.7,M,,M,,*7C
$GPRMC,152854.0,A,3443.4949,N,08633.1244,W,,,251118,,*1D
$GPGGA,152924.0,3443.4949,N,08633.1244,W,1,,,227.8,M,,M,,*75
$GPRMC,152924.0,A,3443.4949,N,08633.1244,W,,,251118,,*1B
$GPGGA,152954.0,3443.4967,N,08633.1247,W,1,,,231.0,M,,M,,*72
$GPRMC,152954.0,A,3443.4967,N,08633.1247,W,,,251118,,*13
$GPGGA,153024.0,3443.4967,N,08633.1247,W,1,,,231.0,M,,M,,*7D
$GPRMC,153024.0,A,3443.4967,N,08633.1247,W,,,251118,,*1C
$GPGGA,153054.0,3443.4965,N,08633.1248,W,1,,,231.0,M,,M,,*77
$GPRMC,153054.0,A,3443.4965,N,08633.1248,W,,,251118,,*16
$GPGGA,153124.0,3443.4958,N,08633.1250,W,1,,,231.3,M,,M,,*75
$GPRMC,153124.0,A,3443.4958,N,08633.1250,W,,,251118,,*17
$GPGGA,153154.0,3443.4958,N,08633.1250,W,1,,,232.0,M,,M,,*72
$GPRMC,153154.0,A,3443.4958,N,08633.1250,W,,,251118,,*10
$GPGGA,153224.0,3443.4956,N,08633.1251,W,1,,,233.7,M,,M,,*7F
$GPRMC,153224.0,A,3443.4956,N,08633.1251,W,,,251118,,*1B
$GPGGA,153254.0,3443.4954,N,08633.1251,W,1,,,234.0,M,,M,,*7A
$GPRMC,153254.0,A,3443.4954,N,08633.1251,W,,,251118,,*1E
$GPGGA,153324.0,3443.4952,N,08633.1252,W,1,,,235.2,M,,M,,*7A
$GPRMC,153324.0,A,3443.4952,N,08633.1252,W,,,251118,,*1D
$GPGGA,153354.0,3443.4950,N,08633.1251,W,1,,,235.0,M,,M,,*7E
$GPRMC,153354.0,A,3443.4950,N,08633.1251,W,,,251118,,*1B
$GPGGA,153424.0,3443.4950,N,08633.1251,W,1,,,233.3,M,,M,,*7B
$GPRMC,153424.0,A,3443.4950,N,08633.1251,W,,,251118,,*1B
$GPGGA,153454.0,3443.4950,N,08633.1250,W,1,,,229.1,M,,M,,*74
$GPRMC,153454.0,A,3443.4950,N,08633.1250,W,,,251118,,*1D
$GPGGA,153524.0,3443.4949,N,08633.1250,W,1,,,227.0,M,,M,,*75
$GPRMC,153524.0,A,3443.4949,N,08633.1250,W,,,251118,,*13
$GPGGA,153554.0,3443.4949,N,08633.1250,W,1,,,225.5,M,,M,,*75
$GPRMC,153554.0,A,3443.4949,N,08633.1250,W,,,251118,,*14
$GPGGA,153624.0,3443.4948,N,08633.1240,W,1,,,228.0,M,,M,,*79
$GPRMC,153624.0,A,3443.4948,N,08633.1240,W,,,251118,,*10
$GPGGA,153654.0,3443.4947,N,08633.1240,W,1,,,227.2,M,,M,,*7C
$GPRMC,153654.0,A,3443.4947,N,08633.1240,W,,,251118,,*18
$GPGGA,153724.0,3443.4946,N,08633.1240,W,1,,,227.0,M,,M,,*79
$GPRMC,153724.0,A,3443.4946,N,08633.1240,W,,,251118,,*1F
$GPGGA,153754.0,3443.4946,N,08633.1240,W,1,,,226.8,M,,M,,*77
$GPRMC,153754.0,A,3443.4946,N,08633.1240,W,,,251118,,*18
$GPGGA,153824.0,3443.4946,N,08633.1240,W,1,,,226.8,M,,M,,*7F
$GPRMC,153824.0,A,3443.4946,N,08633.1240,W,,,251118,,*10
$GPGGA,153854.0,3443.4946,N,08633.1240,W,1,,,226.6,M,,M,,*76
$GPRMC,153854.0,A,3443.4946,N,08633.1240,W,,,251118,,*17
$GPGGA,153924.0,3443.4944,N,08633.1238,W,1,,,226.5,M,,M,,*7E
$GPRMC,153924.0,A,3443.4944,N,08633.1238,W,,,251118,,*1C
$GPGGA,153954.0,3443.4944,N,08633.1236,W,1,,,226.2,M,,M,,*70
$GPRMC,153954.0,A,3443.4944,N,08633.1236,W,,,251118,,*15
$GPGGA,154024.0,3443.4944,N,08633.1235,W,1,,,226.0,M,,M,,*78
$GPRMC,154024.0,A,3443.4944,N,08633.1235,W,,,251118,,*1F
$GPGGA,154054.0,3443.4927,N,08633.1223,W,1,,,220.6,M,,M,,*7D
$GPRMC,154054.0,A,3443.4927,N,08633.1223,W,,,251118,,*1A
$GPGGA,154124.0,3443.5046,N,08633.1179,W,1,,,216.9,M,,M,,*72
$GPRMC,154124.0,A,3443.5046,N,08633.1179,W,,,251118,,*1F
$GPGGA,154154.0,3443.5027,N,08633.1177,W,1,,,241.1,M,,M,,*76
$GPRMC,154154.0,A,3443.5027,N,08633.1177,W,,,251118,,*11
$GPGGA,154224.0,3443.5026,N,08633.1177,W,1,,,239.0,M,,M,,*7D
$GPRMC,154224.0,A,3443.5026,N,08633.1177,W,,,251118,,*14
$GPGGA,154254.0,3443.5017,N,08633.1179,W,1,,,223.1,M,,M,,*7C
$GPRMC,154254.0,A,3443.5017,N,08633.1179,W,,,251118,,*1F
$GPGGA,154324.0,3443.5002,N,08633.1186,W,1,,,221.6,M,,M,,*7B
$GPRMC,154324.0,A,3443.5002,N,08633.1186,W,,,251118,,*1D
$GPGGA,154354.0,3443.4986,N,08633.1193,W,1,,,221.9,M,,M,,*73
$GPRMC,154354.0,A,3443.4986,N,08633.1193,W,,,251118,,*1A
$GPGGA,154424.0,3443.4971,N,08633.1196,W,1,,,219.0,M,,M,,*7C
$GPRMC,154424.0,A,3443.4971,N,08633.1196,W,,,251118,,*17
$GPGGA,154454.0,3443.4962,N,08633.1192,W,1,,,218.0,M,,M,,*7C
$GPRMC,154454.0,A,3443.4962,N,08633.1192,W,,,251118,,*16
$GPGGA,154524.0,3443.4959,N,08633.1194,W,1,,,217.4,M,,M,,*7F
$GPRMC,154524.0,A,3443.4959,N,08633.1194,W,,,251118,,*1E
$GPGGA,154554.0,3443.4956,N,08633.1195,W,1,,,217.6,M,,M,,*74
$GPRMC,154554.0,A,3443.4956,N,08633.1195,W,,,251118,,*17
$GPGGA,154624.0,3443.4951,N,08633.1199,W,1,,,217.2,M,,M,,*7F
$GPRMC,154624.0,A,3443.4951,N,08633.1199,W,,,251118,,*18
$GPGGA,154654.0,3443.4945,N,08633.1204,W,1,,,214.3,M,,M,,*78
$GPRMC,154654.0,A,3443.4945,N,08633.1204,W,,,251118,,*1D
$GPGGA,154724.0,3443.4944,N,08633.1209,W,1,,,213.2,M,,M,,*74
$GPRMC,154724.0,A,3443.4944,N,08633.1209,W,,,251118,,*17
$GPGGA,154754.0,3443.4942,N,08633.1211,W,1,,,212.1,M,,M,,*7E
$GPRMC,154754.0,A,3443.4942,N,08633.1211,W,,,251118,,*1F
$GPGGA,154824.0,3443.4942,N,08633.1213,W,1,,,211.0,M,,M,,*76
$GPRMC,154824.0,A,3443.4942,N,08633.1213,W,,,251118,,*15
$GPGGA,154854.0,3443.4941,N,08633.1215,W,1,,,210.7,M,,M,,*72
$GPRMC,154854.0,A,3443.4941,N,08633.1215,W,,,251118,,*17
$GPGGA,154924.0,3443.4940,N,08633.1215,W,1,,,210.1,M,,M,,*73
$GPRMC,154924.0,A,3443.4940,N,08633.1215,W,,,251118,,*10
$GPGGA,154954.0,3443.4940,N,08633.1218,W,1,,,210.6,M,,M,,*7E
$GPRMC,154954.0,A,3443.4940,N,08633.1218,W,,,251118,,*1A
$GPGGA,155024.0,3443.4938,N,08633.1221,W,1,,,211.0,M,,M,,*73
$GPRMC,155024.0,A,3443.4938,N,08633.1221,W,,,251118,,*10
$GPGGA,155054.0,3443.4938,N,08633.1224,W,1,,,211.7,M,,M,,*76
$GPRMC,155054.0,A,3443.4938,N,08633.1224,W,,,251118,,*12
$GPGGA,155124.0,3443.4937,N,08633.1224,W,1,,,211.8,M,,M,,*70
$GPRMC,155124.0,A,3443.4937,N,08633.1224,W,,,251118,,*1B
$GPGGA,155154.0,3443.4935,N,08633.1221,W,1,,,206.6,M,,M,,*78
$GPRMC,155154.0,A,3443.4935,N,08633.1221,W,,,251118,,*1B
$GPGGA,155224.0,3443.4933,N,08633.1222,W,1,,,207.0,M,,M,,*7E
$GPRMC,155224.0,A,3443.4933,N,08633.1222,W,,,251118,,*1A
$GPGGA,155254.0,3443.4930,N,08633.1222,W,1,,,207.3,M,,M,,*79
$GPRMC,155254.0,A,3443.4930,N,08633.1222,W,,,251118,,*1E
$GPGGA,155324.0,3443.4930,N,08633.1218,W,1,,,206.0,M,,M,,*74
$GPRMC,155324.0,A,3443.4930,N,08633.1218,W,,,251118,,*11
$GPGGA,155354.0,3443.4929,N,08633.1218,W,1,,,206.4,M,,M,,*7F
$GPRMC,155354.0,A,3443.4929,N,08633.1218,W,,,251118,,*1E
$GPGGA,155424.0,3443.4926,N,08633.1218,W,1,,,208.6,M,,M,,*7C
$GPRMC,155424.0,A,3443.4926,N,08633.1218,W,,,251118,,*11
$GPGGA,155454.0,3443.4924,N,08633.1218,W,1,,,209.0,M,,M,,*7E
$GPRMC,155454.0,A,3443.4924,N,08633.1218,W,,,251118,,*14
$GPGGA,155524.0,3443.4927,N,08633.1221,W,1,,,210.4,M,,M,,*7D
$GPRMC,155524.0,A,3443.4927,N,08633.1221,W,,,251118,,*1B
$GPGGA,155554.0,3443.4927,N,08633.1222,W,1,,,210.2,M,,M,,*7F
$GPRMC,155554.0,A,3443.4927,N,08633.1222,W,,,251118,,*1F
$GPGGA,155624.0,3443.4927,N,08633.1222,W,1,,,210.3,M,,M,,*7A
$GPRMC,155624.0,A,3443.4927,N,08633.1222,W,,,251118,,*1B
$GPGGA,155654.0,3443.4927,N,08633.1223,W,1,,,210.5,M,,M,,*7A
$GPRMC,155654.0,A,3443.4927,N,08633.1223,W,,,251118,,*1D
$GPGGA,155724.0,3443.4927,N,08633.1223,W,1,,,210.6,M,,M,,*7F
$GPRMC,155724.0,A,3443.4927,N,08633.1223,W,,,251118,,*1B
$GPGGA,155754.0,3443.4943,N,08633.1230,W,1,,,214.6,M,,M,,*7C
$GPRMC,155754.0,A,3443.4943,N,08633.1230,W,,,251118,,*1C
$GPGGA,155824.0,3443.4950,N,08633.1233,W,1,,,216.0,M,,M,,*71
$GPRMC,155824.0,A,3443.4950,N,08633.1233,W,,,251118,,*15
$GPGGA,155854.0,3443.4948,N,08633.1233,W,1,,,215.9,M,,M,,*75
$GPRMC,155854.0,A,3443.4948,N,08633.1233,W,,,251118,,*1B
$GPGGA,155924.0,3443.4946,N,08633.1233,W,1,,,216.0,M,,M,,*77
$GPRMC,155924.0,A,3443.4946,N,08633.1233,W,,,251118,,*13
$GPGGA,155954.0,3443.4946,N,08633.1232,W,1,,,216.0,M,,M,,*71
$GPRMC,155954.0,A,3443.4946,N,08633.1232,W,,,251118,,*15
$GPGGA,160024.0,3443.4936,N,08633.1253,W,1,,,223.3,M,,M,,*7C
$GPRMC,160024.0,A,3443.4936,N,08633.1253,W,,,251118,,*1D
$GPGGA,160054.0,3443.4933,N,08633.1262,W,1,,,226.4,M,,M,,*7E
$GPRMC,160054.0,A,3443.4933,N,08633.1262,W,,,251118,,*1D
$GPGGA,160124.0,3443.4929,N,08633.1271,W,1,,,230.4,M,,M,,*76
$GPRMC,160124.0,A,3443.4929,N,08633.1271,W,,,251118,,*12
$GPGGA,160154.0,3443.4929,N,08633.1269,W,1,,,229.9,M,,M,,*7D
$GPRMC,160154.0,A,3443.4929,N,08633.1269,W,,,251118,,*1C
$GPGGA,160224.0,3443.4929,N,08633.1269,W,1,,,227.7,M,,M,,*79
$GPRMC,160224.0,A,3443.4929,N,08633.1269,W,,,251118,,*18
$GPGGA,160254.0,3443.4929,N,08633.1268,W,1,,,225.9,M,,M,,*73
$GPRMC,160254.0,A,3443.4929,N,08633.1268,W,,,251118,,*1E
$GPGGA,160324.0,3443.4916,N,08633.1264,W,1,,,222.0,M,,M,,*7B
$GPRMC,160324.0,A,3443.4916,N,08633.1264,W,,,251118,,*18
$GPGGA,160354.0,3443.4916,N,08633.1264,W,1,,,221.0,M,,M,,*7F
$GPRMC,160354.0,A,3443.4916,N,08633.1264,W,,,251118,,*1F
$GPGGA,160424.0,3443.4916,N,08633.1263,W,1,,,220.0,M,,M,,*79
$GPRMC,160424.0,A,3443.4916,N,08633.1263,W,,,251118,,*18
$GPGGA,160454.0,3443.4910,N,08633.1261,W,1,,,218.0,M,,M,,*71
$GPRMC,160454.0,A,3443.4910,N,08633.1261,W,,,251118,,*1B
$GPGGA,160524.0,3443.4910,N,08633.1260,W,1,,,217.3,M,,M,,*7A
$GPRMC,160524.0,A,3443.4910,N,08633.1260,W,,,251118,,*1C
$GPGGA,160554.0,3443.4903,N,08633.1263,W,1,,,218.4,M,,M,,*74
$GPRMC,160554.0,A,3443.4903,N,08633.1263,W,,,251118,,*1A
$GPGGA,160624.0,3443.4903,N,08633.1263,W,1,,,218.2,M,,M,,*76
$GPRMC,160624.0,A,3443.4903,N,08633.1263,W,,,251118,,*1E
$GPGGA,160654.0,3443.4903,N,08633.1263,W,1,,,217.7,M,,M,,*7B
$GPRMC,160654.0,A,3443.4903,N,08633.1263,W,,,251118,,*19
$GPGGA,160724.0,3443.4903,N,08633.1262,W,1,,,217.6,M,,M,,*7D
$GPRMC,160724.0,A,3443.4903,N,08633.1262,W,,,251118,,*1E
$GPGGA,160754.0,3443.4903,N,08633.1262,W,1,,,217.8,M,,M,,*74
$GPRMC,160754.0,A,3443.4903,N,08633.1262,W,,,251118,,*19
$GPGGA,160824.0,3443.4899,N,08633.1269,W,1,,,220.3,M,,M,,*7A
$GPRMC,160824.0,A,3443.4899,N,08633.1269,W,,,251118,,*18
$GPGGA,160854.0,3443.4873,N,08633.1209,W,1,,,229.3,M,,M,,*76
$GPRMC,160854.0,A,3443.4873,N,08633.1209,W,,,251118,,*1D
$GPGGA,160924.0,3443.4878,N,08633.1209,W,1,,,228.8,M,,M,,*71
$GPRMC,160924.0,A,3443.4878,N,08633.1209,W,,,251118,,*10
$GPGGA,160954.0,3443.4879,N,08633.1209,W,1,,,226.8,M,,M,,*79
$GPRMC,160954.0,A,3443.4879,N,08633.1209,W,,,251118,,*16
$GPGGA,161024.0,3443.4879,N,08633.1208,W,1,,,225.0,M,,M,,*7C
$GPRMC,161024.0,A,3443.4879,N,08633.1208,W,,,251118,,*18
$GPGGA,161054.0,3443.4881,N,08633.1205,W,1,,,225.2,M,,M,,*73
$GPRMC,161054.0,A,3443.4881,N,08633.1205,W,,,251118,,*15
$GPGGA,161124.0,3443.4881,N,08633.1204,W,1,,,224.3,M,,M,,*74
$GPRMC,161124.0,A,3443.4881,N,08633.1204,W,,,251118,,*12
$GPGGA,161154.0,3443.4882,N,08633.1204,W,1,,,223.0,M,,M,,*74
$GPRMC,161154.0,A,3443.4882,N,08633.1204,W,,,251118,,*16
$GPGGA,161224.0,3443.4883,N,08633.1204,W,1,,,221.5,M,,M,,*76
$GPRMC,161224.0,A,3443.4883,N,08633.1204,W,,,251118,,*13
$GPGGA,161254.0,3443.4884,N,08633.1204,W,1,,,220.0,M,,M,,*72
$GPRMC,161254.0,A,3443.4884,N,08633.1204,W,,,251118,,*13
$GPGGA,161324.0,3443.4885,N,08633.1205,W,1,,,220.0,M,,M,,*74
$GPRMC,161324.0,A,3443.4885,N,08633.1205,W,,,251118,,*15
$GPGGA,161354.0,3443.4885,N,08633.1205,W,1,,,220.3,M,,M,,*70
$GPRMC,161354.0,A,3443.4885,N,08633.1205,W,,,251118,,*12
$GPGGA,161424.0,3443.4879,N,08633.1211,W,1,,,221.8,M,,M,,*7C
$GPRMC,161424.0,A,3443.4879,N,08633.1211,W,,,251118,,*14
$GPGGA,161454.0,3443.4880,N,08633.1211,W,1,,,221.1,M,,M,,*74
$GPRMC,161454.0,A,3443.4880,N,08633.1211,W,,,251118,,*15
$GPGGA,161524.0,3443.4880,N,08633.1211,W,1,,,220.9,M,,M,,*7B
$GPRMC,161524.0,A,3443.4880,N,08633.1211,W,,,251118,,*13
$GPGGA,161554.0,3443.4881,N,08633.1211,W,1,,,220.8,M,,M,,*7C
$GPRMC,161554.0,A,3443.4881,N,08633.1211,W,,,251118,,*15
$GPGGA,161624.0,3443.4881,N,08633.1212,W,1,,,220.4,M,,M,,*77
$GPRMC,161624.0,A,3443.4881,N,08633.1212,W,,,251118,,*12
$GPGGA,161654.0,3443.4881,N,08633.1212,W,1,,,220.0,M,,M,,*74
$GPRMC,161654.0,A,3443.4881,N,08633.1212,W,,,251118,,*15
$GPGGA,161724.1,3443.4881,N,08633.1214,W,1,,,219.9,M,,M,,*76
$GPRMC,161724.1,A,3443.4881,N,08633.1214,W,,,251118,,*14
$GPGGA,161754.0,3443.4911,N,08633.1190,W,1,,,220.5,M,,M,,*71
$GPRMC,161754.0,A,3443.4911,N,08633.1190,W,,,251118,,*15
$GPGGA,161824.0,3443.4911,N,08633.1190,W,1,,,221.0,M,,M,,*7D
$GPRMC,161824.0,A,3443.4911,N,08633.1190,W,,,251118,,*1D
$GPGGA,161854.0,3443.4912,N,08633.1191,W,1,,,221.5,M,,M,,*7D
$GPRMC,161854.0,A,3443.4912,N,08633.1191,W,,,251118,,*18
$GPGGA,161924.0,3443.4912,N,08633.1191,W,1,,,220.9,M,,M,,*76
$GPRMC,161924.0,A,3443.4912,N,08633.1191,W,,,251118,,*1E
$GPGGA,161954.0,3443.4912,N,08633.1192,W,1,,,220.0,M,,M,,*7B
$GPRMC,161954.0,A,3443.4912,N,08633.1192,W,,,251118,,*1A
$GPGGA,162024.0,3443.4899,N,08633.1194,W,1,,,219.7,M,,M,,*7F
$GPRMC,162024.0,A,3443.4899,N,08633.1194,W,,,251118,,*13
$GPGGA,162054.0,3443.4891,N,08633.1201,W,1,,,221.9,M,,M,,*7A
$GPRMC,162054.0,A,3443.4891,N,08633.1201,W,,,251118,,*13
$GPGGA,162124.0,3443.4889,N,08633.1207,W,1,,,224.7,M,,M,,*78
$GPRMC,162124.0,A,3443.4889,N,08633.1207,W,,,251118,,*1A
$GPGGA,162154.0,3443.4890,N,08633.1209,W,1,,,224.9,M,,M,,*77
$GPRMC,162154.0,A,3443.4890,N,08633.1209,W,,,251118,,*1B
$GPGGA,162224.0,3443.4897,N,08633.1206,W,1,,,222.1,M,,M,,*75
$GPRMC,162224.0,A,3443.4897,N,08633.1206,W,,,251118,,*17
$GPGGA,162254.0,3443.4907,N,08633.1199,W,1,,,218.8,M,,M,,*7F
$GPRMC,162254.0,A,3443.4907,N,08633.1199,W,,,251118,,*1D
$GPGGA,162324.0,3443.4907,N,08633.1200,W,1,,,219.4,M,,M,,*77
$GPRMC,162324.0,A,3443.4907,N,08633.1200,W,,,251118,,*18
$GPGGA,162354.0,3443.4907,N,08633.1200,W,1,,,220.6,M,,M,,*78
$GPRMC,162354.0,A,3443.4907,N,08633.1200,W,,,251118,,*1F
$GPGGA,162424.0,3443.4914,N,08633.1197,W,1,,,219.4,M,,M,,*7F
$GPRMC,162424.0,A,3443.4914,N,08633.1197,W,,,251118,,*10
$GPGGA,162454.0,3443.4919,N,08633.1196,W,1,,,218.4,M,,M,,*75
$GPRMC,162454.0,A,3443.4919,N,08633.1196,W,,,251118,,*1B
$GPGGA,162524.0,3443.4919,N,08633.1196,W,1,,,218.5,M,,M,,*72
$GPRMC,162524.0,A,3443.4919,N,08633.1196,W,,,251118,,*1D
$GPGGA,162554.0,3443.4919,N,08633.1196,W,1,,,218.6,M,,M,,*76
$GPRMC,162554.0,A,3443.4919,N,08633.1196,W,,,251118,,*1A
$GPGGA,162624.0,3443.4919,N,08633.1196,W,1,,,218.4,M,,M,,*70
$GPRMC,162624.0,A,3443.4919,N,08633.1196,W,,,251118,,*1E
$GPGGA,162654.0,3443.4919,N,08633.1196,W,1,,,217.8,M,,M,,*74
$GPRMC,162654.0,A,3443.4919,N,08633.1196,W,,,251118,,*19
$GPGGA,162724.0,3443.4919,N,08633.1196,W,1,,,218.1,M,,M,,*74
$GPRMC,162724.0,A,3443.4919,N,08633.1196,W,,,251118,,*1F
$GPGGA,162754.0,3443.4919,N,08633.1196,W,1,,,218.8,M,,M,,*7A
$GPRMC,162754.0,A,3443.4919,N,08633.1196,W,,,251118,,*18
$GPGGA,162824.0,3443.4919,N,08633.1196,W,1,,,218.6,M,,M,,*7C
$GPRMC,162824.0,A,3443.4919,N,08633.1196,W,,,251118,,*10
$GPGGA,162854.0,3443.4919,N,08633.1196,W,1,,,218.2,M,,M,,*7F
$GPRMC,162854.0,A,3443.4919,N,08633.1196,W,,,251118,,*17
$GPGGA,162924.0,3443.4919,N,08633.1196,W,1,,,218.7,M,,M,,*7C
$GPRMC,162924.0,A,3443.4919,N,08633.1196,W,,,251118,,*11
$GPGGA,162954.0,3443.4919,N,08633.1196,W,1,,,218.7,M,,M,,*7B
$GPRMC,162954.0,A,3443.4919,N,08633.1196,W,,,251118,,*16
$GPGGA,163024.0,3443.4919,N,08633.1196,W,1,,,218.8,M,,M,,*7B
$GPRMC,163024.0,A,3443.4919,N,08633.1196,W,,,251118,,*19
$GPGGA,163054.1,3443.4919,N,08633.1197,W,1,,,218.9,M,,M,,*7D
$GPRMC,163054.1,A,3443.4919,N,08633.1197,W,,,251118,,*1E
$GPGGA,163124.0,3443.4919,N,08633.1197,W,1,,,219.0,M,,M,,*72
$GPRMC,163124.0,A,3443.4919,N,08633.1197,W,,,251118,,*19
$GPGGA,163154.0,3443.4919,N,08633.1198,W,1,,,215.7,M,,M,,*71
$GPRMC,163154.0,A,3443.4919,N,08633.1198,W,,,251118,,*11
$GPGGA,163224.0,3443.4918,N,08633.1199,W,1,,,210.7,M,,M,,*70
$GPRMC,163224.0,A,3443.4918,N,08633.1199,W,,,251118,,*15
$GPGGA,163254.0,3443.4918,N,08633.1201,W,1,,,208.7,M,,M,,*7C
$GPRMC,163254.0,A,3443.4918,N,08633.1201,W,,,251118,,*10
$GPGGA,163324.0,3443.4917,N,08633.1203,W,1,,,207.8,M,,M,,*77
$GPRMC,163324.0,A,3443.4917,N,08633.1203,W,,,251118,,*1B
$GPGGA,163354.0,3443.4916,N,08633.1203,W,1,,,208.7,M,,M,,*71
$GPRMC,163354.0,A,3443.4916,N,08633.1203,W,,,251118,,*1D
$GPGGA,163424.0,3443.4931,N,08633.1207,W,1,,,209.3,M,,M,,*75
$GPRMC,163424.0,A,3443.4931,N,08633.1207,W,,,251118,,*1C
$GPGGA,163454.0,3443.4931,N,08633.1207,W,1,,,209.8,M,,M,,*79
$GPRMC,163454.0,A,3443.4931,N,08633.1207,W,,,251118,,*1B
$GPGGA,163524.0,3443.4930,N,08633.1208,W,1,,,211.0,M,,M,,*70
$GPRMC,163524.0,A,3443.4930,N,08633.1208,W,,,251118,,*13
$GPGGA,163554.0,3443.4930,N,08633.1209,W,1,,,212.8,M,,M,,*7D
$GPRMC,163554.0,A,3443.4930,N,08633.1209,W,,,251118,,*15
$GPGGA,163624.0,3443.4930,N,08633.1209,W,1,,,212.3,M,,M,,*72
$GPRMC,163624.0,A,3443.4930,N,08633.1209,W,,,251118,,*11
$GPGGA,163654.0,3443.4930,N,08633.1209,W,1,,,212.6,M,,M,,*70
$GPRMC,163654.0,A,3443.4930,N,08633.1209,W,,,251118,,*16
$GPGGA,163724.0,3443.4928,N,08633.1211,W,1,,,216.3,M,,M,,*77
$GPRMC,163724.0,A,3443.4928,N,08633.1211,W,,,251118,,*10
$GPGGA,163754.0,3443.4927,N,08633.1211,W,1,,,219.7,M,,M,,*74
$GPRMC,163754.0,A,3443.4927,N,08633.1211,W,,,251118,,*18
$GPGGA,163824.0,3443.4926,N,08633.1212,W,1,,,223.6,M,,M,,*76
$GPRMC,163824.0,A,3443.4926,N,08633.1212,W,,,251118,,*12
$GPGGA,163854.0,3443.4925,N,08633.1212,W,1,,,224.2,M,,M,,*71
$GPRMC,163854.0,A,3443.4925,N,08633.1212,W,,,251118,,*16
$GPGGA,163924.0,3443.4925,N,08633.1212,W,1,,,223.4,M,,M,,*76
$GPRMC,163924.0,A,3443.4925,N,08633.1212,W,,,251118,,*10
$GPGGA,163954.0,3443.4925,N,08633.1212,W,1,,,222.4,M,,M,,*70
$GPRMC,163954.0,A,3443.4925,N,08633.1212,W,,,251118,,*17
$GPGGA,164024.0,3443.4926,N,08633.1211,W,1,,,221.0,M,,M,,*7E
$GPRMC,164024.0,A,3443.4926,N,08633.1211,W,,,251118,,*1E
$GPGGA,164054.0,3443.4926,N,08633.1209,W,1,,,221.4,M,,M,,*74
$GPRMC,164054.0,A,3443.4926,N,08633.1209,W,,,251118,,*10
$GPGGA,164124.0,3443.4926,N,08633.1209,W,1,,,222.1,M,,M,,*74
$GPRMC,164124.0,A,3443.4926,N,08633.1209,W,,,251118,,*16
$GPGGA,164154.0,3443.4926,N,08633.1208,W,1,,,222.5,M,,M,,*76
$GPRMC,164154.0,A,3443.4926,N,08633.1208,W,,,251118,,*10
$GPGGA,164224.0,3443.4925,N,08633.1208,W,1,,,222.9,M,,M,,*7D
$GPRMC,164224.0,A,3443.4925,N,08633.1208,W,,,251118,,*17
$GPGGA,164254.0,3443.4925,N,08633.1208,W,1,,,222.9,M,,M,,*7A
$GPRMC,164254.0,A,3443.4925,N,08633.1208,W,,,251118,,*10
$GPGGA,164324.0,3443.4925,N,08633.1208,W,1,,,222.7,M,,M,,*72
$GPRMC,164324.0,A,3443.4925,N,08633.1208,W,,,251118,,*16
$GPGGA,164354.0,3443.4925,N,08633.1208,W,1,,,222.7,M,,M,,*75
$GPRMC,164354.0,A,3443.4925,N,08633.1208,W,,,251118,,*11
$GPGGA,164424.0,3443.4924,N,08633.1208,W,1,,,222.7,M,,M,,*74
$GPRMC,164424.0,A,3443.4924,N,08633.1208,W,,,251118,,*10
$GPGGA,164454.0,3443.4924,N,08633.1208,W,1,,,222.9,M,,M,,*7D
$GPRMC,164454.0,A,3443.4924,N,08633.1208,W,,,251118,,*17
$GPGGA,164524.0,3443.4924,N,08633.1208,W,1,,,223.0,M,,M,,*73
$GPRMC,164524.0,A,3443.4924,N,08633.1208,W,,,251118,,*11
$GPGGA,164554.0,3443.4924,N,08633.1208,W,1,,,223.0,M,,M,,*74
$GPRMC,164554.0,A,3443.4924,N,08633.1208,W,,,251118,,*16
$GPGGA,164624.0,3443.4924,N,08633.1208,W,1,,,223.0,M,,M,,*70
$GPRMC,164624.0,A,3443.4924,N,08633.1208,W,,,251118,,*12
$GPGGA,164654.0,3443.4924,N,08633.1208,W,1,,,223.1,M,,M,,*76
$GPRMC,164654.0,A,3443.4924,N,08633.1208,W,,,251118,,*15
$GPGGA,164724.0,3443.4924,N,08633.1208,W,1,,,223.4,M,,M,,*75
$GPRMC,164724.0,A,3443.4924,N,08633.1208,W,,,251118,,*13
$GPGGA,164754.0,3443.4929,N,08633.1203,W,1,,,220.4,M,,M,,*77
$GPRMC,164754.0,A,3443.4929,N,08633.1203,W,,,251118,,*12
$GPGGA,164824.0,3443.4929,N,08633.1204,W,1,,,220.5,M,,M,,*79
$GPRMC,164824.0,A,3443.4929,N,08633.1204,W,,,251118,,*1D
$GPGGA,164854.0,3443.4928,N,08633.1204,W,1,,,220.8,M,,M,,*72
$GPRMC,164854.0,A,3443.4928,N,08633.1204,W,,,251118,,*1B
$GPGGA,164924.0,3443.4928,N,08633.1204,W,1,,,220.9,M,,M,,*75
$GPRMC,164924.0,A,3443.4928,N,08633.1204,W,,,251118,,*1D
$GPGGA,164954.0,3443.4928,N,08633.1205,W,1,,,221.0,M,,M,,*7B
$GPRMC,164954.0,A,3443.4928,N,08633.1205,W,,,251118,,*1B
$GPGGA,165024.0,3443.4927,N,08633.1205,W,1,,,221.2,M,,M,,*79
$GPRMC,165024.0,A,3443.4927,N,08633.1205,W,,,251118,,*1B
$GPGGA,165054.0,3443.4927,N,08633.1206,W,1,,,221.2,M,,M,,*7D
$GPRMC,165054.0,A,3443.4927,N,08633.1206,W,,,251118,,*1F
$GPGGA,165124.0,3443.4927,N,08633.1206,W,1,,,221.2,M,,M,,*7B
$GPRMC,165124.0,A,3443.4927,N,08633.1206,W,,,251118,,*19
$GPGGA,165154.0,3443.4926,N,08633.1206,W,1,,,221.1,M,,M,,*7E
$GPRMC,165154.0,A,3443.4926,N,08633.1206,W,,,251118,,*1F
$GPGGA,165224.0,3443.4932,N,08633.1209,W,1,,,222.1,M,,M,,*73
$GPRMC,165224.0,A,3443.4932,N,08633.1209,W,,,251118,,*11
$GPGGA,165254.0,3443.4932,N,08633.1209,W,1,,,222.1,M,,M,,*74
$GPRMC,165254.0,A,3443.4932,N,08633.1209,W,,,251118,,*16
$GPGGA,165324.0,3443.4932,N,08633.1209,W,1,,,222.2,M,,M,,*71
$GPRMC,165324.0,A,3443.4932,N,08633.1209,W,,,251118,,*10
$GPGGA,165354.0,3443.4932,N,08633.1209,W,1,,,222.3,M,,M,,*77
$GPRMC,165354.0,A,3443.4932,N,08633.1209,W,,,251118,,*17
$GPGGA,165424.0,3443.4932,N,08633.1209,W,1,,,222.3,M,,M,,*77
$GPRMC,165424.0,A,3443.4932,N,08633.1209,W,,,251118,,*17
$GPGGA,165454.0,3443.4932,N,08633.1209,W,1,,,222.3,M,,M,,*70
$GPRMC,165454.0,A,3443.4932,N,08633.1209,W,,,251118,,*10
$GPGGA,165524.0,3443.4931,N,08633.1209,W,1,,,222.4,M,,M,,*72
$GPRMC,165524.0,A,3443.4931,N,08633.1209,W,,,251118,,*15
$GPGGA,165554.0,3443.4931,N,08633.1209,W,1,,,222.5,M,,M,,*74
$GPRMC,165554.0,A,3443.4931,N,08633.1209,W,,,251118,,*12
$GPGGA,165624.0,3443.4931,N,08633.1209,W,1,,,222.5,M,,M,,*70
$GPRMC,165624.0,A,3443.4931,N,08633.1209,W,,,251118,,*16
$GPGGA,165654.0,3443.4931,N,08633.1209,W,1,,,222.6,M,,M,,*74
$GPRMC,165654.0,A,3443.4931,N,08633.1209,W,,,251118,,*11
$GPGGA,165724.0,3443.4931,N,08633.1209,W,1,,,222.7,M,,M,,*73
$GPRMC,165724.0,A,3443.4931,N,08633.1209,W,,,251118,,*17
$GPGGA,165754.0,3443.4931,N,08633.1210,W,1,,,222.8,M,,M,,*73
$GPRMC,165754.0,A,3443.4931,N,08633.1210,W,,,251118,,*18
$GPGGA,165824.0,3443.4931,N,08633.1210,W,1,,,222.9,M,,M,,*7A
$GPRMC,165824.0,A,3443.4931,N,08633.1210,W,,,251118,,*10
$GPGGA,165854.0,3443.4931,N,08633.1210,W,1,,,223.0,M,,M,,*75
$GPRMC,165854.0,A,3443.4931,N,08633.1210,W,,,251118,,*17
$GPGGA,165924.0,3443.4931,N,08633.1210,W,1,,,223.0,M,,M,,*73
$GPRMC,165924.0,A,3443.4931,N,08633.1210,W,,,251118,,*11
$GPGGA,165954.0,3443.4931,N,08633.1210,W,1,,,223.0,M,,M,,*74
$GPRMC,165954.0,A,3443.4931,N,08633.1210,W,,,251118,,*16
$GPGGA,170024.0,3443.4930,N,08633.1210,W,1,,,223.0,M,,M,,*7F
$GPRMC,170024.0,A,3443.4930,N,08633.1210,W,,,251118,,*1D
$GPGGA,170054.0,3443.4930,N,08633.1210,W,1,,,223.0,M,,M,,*78
$GPRMC,170054.0,A,3443.4930,N,08633.1210,W,,,251118,,*1A
$GPGGA,170124.0,3443.4930,N,08633.1211,W,1,,,223.0,M,,M,,*7F
$GPRMC,170124.0,A,3443.4930,N,08633.1211,W,,,251118,,*1D
$GPGGA,170154.0,3443.4930,N,08633.1211,W,1,,,223.3,M,,M,,*7B
$GPRMC,170154.0,A,3443.4930,N,08633.1211,W,,,251118,,*1A
$GPGGA,170224.0,3443.4930,N,08633.1211,W,1,,,223.8,M,,M,,*74
$GPRMC,170224.0,A,3443.4930,N,08633.1211,W,,,251118,,*1E
$GPGGA,170254.0,3443.4928,N,08633.1219,W,1,,,225.1,M,,M,,*7D
$GPRMC,170254.0,A,3443.4928,N,08633.1219,W,,,251118,,*18
$GPGGA,170324.0,3443.4928,N,08633.1219,W,1,,,224.8,M,,M,,*73
$GPRMC,170324.0,A,3443.4928,N,08633.1219,W,,,251118,,*1E
$GPGGA,170354.0,3443.4924,N,08633.1241,W,1,,,224.5,M,,M,,*78
$GPRMC,170354.0,A,3443.4924,N,08633.1241,W,,,251118,,*18
$GPGGA,170424.0,3443.4924,N,08633.1241,W,1,,,224.4,M,,M,,*79
$GPRMC,170424.0,A,3443.4924,N,08633.1241,W,,,251118,,*18
$GPGGA,170454.0,3443.4924,N,08633.1241,W,1,,,225.1,M,,M,,*7A
$GPRMC,170454.0,A,3443.4924,N,08633.1241,W,,,251118,,*1F
$GPGGA,170524.0,3443.4924,N,08633.1241,W,1,,,225.7,M,,M,,*7A
$GPRMC,170524.0,A,3443.4924,N,08633.1241,W,,,251118,,*19
$GPGGA,170554.0,3443.4924,N,08633.1241,W,1,,,226.2,M,,M,,*7B
$GPRMC,170554.0,A,3443.4924,N,08633.1241,W,,,251118,,*1E
$GPGGA,170624.0,3443.4924,N,08633.1242,W,1,,,226.2,M,,M,,*7C
$GPRMC,170624.0,A,3443.4924,N,08633.1242,W,,,251118,,*19
$GPGGA,170654.0,3443.4924,N,08633.1242,W,1,,,226.2,M,,M,,*7B
$GPRMC,170654.0,A,3443.4924,N,08633.1242,W,,,251118,,*1E
$GPGGA,170724.0,3443.4917,N,08633.1255,W,1,,,228.8,M,,M,,*7F
$GPRMC,170724.0,A,3443.4917,N,08633.1255,W,,,251118,,*1E
$GPGGA,170754.0,3443.4917,N,08633.1255,W,1,,,228.8,M,,M,,*78
$GPRMC,170754.0,A,3443.4917,N,08633.1255,W,,,251118,,*19
$GPGGA,170824.0,3443.4917,N,08633.1256,W,1,,,228.8,M,,M,,*73
$GPRMC,170824.0,A,3443.4917,N,08633.1256,W,,,251118,,*12
$GPGGA,170854.0,3443.4912,N,08633.1263,W,1,,,231.8,M,,M,,*7F
$GPRMC,170854.0,A,3443.4912,N,08633.1263,W,,,251118,,*16
$GPGGA,170924.0,3443.4912,N,08633.1263,W,1,,,231.8,M,,M,,*79
$GPRMC,170924.0,A,3443.4912,N,08633.1263,W,,,251118,,*10
$GPGGA,170954.0,3443.4912,N,08633.1263,W,1,,,231.7,M,,M,,*71
$GPRMC,170954.0,A,3443.4912,N,08633.1263,W,,,251118,,*17
$GPGGA,171024.0,3443.4913,N,08633.1263,W,1,,,231.7,M,,M,,*7F
$GPRMC,171024.0,A,3443.4913,N,08633.1263,W,,,251118,,*19
$GPGGA,171054.0,3443.4914,N,08633.1256,W,1,,,227.2,M,,M,,*7B
$GPRMC,171054.0,A,3443.4914,N,08633.1256,W,,,251118,,*1F
$GPGGA,171124.0,3443.4914,N,08633.1256,W,1,,,227.2,M,,M,,*7D
$GPRMC,171124.0,A,3443.4914,N,08633.1256,W,,,251118,,*19
$GPGGA,171154.0,3443.4914,N,08633.1256,W,1,,,227.3,M,,M,,*7B
$GPRMC,171154.0,A,3443.4914,N,08633.1256,W,,,251118,,*1E
$GPGGA,171224.0,3443.4914,N,08633.1256,W,1,,,227.3,M,,M,,*7F
$GPRMC,171224.0,A,3443.4914,N,08633.1256,W,,,251118,,*1A
$GPGGA,171254.0,3443.4914,N,08633.1256,W,1,,,227.3,M,,M,,*78
$GPRMC,171254.0,A,3443.4914,N,08633.1256,W,,,251118,,*1D
$GPGGA,171324.0,3443.4918,N,08633.1257,W,1,,,228.3,M,,M,,*7C
$GPRMC,171324.0,A,3443.4918,N,08633.1257,W,,,251118,,*16
$GPGGA,171354.0,3443.4918,N,08633.1256,W,1,,,227.9,M,,M,,*7F
$GPRMC,171354.0,A,3443.4918,N,08633.1256,W,,,251118,,*10
$GPGGA,171424.0,3443.4918,N,08633.1255,W,1,,,227.8,M,,M,,*7D
$GPRMC,171424.0,A,3443.4918,N,08633.1255,W,,,251118,,*13
$GPGGA,171454.0,3443.4918,N,08633.1254,W,1,,,227.6,M,,M,,*75
$GPRMC,171454.0,A,3443.4918,N,08633.1254,W,,,251118,,*15
$GPGGA,171524.0,3443.4904,N,08633.1268,W,1,,,227.5,M,,M,,*72
$GPRMC,171524.0,A,3443.4904,N,08633.1268,W,,,251118,,*11
$GPGGA,171554.0,3443.4904,N,08633.1268,W,1,,,227.4,M,,M,,*74
$GPRMC,171554.0,A,3443.4904,N,08633.1268,W,,,251118,,*16
$GPGGA,171624.0,3443.4904,N,08633.1267,W,1,,,227.4,M,,M,,*7F
$GPRMC,171624.0,A,3443.4904,N,08633.1267,W,,,251118,,*1D
$GPGGA,171654.0,3443.4904,N,08633.1267,W,1,,,227.6,M,,M,,*7A
$GPRMC,171654.0,A,3443.4904,N,08633.1267,W,,,251118,,*1A
$GPGGA,171724.0,3443.4904,N,08633.1267,W,1,,,227.8,M,,M,,*72
$GPRMC,171724.0,A,3443.4904,N,08633.1267,W,,,251118,,*1C
$GPGGA,171754.0,3443.4915,N,08633.1279,W,1,,,233.7,M,,M,,*70
$GPRMC,171754.0,A,3443.4915,N,08633.1279,W,,,251118,,*14
$GPGGA,171824.0,3443.4917,N,08633.1277,W,1,,,233.4,M,,M,,*77
$GPRMC,171824.0,A,3443.4917,N,08633.1277,W,,,251118,,*10
$GPGGA,171854.0,3443.4906,N,08633.1274,W,1,,,229.8,M,,M,,*74
$GPRMC,171854.0,A,3443.4906,N,08633.1274,W,,,251118,,*14
$GPGGA,171924.0,3443.4898,N,08633.1277,W,1,,,226.9,M,,M,,*79
$GPRMC,171924.0,A,3443.4898,N,08633.1277,W,,,251118,,*17
$GPGGA,171954.0,3443.4900,N,08633.1276,W,1,,,225.1,M,,M,,*74
$GPRMC,171954.0,A,3443.4900,N,08633.1276,W,,,251118,,*11
$GPGGA,172024.0,3443.4901,N,08633.1276,W,1,,,224.3,M,,M,,*7B
$GPRMC,172024.0,A,3443.4901,N,08633.1276,W,,,251118,,*1D
$GPGGA,172054.0,3443.4901,N,08633.1275,W,1,,,223.5,M,,M,,*7E
$GPRMC,172054.0,A,3443.4901,N,08633.1275,W,,,251118,,*19
$GPGGA,172124.0,3443.4901,N,08633.1274,W,1,,,223.3,M,,M,,*7F
$GPRMC,172124.0,A,3443.4901,N,08633.1274,W,,,251118,,*1E
$GPGGA,172154.0,3443.4902,N,08633.1276,W,1,,,225.7,M,,M,,*7B
$GPRMC,172154.0,A,3443.4902,N,08633.1276,W,,,251118,,*18
$GPGGA,172224.0,3443.4902,N,08633.1276,W,1,,,225.8,M,,M,,*70
$GPRMC,172224.0,A,3443.4902,N,08633.1276,W,,,251118,,*1C
$GPGGA,172254.0,3443.4902,N,08633.1276,W,1,,,225.4,M,,M,,*7B
$GPRMC,172254.0,A,3443.4902,N,08633.1276,W,,,251118,,*1B
$GPGGA,172324.0,3443.4902,N,08633.1274,W,1,,,225.2,M,,M,,*79
$GPRMC,172324.0,A,3443.4902,N,08633.1274,W,,,251118,,*1F
$GPGGA,172354.0,3443.4891,N,08633.1271,W,1,,,221.4,M,,M,,*72
$GPRMC,172354.0,A,3443.4891,N,08633.1271,W,,,251118,,*16
$GPGGA,172424.0,3443.4891,N,08633.1271,W,1,,,221.5,M,,M,,*73
$GPRMC,172424.0,A,3443.4891,N,08633.1271,W,,,251118,,*16
$GPGGA,172454.0,3443.4891,N,08633.1271,W,1,,,221.3,M,,M,,*72
$GPRMC,172454.0,A,3443.4891,N,08633.1271,W,,,251118,,*11
$GPGGA,172524.2,3443.4902,N,08633.1274,W,1,,,226.5,M,,M,,*79
$GPRMC,172524.2,A,3443.4902,N,08633.1274,W,,,251118,,*1B
$GPGGA,172554.0,3443.4902,N,08633.1274,W,1,,,226.6,M,,M,,*7F
$GPRMC,172554.0,A,3443.4902,N,08633.1274,W,,,251118,,*1E
$GPGGA,172624.0,3443.4902,N,08633.1275,W,1,,,226.9,M,,M,,*75
$GPRMC,172624.0,A,3443.4902,N,08633.1275,W,,,251118,,*1B
$GPGGA,172654.0,3443.4902,N,08633.1275,W,1,,,226.8,M,,M,,*73
$GPRMC,172654.0,A,3443.4902,N,08633.1275,W,,,251118,,*1C
$GPGGA,172724.0,3443.4902,N,08633.1274,W,1,,,226.1,M,,M,,*7D
$GPRMC,172724.0,A,3443.4902,N,08633.1274,W,,,251118,,*1B
$GPGGA,172754.0,3443.4902,N,08633.1274,W,1,,,225.1,M,,M,,*79
$GPRMC,172754.0,A,3443.4902,N,08633.1274,W,,,251118,,*1C
$GPGGA,172824.0,3443.4902,N,08633.1274,W,1,,,224.6,M,,M,,*77
$GPRMC,172824.0,A,3443.4902,N,08633.1274,W,,,251118,,*14
$GPGGA,172854.0,3443.4902,N,08633.1274,W,1,,,224.5,M,,M,,*73
$GPRMC,172854.0,A,3443.4902,N,08633.1274,W,,,251118,,*13
$GPGGA,172924.0,3443.4902,N,08633.1274,W,1,,,224.0,M,,M,,*70
$GPRMC,172924.0,A,3443.4902,N,08633.1274,W,,,251118,,*15
$GPGGA,172954.0,3443.4902,N,08633.1274,W,1,,,223.8,M,,M,,*78
$GPRMC,172954.0,A,3443.4902,N,08633.1274,W,,,251118,,*12
$GPGGA,173024.0,3443.4886,N,08633.1256,W,1,,,222.3,M,,M,,*70
$GPRMC,173024.0,A,3443.4886,N,08633.1256,W,,,251118,,*10
$GPGGA,173054.0,3443.4886,N,08633.1256,W,1,,,222.3,M,,M,,*77
$GPRMC,173054.0,A,3443.4886,N,08633.1256,W,,,251118,,*17
$GPGGA,173124.0,3443.4885,N,08633.1257,W,1,,,217.8,M,,M,,*7E
$GPRMC,173124.0,A,3443.4885,N,08633.1257,W,,,251118,,*13
$GPGGA,173154.0,3443.4885,N,08633.1258,W,1,,,217.3,M,,M,,*7D
$GPRMC,173154.0,A,3443.4885,N,08633.1258,W,,,251118,,*1B
$GPGGA,173224.0,3443.4885,N,08633.1259,W,1,,,216.4,M,,M,,*7E
$GPRMC,173224.0,A,3443.4885,N,08633.1259,W,,,251118,,*1E
$GPGGA,173254.0,3443.4884,N,08633.1260,W,1,,,215.8,M,,M,,*7D
$GPRMC,173254.0,A,3443.4884,N,08633.1260,W,,,251118,,*12
$GPGGA,173324.0,3443.4885,N,08633.1259,W,1,,,215.7,M,,M,,*7F
$GPRMC,173324.0,A,3443.4885,N,08633.1259,W,,,251118,,*1F
$GPGGA,173354.0,3443.4892,N,08633.1256,W,1,,,215.2,M,,M,,*74
$GPRMC,173354.0,A,3443.4892,N,08633.1256,W,,,251118,,*11
$GPGGA,173424.0,3443.4900,N,08633.1254,W,1,,,217.5,M,,M,,*79
$GPRMC,173424.0,A,3443.4900,N,08633.1254,W,,,251118,,*19
$GPGGA,173454.0,3443.4900,N,08633.1254,W,1,,,217.7,M,,M,,*7C
$GPRMC,173454.0,A,3443.4900,N,08633.1254,W,,,251118,,*1E
$GPGGA,173524.0,3443.4900,N,08633.1254,W,1,,,217.6,M,,M,,*7B
$GPRMC,173524.0,A,3443.4900,N,08633.1254,W,,,251118,,*18
$GPGGA,173554.0,3443.4925,N,08633.1215,W,1,,,235.9,M,,M,,*71
$GPRMC,173554.0,A,3443.4925,N,08633.1215,W,,,251118,,*1D
$GPGGA,173624.0,3443.4847,N,08633.1302,W,1,,,232.7,M,,M,,*7E
$GPRMC,173624.0,A,3443.4847,N,08633.1302,W,,,251118,,*1B
$GPGGA,173654.0,3443.4848,N,08633.1294,W,1,,,218.6,M,,M,,*71
$GPRMC,173654.0,A,3443.4848,N,08633.1294,W,,,251118,,*1D
$GPGGA,173724.0,3443.4851,N,08633.1290,W,1,,,216.5,M,,M,,*76
$GPRMC,173724.0,A,3443.4851,N,08633.1290,W,,,251118,,*17
$GPGGA,173754.0,3443.4858,N,08633.1285,W,1,,,215.4,M,,M,,*7E
$GPRMC,173754.0,A,3443.4858,N,08633.1285,W,,,251118,,*1D
$GPGGA,173824.0,3443.4867,N,08633.1281,W,1,,,215.5,M,,M,,*7F
$GPRMC,173824.0,A,3443.4867,N,08633.1281,W,,,251118,,*1D
$GPGGA,173854.0,3443.4873,N,08633.1275,W,1,,,214.9,M,,M,,*7B
$GPRMC,173854.0,A,3443.4873,N,08633.1275,W,,,251118,,*14
$GPGGA,173924.0,3443.4874,N,08633.1274,W,1,,,215.9,M,,M,,*7A
$GPRMC,173924.0,A,3443.4874,N,08633.1274,W,,,251118,,*14
$GPGGA,173954.0,3443.4876,N,08633.1273,W,1,,,216.3,M,,M,,*71
$GPRMC,173954.0,A,3443.4876,N,08633.1273,W,,,251118,,*16
$GPGGA,174024.0,3443.4878,N,08633.1270,W,1,,,218.3,M,,M,,*7B
$GPRMC,174024.0,A,3443.4878,N,08633.1270,W,,,251118,,*12
$GPGGA,174054.0,3443.4879,N,08633.1270,W,1,,,217.6,M,,M,,*77
$GPRMC,174054.0,A,3443.4879,N,08633.1270,W,,,251118,,*14
$GPGGA,174124.0,3443.4882,N,08633.1269,W,1,,,218.8,M,,M,,*7C
$GPRMC,174124.0,A,3443.4882,N,08633.1269,W,,,251118,,*1E
$GPGGA,174154.0,3443.4883,N,08633.1259,W,1,,,225.4,M,,M,,*7B
$GPRMC,174154.0,A,3443.4883,N,08633.1259,W,,,251118,,*1B
$GPGGA,174224.0,3443.4889,N,08633.1259,W,1,,,224.9,M,,M,,*79
$GPRMC,174224.0,A,3443.4889,N,08633.1259,W,,,251118,,*15
$GPGGA,174254.0,3443.4893,N,08633.1258,W,1,,,223.9,M,,M,,*73
$GPRMC,174254.0,A,3443.4893,N,08633.1258,W,,,251118,,*18
$GPGGA,174324.0,3443.4897,N,08633.1260,W,1,,,222.5,M,,M,,*77
$GPRMC,174324.0,A,3443.4897,N,08633.1260,W,,,251118,,*11
$GPGGA,174354.0,3443.4897,N,08633.1260,W,1,,,222.0,M,,M,,*75
$GPRMC,174354.0,A,3443.4897,N,08633.1260,W,,,251118,,*16
$GPGGA,174424.0,3443.4898,N,08633.1261,W,1,,,223.1,M,,M,,*7B
$GPRMC,174424.0,A,3443.4898,N,08633.1261,W,,,251118,,*18
$GPGGA,174454.0,3443.4898,N,08633.1260,W,1,,,223.3,M,,M,,*7F
$GPRMC,174454.0,A,3443.4898,N,08633.1260,W,,,251118,,*1E
$GPGGA,174524.0,3443.4899,N,08633.1259,W,1,,,223.4,M,,M,,*75
$GPRMC,174524.0,A,3443.4899,N,08633.1259,W,,,251118,,*13
$GPGGA,174554.0,3443.4899,N,08633.1258,W,1,,,223.1,M,,M,,*76
$GPRMC,174554.0,A,3443.4899,N,08633.1258,W,,,251118,,*15
$GPGGA,174624.0,3443.4906,N,08633.1264,W,1,,,226.1,M,,M,,*7F
$GPRMC,174624.0,A,3443.4906,N,08633.1264,W,,,251118,,*19
$GPGGA,174654.0,3443.4899,N,08633.1250,W,1,,,225.2,M,,M,,*78
$GPRMC,174654.0,A,3443.4899,N,08633.1250,W,,,251118,,*1E
$GPGGA,174724.2,3443.4905,N,08633.1241,W,1,,,218.1,M,,M,,*75
$GPRMC,174724.2,A,3443.4905,N,08633.1241,W,,,251118,,*1E
$GPGGA,174754.0,3443.4901,N,08633.1242,W,1,,,224.6,M,,M,,*7F
$GPRMC,174754.0,A,3443.4901,N,08633.1242,W,,,251118,,*1C
$GPGGA,174824.0,3443.4900,N,08633.1242,W,1,,,225.0,M,,M,,*71
$GPRMC,174824.0,A,3443.4900,N,08633.1242,W,,,251118,,*15
$GPGGA,174854.0,3443.4900,N,08633.1242,W,1,,,223.2,M,,M,,*72
$GPRMC,174854.0,A,3443.4900,N,08633.1242,W,,,251118,,*12
$GPGGA,174924.0,3443.4900,N,08633.1242,W,1,,,221.9,M,,M,,*7D
$GPRMC,174924.0,A,3443.4900,N,08633.1242,W,,,251118,,*14
$GPGGA,174954.0,3443.4906,N,08633.1249,W,1,,,226.3,M,,M,,*7A
$GPRMC,174954.0,A,3443.4906,N,08633.1249,W,,,251118,,*1E
$GPGGA,175024.0,3443.4905,N,08633.1250,W,1,,,224.9,M,,M,,*76
$GPRMC,175024.0,A,3443.4905,N,08633.1250,W,,,251118,,*1A
$GPGGA,175054.0,3443.4915,N,08633.1254,W,1,,,222.5,M,,M,,*7E
$GPRMC,175054.0,A,3443.4915,N,08633.1254,W,,,251118,,*18
$GPGGA,175124.0,3443.4903,N,08633.1253,W,1,,,226.7,M,,M,,*7E
$GPRMC,175124.0,A,3443.4903,N,08633.1253,W,,,251118,,*1E
$GPGGA,175154.0,3443.4903,N,08633.1253,W,1,,,225.5,M,,M,,*78
$GPRMC,175154.0,A,3443.4903,N,08633.1253,W,,,251118,,*19
$GPGGA,175224.0,3443.4913,N,08633.1198,W,1,,,208.1,M,,M,,*72
$GPRMC,175224.0,A,3443.4913,N,08633.1198,W,,,251118,,*18
$GPGGA,175254.0,3443.4942,N,08633.1193,W,1,,,207.5,M,,M,,*71
$GPRMC,175254.0,A,3443.4942,N,08633.1193,W,,,251118,,*10
$GPGGA,175324.0,3443.4943,N,08633.1193,W,1,,,208.5,M,,M,,*79
$GPRMC,175324.0,A,3443.4943,N,08633.1193,W,,,251118,,*17
$GPGGA,175354.0,3443.4942,N,08633.1196,W,1,,,209.7,M,,M,,*79
$GPRMC,175354.0,A,3443.4942,N,08633.1196,W,,,251118,,*14
$GPGGA,175424.0,3443.4939,N,08633.1213,W,1,,,210.7,M,,M,,*73
$GPRMC,175424.0,A,3443.4939,N,08633.1213,W,,,251118,,*16
$GPGGA,175454.0,3443.4939,N,08633.1214,W,1,,,211.4,M,,M,,*71
$GPRMC,175454.0,A,3443.4939,N,08633.1214,W,,,251118,,*16
$GPGGA,175524.0,3443.4952,N,08633.1212,W,1,,,216.7,M,,M,,*78
$GPRMC,175524.0,A,3443.4952,N,08633.1212,W,,,251118,,*1B
$GPGGA,175554.0,3443.4951,N,08633.1216,W,1,,,215.3,M,,M,,*7F
$GPRMC,175554.0,A,3443.4951,N,08633.1216,W,,,251118,,*1B
$GPGGA,175624.0,3443.4949,N,08633.1197,W,1,,,217.0,M,,M,,*79
$GPRMC,175624.0,A,3443.4949,N,08633.1197,W,,,251118,,*1C
$GPGGA,175654.0,3443.4942,N,08633.1193,W,1,,,219.5,M,,M,,*7A
$GPRMC,175654.0,A,3443.4942,N,08633.1193,W,,,251118,,*14
$GPGGA,175724.0,3443.4943,N,08633.1196,W,1,,,218.2,M,,M,,*7E
$GPRMC,175724.0,A,3443.4943,N,08633.1196,W,,,251118,,*16
$GPGGA,175754.0,3443.4943,N,08633.1197,W,1,,,217.5,M,,M,,*70
$GPRMC,175754.0,A,3443.4943,N,08633.1197,W,,,251118,,*10
$GPGGA,175824.1,3443.4943,N,08633.1199,W,1,,,216.7,M,,M,,*74
$GPRMC,175824.1,A,3443.4943,N,08633.1199,W,,,251118,,*17
$GPGGA,175854.0,3443.4944,N,08633.1200,W,1,,,215.5,M,,M,,*77
$GPRMC,175854.0,A,3443.4944,N,08633.1200,W,,,251118,,*15
$GPGGA,175924.0,3443.4936,N,08633.1194,W,1,,,219.6,M,,M,,*75
$GPRMC,175924.0,A,3443.4936,N,08633.1194,W,,,251118,,*18
$GPGGA,175954.0,3443.4935,N,08633.1194,W,1,,,218.2,M,,M,,*74
$GPRMC,175954.0,A,3443.4935,N,08633.1194,W,,,251118,,*1C
$GPGGA,180024.0,3443.4935,N,08633.1194,W,1,,,217.7,M,,M,,*7A
$GPRMC,180024.0,A,3443.4935,N,08633.1194,W,,,251118,,*18
$GPGGA,180054.0,3443.4935,N,08633.1194,W,1,,,217.2,M,,M,,*78
$GPRMC,180054.0,A,3443.4935,N,08633.1194,W,,,251118,,*1F
$GPGGA,180124.0,3443.4927,N,08633.1199,W,1,,,213.3,M,,M,,*75
$GPRMC,180124.0,A,3443.4927,N,08633.1199,W,,,251118,,*17
$GPGGA,180154.0,3443.4927,N,08633.1199,W,1,,,212.8,M,,M,,*78
$GPRMC,180154.0,A,3443.4927,N,08633.1199,W,,,251118,,*10
$GPGGA,180224.0,3443.4927,N,08633.1199,W,1,,,212.2,M,,M,,*76
$GPRMC,180224.0,A,3443.4927,N,08633.1199,W,,,251118,,*14
$GPGGA,180254.0,3443.4925,N,08633.1199,W,1,,,211.3,M,,M,,*71
$GPRMC,180254.0,A,3443.4925,N,08633.1199,W,,,251118,,*11
$GPGGA,180324.0,3443.4923,N,08633.1200,W,1,,,211.6,M,,M,,*77
$GPRMC,180324.0,A,3443.4923,N,08633.1200,W,,,251118,,*12
$GPGGA,180354.0,3443.4921,N,08633.1201,W,1,,,211.3,M,,M,,*76
$GPRMC,180354.0,A,3443.4921,N,08633.1201,W,,,251118,,*16
$GPGGA,180424.0,3443.4920,N,08633.1202,W,1,,,211.7,M,,M,,*70
$GPRMC,180424.0,A,3443.4920,N,08633.1202,W,,,251118,,*14
$GPGGA,180454.0,3443.4920,N,08633.1203,W,1,,,212.6,M,,M,,*74
$GPRMC,180454.0,A,3443.4920,N,08633.1203,W,,,251118,,*12
$GPGGA,180524.0,3443.4919,N,08633.1204,W,1,,,215.1,M,,M,,*7F
$GPRMC,180524.0,A,3443.4919,N,08633.1204,W,,,251118,,*19
$GPGGA,180554.0,3443.4918,N,08633.1204,W,1,,,216.2,M,,M,,*79
$GPRMC,180554.0,A,3443.4918,N,08633.1204,W,,,251118,,*1F
$GPGGA,180624.0,3443.4918,N,08633.1205,W,1,,,216.4,M,,M,,*7A
$GPRMC,180624.0,A,3443.4918,N,08633.1205,W,,,251118,,*1A
$GPGGA,180654.0,3443.4916,N,08633.1209,W,1,,,215.8,M,,M,,*70
$GPRMC,180654.0,A,3443.4916,N,08633.1209,W,,,251118,,*1F
$GPGGA,180724.0,3443.4916,N,08633.1210,W,1,,,216.4,M,,M,,*71
$GPRMC,180724.0,A,3443.4916,N,08633.1210,W,,,251118,,*11
$GPGGA,180754.0,3443.4916,N,08633.1211,W,1,,,216.5,M,,M,,*76
$GPRMC,180754.0,A,3443.4916,N,08633.1211,W,,,251118,,*17
$GPGGA,180824.0,3443.4916,N,08633.1211,W,1,,,216.5,M,,M,,*7E
$GPRMC,180824.0,A,3443.4916,N,08633.1211,W,,,251118,,*1F
$GPGGA,180854.0,3443.4916,N,08633.1212,W,1,,,216.4,M,,M,,*7B
$GPRMC,180854.0,A,3443.4916,N,08633.1212,W,,,251118,,*1B
$GPGGA,180924.0,3443.4916,N,08633.1212,W,1,,,215.4,M,,M,,*7E
$GPRMC,180924.0,A,3443.4916,N,08633.1212,W,,,251118,,*1D
$GPGGA,180954.0,3443.4915,N,08633.1212,W,1,,,215.3,M,,M,,*7D
$GPRMC,180954.0,A,3443.4915,N,08633.1212,W,,,251118,,*19
$GPGGA,181024.0,3443.4915,N,08633.1212,W,1,,,215.1,M,,M,,*70
$GPRMC,181024.0,A,3443.4915,N,08633.1212,W,,,251118,,*16
$GPGGA,181054.0,3443.4915,N,08633.1214,W,1,,,215.4,M,,M,,*74
$GPRMC,181054.0,A,3443.4915,N,08633.1214,W,,,251118,,*17
$GPGGA,181124.0,3443.4915,N,08633.1215,W,1,,,215.5,M,,M,,*72
$GPRMC,181124.0,A,3443.4915,N,08633.1215,W,,,251118,,*10
$GPGGA,181154.0,3443.4915,N,08633.1215,W,1,,,216.1,M,,M,,*72
$GPRMC,181154.0,A,3443.4915,N,08633.1215,W,,,251118,,*17
$GPGGA,181224.0,3443.4916,N,08633.1213,W,1,,,220.9,M,,M,,*7E
$GPRMC,181224.0,A,3443.4916,N,08633.1213,W,,,251118,,*16
$GPGGA,181254.0,3443.4916,N,08633.1215,W,1,,,221.2,M,,M,,*75
$GPRMC,181254.0,A,3443.4916,N,08633.1215,W,,,251118,,*17
$GPGGA,181324.0,3443.4916,N,08633.1215,W,1,,,221.6,M,,M,,*77
$GPRMC,181324.0,A,3443.4916,N,08633.1215,W,,,251118,,*11
$GPGGA,181354.0,3443.4916,N,08633.1217,W,1,,,221.7,M,,M,,*73
$GPRMC,181354.0,A,3443.4916,N,08633.1217,W,,,251118,,*14
$GPGGA,181424.0,3443.4917,N,08633.1217,W,1,,,221.6,M,,M,,*73
$GPRMC,181424.0,A,3443.4917,N,08633.1217,W,,,251118,,*15
$GPGGA,181454.1,3443.4917,N,08633.1217,W,1,,,221.5,M,,M,,*76
$GPRMC,181454.1,A,3443.4917,N,08633.1217,W,,,251118,,*13
$GPGGA,181524.0,3443.4917,N,08633.1217,W,1,,,221.7,M,,M,,*73
$GPRMC,181524.0,A,3443.4917,N,08633.1217,W,,,251118,,*14
$GPGGA,181554.0,3443.4917,N,08633.1218,W,1,,,221.6,M,,M,,*7A
$GPRMC,181554.0,A,3443.4917,N,08633.1218,W,,,251118,,*1C
$GPGGA,181624.0,3443.4917,N,08633.1219,W,1,,,221.5,M,,M,,*7C
$GPRMC,181624.0,A,3443.4917,N,08633.1219,W,,,251118,,*19
$GPGGA,181654.0,3443.4919,N,08633.1221,W,1,,,223.3,M,,M,,*7A
$GPRMC,181654.0,A,3443.4919,N,08633.1221,W,,,251118,,*1B
$GPGGA,181724.0,3443.4918,N,08633.1222,W,1,,,223.1,M,,M,,*7C
$GPRMC,181724.0,A,3443.4918,N,08633.1222,W,,,251118,,*1F
$GPGGA,181754.0,3443.4918,N,08633.1223,W,1,,,223.1,M,,M,,*7A
$GPRMC,181754.0,A,3443.4918,N,08633.1223,W,,,251118,,*19
$GPGGA,181824.0,3443.4918,N,08633.1223,W,1,,,222.6,M,,M,,*74
$GPRMC,181824.0,A,3443.4918,N,08633.1223,W,,,251118,,*11
$GPGGA,181854.0,3443.4918,N,08633.1224,W,1,,,222.3,M,,M,,*71
$GPRMC,181854.0,A,3443.4918,N,08633.1224,W,,,251118,,*11
$GPGGA,181924.0,3443.4918,N,08633.1224,W,1,,,222.0,M,,M,,*74
$GPRMC,181924.0,A,3443.4918,N,08633.1224,W,,,251118,,*17
$GPGGA,181954.0,3443.4918,N,08633.1225,W,1,,,221.5,M,,M,,*74
$GPRMC,181954.0,A,3443.4918,N,08633.1225,W,,,251118,,*11
$GPGGA,182024.0,3443.4918,N,08633.1226,W,1,,,220.6,M,,M,,*78
$GPRMC,182024.0,A,3443.4918,N,08633.1226,W,,,251118,,*1F
$GPGGA,182054.0,3443.4917,N,08633.1226,W,1,,,219.7,M,,M,,*7B
$GPRMC,182054.0,A,3443.4917,N,08633.1226,W,,,251118,,*17
$GPGGA,182124.0,3443.4917,N,08633.1226,W,1,,,218.8,M,,M,,*73
$GPRMC,182124.0,A,3443.4917,N,08633.1226,W,,,251118,,*11
$GPGGA,182154.0,3443.4916,N,08633.1227,W,1,,,218.1,M,,M,,*7D
$GPRMC,182154.0,A,3443.4916,N,08633.1227,W,,,251118,,*16
$GPGGA,182224.0,3443.4909,N,08633.1224,W,1,,,217.9,M,,M,,*73
$GPRMC,182224.0,A,3443.4909,N,08633.1224,W,,,251118,,*1F
$GPGGA,182254.0,3443.4903,N,08633.1216,W,1,,,217.8,M,,M,,*7E
$GPRMC,182254.0,A,3443.4903,N,08633.1216,W,,,251118,,*13
$GPGGA,182324.0,3443.4903,N,08633.1216,W,1,,,216.4,M,,M,,*75
$GPRMC,182324.0,A,3443.4903,N,08633.1216,W,,,251118,,*15
$GPGGA,182354.0,3443.4903,N,08633.1217,W,1,,,215.7,M,,M,,*73
$GPRMC,182354.0,A,3443.4903,N,08633.1217,W,,,251118,,*13
$GPGGA,182424.0,3443.4904,N,08633.1217,W,1,,,213.2,M,,M,,*77
$GPRMC,182424.0,A,3443.4904,N,08633.1217,W,,,251118,,*14
$GPGGA,182454.0,3443.4904,N,08633.1219,W,1,,,213.0,M,,M,,*7C
$GPRMC,182454.0,A,3443.4904,N,08633.1219,W,,,251118,,*1D
$GPGGA,182524.0,3443.4905,N,08633.1221,W,1,,,213.1,M,,M,,*71
$GPRMC,182524.0,A,3443.4905,N,08633.1221,W,,,251118,,*11
$GPGGA,182554.0,3443.4905,N,08633.1223,W,1,,,213.3,M,,M,,*76
$GPRMC,182554.0,A,3443.4905,N,08633.1223,W,,,251118,,*14
$GPGGA,182624.0,3443.4905,N,08633.1224,W,1,,,213.3,M,,M,,*75
$GPRMC,182624.0,A,3443.4905,N,08633.1224,W,,,251118,,*17
$GPGGA,182654.0,3443.4917,N,08633.1254,W,1,,,219.3,M,,M,,*7C
$GPRMC,182654.0,A,3443.4917,N,08633.1254,W,,,251118,,*14
$GPGGA,182724.0,3443.4918,N,08633.1259,W,1,,,223.9,M,,M,,*7B
$GPRMC,182724.0,A,3443.4918,N,08633.1259,W,,,251118,,*10
$GPGGA,182754.0,3443.4918,N,08633.1259,W,1,,,225.2,M,,M,,*71
$GPRMC,182754.0,A,3443.4918,N,08633.1259,W,,,251118,,*17
$GPGGA,182824.0,3443.4918,N,08633.1259,W,1,,,224.9,M,,M,,*73
$GPRMC,182824.0,A,3443.4918,N,08633.1259,W,,,251118,,*1F
$GPGGA,182854.0,3443.4842,N,08633.1228,W,1,,,220.8,M,,M,,*79
$GPRMC,182854.0,A,3443.4842,N,08633.1228,W,,,251118,,*10
$GPGGA,182924.0,3443.4854,N,08633.1242,W,1,,,222.9,M,,M,,*77
$GPRMC,182924.0,A,3443.4854,N,08633.1242,W,,,251118,,*1D
$GPGGA,182954.0,3443.4848,N,08633.1265,W,1,,,229.3,M,,M,,*79
$GPRMC,182954.0,A,3443.4848,N,08633.1265,W,,,251118,,*12
$GPGGA,183024.0,3443.4849,N,08633.1265,W,1,,,229.5,M,,M,,*71
$GPRMC,183024.0,A,3443.4849,N,08633.1265,W,,,251118,,*1C
$GPGGA,183054.0,3443.4849,N,08633.1265,W,1,,,229.6,M,,M,,*75
$GPRMC,183054.0,A,3443.4849,N,08633.1265,W,,,251118,,*1B
$GPGGA,183124.0,3443.4850,N,08633.1265,W,1,,,228.3,M,,M,,*7F
$GPRMC,183124.0,A,3443.4850,N,08633.1265,W,,,251118,,*15
$GPGGA,183154.0,3443.4842,N,08633.1263,W,1,,,227.2,M,,M,,*73
$GPRMC,183154.0,A,3443.4842,N,08633.1263,W,,,251118,,*17
$GPGGA,183224.0,3443.4842,N,08633.1263,W,1,,,225.6,M,,M,,*71
$GPRMC,183224.0,A,3443.4842,N,08633.1263,W,,,251118,,*13
$GPGGA,183254.0,3443.4842,N,08633.1263,W,1,,,225.7,M,,M,,*77
$GPRMC,183254.0,A,3443.4842,N,08633.1263,W,,,251118,,*14
$GPGGA,183324.0,3443.4843,N,08633.1264,W,1,,,225.3,M,,M,,*73
$GPRMC,183324.0,A,3443.4843,N,08633.1264,W,,,251118,,*14
$GPGGA,183354.0,3443.4843,N,08633.1264,W,1,,,224.2,M,,M,,*74
$GPRMC,183354.0,A,3443.4843,N,08633.1264,W,,,251118,,*13
$GPGGA,183424.0,3443.4845,N,08633.1266,W,1,,,222.4,M,,M,,*70
$GPRMC,183424.0,A,3443.4845,N,08633.1266,W,,,251118,,*17
$GPGGA,183454.0,3443.4849,N,08633.1268,W,1,,,221.4,M,,M,,*76
$GPRMC,183454.0,A,3443.4849,N,08633.1268,W,,,251118,,*12
$GPGGA,183524.0,3443.4850,N,08633.1270,W,1,,,222.7,M,,M,,*71
$GPRMC,183524.0,A,3443.4850,N,08633.1270,W,,,251118,,*15
$GPGGA,183554.0,3443.4851,N,08633.1271,W,1,,,223.5,M,,M,,*75
$GPRMC,183554.0,A,3443.4851,N,08633.1271,W,,,251118,,*12
$GPGGA,183624.0,3443.4852,N,08633.1271,W,1,,,223.9,M,,M,,*7E
$GPRMC,183624.0,A,3443.4852,N,08633.1271,W,,,251118,,*15
$GPGGA,183654.0,3443.4852,N,08633.1273,W,1,,,219.5,M,,M,,*7E
$GPRMC,183654.0,A,3443.4852,N,08633.1273,W,,,251118,,*10
$GPGGA,183724.0,3443.4851,N,08633.1274,W,1,,,220.0,M,,M,,*73
$GPRMC,183724.0,A,3443.4851,N,08633.1274,W,,,251118,,*12
$GPGGA,183754.2,3443.4851,N,08633.1274,W,1,,,220.8,M,,M,,*7E
$GPRMC,183754.2,A,3443.4851,N,08633.1274,W,,,251118,,*17
$GPGGA,183824.0,3443.4852,N,08633.1275,W,1,,,221.4,M,,M,,*7B
$GPRMC,183824.0,A,3443.4852,N,08633.1275,W,,,251118,,*1F
$GPGGA,183854.0,3443.4852,N,08633.1274,W,1,,,221.3,M,,M,,*7A
$GPRMC,183854.0,A,3443.4852,N,08633.1274,W,,,251118,,*19
$GPGGA,183924.0,3443.4847,N,08633.1279,W,1,,,226.3,M,,M,,*72
$GPRMC,183924.0,A,3443.4847,N,08633.1279,W,,,251118,,*16
$GPGGA,183954.0,3443.4835,N,08633.1291,W,1,,,239.2,M,,M,,*79
$GPRMC,183954.0,A,3443.4835,N,08633.1291,W,,,251118,,*12
$GPGGA,184024.0,3443.4840,N,08633.1289,W,1,,,237.2,M,,M,,*75
$GPRMC,184024.0,A,3443.4840,N,08633.1289,W,,,251118,,*10
$GPGGA,184054.1,3443.4845,N,08633.1287,W,1,,,232.1,M,,M,,*7E
$GPRMC,184054.1,A,3443.4845,N,08633.1287,W,,,251118,,*1D
$GPGGA,184124.0,3443.4848,N,08633.1287,W,1,,,230.2,M,,M,,*75
$GPRMC,184124.0,A,3443.4848,N,08633.1287,W,,,251118,,*17
$GPGGA,184154.0,3443.4850,N,08633.1286,W,1,,,229.8,M,,M,,*78
$GPRMC,184154.0,A,3443.4850,N,08633.1286,W,,,251118,,*18
$GPGGA,184224.1,3443.4852,N,08633.1293,W,1,,,219.7,M,,M,,*77
$GPRMC,184224.1,A,3443.4852,N,08633.1293,W,,,251118,,*1B
$GPGGA,184254.0,3443.4879,N,08633.1286,W,1,,,218.5,M,,M,,*7F
$GPRMC,184254.0,A,3443.4879,N,08633.1286,W,,,251118,,*10
$GPGGA,184324.0,3443.4868,N,08633.1306,W,1,,,228.6,M,,M,,*70
$GPRMC,184324.0,A,3443.4868,N,08633.1306,W,,,251118,,*1F
$GPGGA,184354.0,3443.4872,N,08633.1302,W,1,,,226.0,M,,M,,*70
$GPRMC,184354.0,A,3443.4872,N,08633.1302,W,,,251118,,*17
$GPGGA,184424.0,3443.4883,N,08633.1289,W,1,,,217.8,M,,M,,*76
$GPRMC,184424.0,A,3443.4883,N,08633.1289,W,,,251118,,*1B
$GPGGA,184454.0,3443.4883,N,08633.1289,W,1,,,218.8,M,,M,,*7E
$GPRMC,184454.0,A,3443.4883,N,08633.1289,W,,,251118,,*1C
$GPGGA,184524.0,3443.4883,N,08633.1289,W,1,,,218.8,M,,M,,*78
$GPRMC,184524.0,A,3443.4883,N,08633.1289,W,,,251118,,*1A
$GPGGA,184554.2,3443.4886,N,08633.1290,W,1,,,214.1,M,,M,,*75
$GPRMC,184554.2,A,3443.4886,N,08633.1290,W,,,251118,,*12
$GPGGA,184624.0,3443.4886,N,08633.1289,W,1,,,213.3,M,,M,,*7E
$GPRMC,184624.0,A,3443.4886,N,08633.1289,W,,,251118,,*1C
$GPGGA,184654.0,3443.4887,N,08633.1288,W,1,,,211.9,M,,M,,*71
$GPRMC,184654.0,A,3443.4887,N,08633.1288,W,,,251118,,*1B
$GPGGA,184724.0,3443.4887,N,08633.1287,W,1,,,212.7,M,,M,,*75
$GPRMC,184724.0,A,3443.4887,N,08633.1287,W,,,251118,,*12
$GPGGA,184754.0,3443.4887,N,08633.1287,W,1,,,213.4,M,,M,,*70
$GPRMC,184754.0,A,3443.4887,N,08633.1287,W,,,251118,,*15
$GPGGA,184824.0,3443.4887,N,08633.1286,W,1,,,213.7,M,,M,,*7A
$GPRMC,184824.0,A,3443.4887,N,08633.1286,W,,,251118,,*1C
$GPGGA,184854.0,3443.4888,N,08633.1285,W,1,,,214.6,M,,M,,*77
$GPRMC,184854.0,A,3443.4888,N,08633.1285,W,,,251118,,*17
$GPGGA,184924.0,3443.4888,N,08633.1285,W,1,,,218.0,M,,M,,*7B
$GPRMC,184924.0,A,3443.4888,N,08633.1285,W,,,251118,,*11
$GPGGA,184954.0,3443.4888,N,08633.1285,W,1,,,218.7,M,,M,,*7B
$GPRMC,184954.0,A,3443.4888,N,08633.1285,W,,,251118,,*16
$GPGGA,185024.0,3443.4888,N,08633.1285,W,1,,,218.9,M,,M,,*7A
$GPRMC,185024.0,A,3443.4888,N,08633.1285,W,,,251118,,*19
$GPGGA,185054.0,3443.4900,N,08633.1293,W,1,,,218.3,M,,M,,*71
$GPRMC,185054.0,A,3443.4900,N,08633.1293,W,,,251118,,*18
$GPGGA,185124.0,3443.4900,N,08633.1293,W,1,,,221.8,M,,M,,*76
$GPRMC,185124.0,A,3443.4900,N,08633.1293,W,,,251118,,*1E
$GPGGA,185154.1,3443.4901,N,08633.1293,W,1,,,226.5,M,,M,,*7B
$GPRMC,185154.1,A,3443.4901,N,08633.1293,W,,,251118,,*19
$GPGGA,185224.0,3443.4901,N,08633.1293,W,1,,,228.2,M,,M,,*77
$GPRMC,185224.0,A,3443.4901,N,08633.1293,W,,,251118,,*1C
$GPGGA,185254.0,3443.4898,N,08633.1286,W,1,,,227.8,M,,M,,*70
$GPRMC,185254.0,A,3443.4898,N,08633.1286,W,,,251118,,*1E
$GPGGA,185324.2,3443.4898,N,08633.1285,W,1,,,227.0,M,,M,,*7F
$GPRMC,185324.2,A,3443.4898,N,08633.1285,W,,,251118,,*19
$GPGGA,185354.0,3443.4898,N,08633.1284,W,1,,,226.2,M,,M,,*78
$GPRMC,185354.0,A,3443.4898,N,08633.1284,W,,,251118,,*1D
$GPGGA,185424.0,3443.4905,N,08633.1288,W,1,,,227.1,M,,M,,*73
$GPRMC,185424.0,A,3443.4905,N,08633.1288,W,,,251118,,*14
$GPGGA,185454.0,3443.4909,N,08633.1282,W,1,,,223.6,M,,M,,*71
$GPRMC,185454.0,A,3443.4909,N,08633.1282,W,,,251118,,*15
$GPGGA,185524.0,3443.4908,N,08633.1281,W,1,,,222.7,M,,M,,*75
$GPRMC,185524.0,A,3443.4908,N,08633.1281,W,,,251118,,*11
$GPGGA,185554.0,3443.4908,N,08633.1281,W,1,,,222.5,M,,M,,*70
$GPRMC,185554.0,A,3443.4908,N,08633.1281,W,,,251118,,*16
$GPGGA,185624.0,3443.4908,N,08633.1281,W,1,,,222.3,M,,M,,*72
$GPRMC,185624.0,A,3443.4908,N,08633.1281,W,,,251118,,*12
$GPGGA,185654.0,3443.4908,N,08633.1280,W,1,,,222.3,M,,M,,*74
$GPRMC,185654.0,A,3443.4908,N,08633.1280,W,,,251118,,*14
$GPGGA,185724.0,3443.4908,N,08633.1280,W,1,,,222.1,M,,M,,*70
$GPRMC,185724.0,A,3443.4908,N,08633.1280,W,,,251118,,*12
$GPGGA,185754.0,3443.4888,N,08633.1289,W,1,,,229.3,M,,M,,*7E
$GPRMC,185754.0,A,3443.4888,N,08633.1289,W,,,251118,,*15
$GPGGA,185824.1,3443.4888,N,08633.1294,W,1,,,231.8,M,,M,,*79
$GPRMC,185824.1,A,3443.4888,N,08633.1294,W,,,251118,,*10
$GPGGA,185854.0,3443.4889,N,08633.1294,W,1,,,229.9,M,,M,,*76
$GPRMC,185854.0,A,3443.4889,N,08633.1294,W,,,251118,,*17
$GPGGA,185924.0,3443.4889,N,08633.1294,W,1,,,227.8,M,,M,,*7F
$GPRMC,185924.0,A,3443.4889,N,08633.1294,W,,,251118,,*11
$GPGGA,185954.0,3443.4889,N,08633.1293,W,1,,,226.1,M,,M,,*77
$GPRMC,185954.0,A,3443.4889,N,08633.1293,W,,,251118,,*11
$GPGGA,190024.4,3443.4889,N,08633.1293,W,1,,,224.9,M,,M,,*73
$GPRMC,190024.4,A,3443.4889,N,08633.1293,W,,,251118,,*1F
$GPGGA,190054.0,3443.4889,N,08633.1293,W,1,,,225.0,M,,M,,*78
$GPRMC,190054.0,A,3443.4889,N,08633.1293,W,,,251118,,*1C
$GPGGA,190124.0,3443.4889,N,08633.1292,W,1,,,224.9,M,,M,,*77
$GPRMC,190124.0,A,3443.4889,N,08633.1292,W,,,251118,,*1B
$GPGGA,190154.0,3443.4889,N,08633.1292,W,1,,,224.9,M,,M,,*70
$GPRMC,190154.0,A,3443.4889,N,08633.1292,W,,,251118,,*1C
$GPGGA,190224.0,3443.4889,N,08633.1291,W,1,,,227.1,M,,M,,*7C
$GPRMC,190224.0,A,3443.4889,N,08633.1291,W,,,251118,,*1B
$GPGGA,190254.0,3443.4890,N,08633.1289,W,1,,,228.5,M,,M,,*71
$GPRMC,190254.0,A,3443.4890,N,08633.1289,W,,,251118,,*1D
$GPGGA,190324.0,3443.4897,N,08633.1289,W,1,,,227.2,M,,M,,*78
$GPRMC,190324.0,A,3443.4897,N,08633.1289,W,,,251118,,*1C
$GPGGA,190354.0,3443.4874,N,08633.1280,W,1,,,228.8,M,,M,,*7E
$GPRMC,190354.0,A,3443.4874,N,08633.1280,W,,,251118,,*1F
$GPGGA,190424.0,3443.4875,N,08633.1279,W,1,,,227.4,M,,M,,*7A
$GPRMC,190424.0,A,3443.4875,N,08633.1279,W,,,251118,,*18
$GPGGA,190454.0,3443.4877,N,08633.1278,W,1,,,224.2,M,,M,,*7B
$GPRMC,190454.0,A,3443.4877,N,08633.1278,W,,,251118,,*1C
$GPGGA,190524.0,3443.4879,N,08633.1277,W,1,,,221.8,M,,M,,*73
$GPRMC,190524.0,A,3443.4879,N,08633.1277,W,,,251118,,*1B
$GPGGA,190554.0,3443.4889,N,08633.1270,W,1,,,216.0,M,,M,,*70
$GPRMC,190554.0,A,3443.4889,N,08633.1270,W,,,251118,,*14
$GPGGA,190624.0,3443.4889,N,08633.1270,W,1,,,216.0,M,,M,,*74
$GPRMC,190624.0,A,3443.4889,N,08633.1270,W,,,251118,,*10
$GPGGA,190654.0,3443.4890,N,08633.1269,W,1,,,216.0,M,,M,,*73
$GPRMC,190654.0,A,3443.4890,N,08633.1269,W,,,251118,,*17
$GPGGA,190724.0,3443.4890,N,08633.1269,W,1,,,216.1,M,,M,,*74
$GPRMC,190724.0,A,3443.4890,N,08633.1269,W,,,251118,,*11
$GPGGA,190754.0,3443.4890,N,08633.1269,W,1,,,216.1,M,,M,,*73
$GPRMC,190754.0,A,3443.4890,N,08633.1269,W,,,251118,,*16
$GPGGA,190824.0,3443.4891,N,08633.1269,W,1,,,215.7,M,,M,,*7F
$GPRMC,190824.0,A,3443.4891,N,08633.1269,W,,,251118,,*1F
$GPGGA,190854.0,3443.4892,N,08633.1270,W,1,,,214.7,M,,M,,*72
$GPRMC,190854.0,A,3443.4892,N,08633.1270,W,,,251118,,*13
$GPGGA,190924.0,3443.4892,N,08633.1270,W,1,,,214.5,M,,M,,*76
$GPRMC,190924.0,A,3443.4892,N,08633.1270,W,,,251118,,*15
$GPGGA,190954.0,3443.4892,N,08633.1270,W,1,,,214.6,M,,M,,*72
$GPRMC,190954.0,A,3443.4892,N,08633.1270,W,,,251118,,*12
$GPGGA,191024.0,3443.4892,N,08633.1270,W,1,,,215.0,M,,M,,*7A
$GPRMC,191024.0,A,3443.4892,N,08633.1270,W,,,251118,,*1D
$GPGGA,191054.0,3443.4891,N,08633.1270,W,1,,,215.3,M,,M,,*7D
$GPRMC,191054.0,A,3443.4891,N,08633.1270,W,,,251118,,*19
$GPGGA,191124.0,3443.4891,N,08633.1270,W,1,,,215.2,M,,M,,*7A
$GPRMC,191124.0,A,3443.4891,N,08633.1270,W,,,251118,,*1F
$GPGGA,191154.0,3443.4892,N,08633.1269,W,1,,,214.3,M,,M,,*76
$GPRMC,191154.0,A,3443.4892,N,08633.1269,W,,,251118,,*13
$GPGGA,191224.0,3443.4892,N,08633.1268,W,1,,,213.8,M,,M,,*7F
$GPRMC,191224.0,A,3443.4892,N,08633.1268,W,,,251118,,*16
$GPGGA,191254.0,3443.4892,N,08633.1268,W,1,,,213.8,M,,M,,*78
$GPRMC,191254.0,A,3443.4892,N,08633.1268,W,,,251118,,*11
$GPGGA,191324.0,3443.4893,N,08633.1267,W,1,,,214.1,M,,M,,*7E
$GPRMC,191324.0,A,3443.4893,N,08633.1267,W,,,251118,,*19
$GPGGA,191354.0,3443.4893,N,08633.1283,W,1,,,212.6,M,,M,,*72
$GPRMC,191354.0,A,3443.4893,N,08633.1283,W,,,251118,,*14
