@Olympus/+0900/+0900
$GPGGA,222000.0,3443.4789,N,08633.1228,W,1,,,235.2,M,,M,,*7F
$GPRMC,222000.0,A,3443.4789,N,08633.1228,W,,,241218,,*1A
$GPGGA,222030.0,3443.4791,N,08633.1229,W,1,,,228.1,M,,M,,*7B
$GPRMC,222030.0,A,3443.4791,N,08633.1229,W,,,241218,,*11
$GPGGA,222100.0,3443.4818,N,08633.1237,W,1,,,224.9,M,,M,,*7C
$GPRMC,222100.0,A,3443.4818,N,08633.1237,W,,,241218,,*12
$GPGGA,222130.0,3443.4849,N,08633.1260,W,1,,,223.1,M,,M,,*76
$GPRMC,222130.0,A,3443.4849,N,08633.1260,W,,,241218,,*17
$GPGGA,222200.0,3443.4857,N,08633.1266,W,1,,,218.2,M,,M,,*74
$GPRMC,222200.0,A,3443.4857,N,08633.1266,W,,,241218,,*1E
$GPGGA,222230.0,3443.4862,N,08633.1269,W,1,,,216.3,M,,M,,*71
$GPRMC,222230.0,A,3443.4862,N,08633.1269,W,,,241218,,*14
$GPGGA,222300.0,3443.4866,N,08633.1273,W,1,,,215.0,M,,M,,*7C
$GPRMC,222300.0,A,3443.4866,N,08633.1273,W,,,241218,,*19
$GPGGA,222330.0,3443.4869,N,08633.1281,W,1,,,218.5,M,,M,,*75
$GPRMC,222330.0,A,3443.4869,N,08633.1281,W,,,241218,,*18
$GPGGA,222400.0,3443.4877,N,08633.1280,W,1,,,217.2,M,,M,,*77
$GPRMC,222400.0,A,3443.4877,N,08633.1280,W,,,241218,,*12
$GPGGA,222430.0,3443.4878,N,08633.1282,W,1,,,217.4,M,,M,,*7F
$GPRMC,222430.0,A,3443.4878,N,08633.1282,W,,,241218,,*1C
$GPGGA,222530.0,3443.4929,N,08633.1284,W,1,,,217.4,M,,M,,*7D
$GPRMC,222530.0,A,3443.4929,N,08633.1284,W,,,241218,,*1E
$GPGGA,222600.1,3443.4938,N,08633.1334,W,1,,,217.3,M,,M,,*71
$GPRMC,222600.1,A,3443.4938,N,08633.1334,W,,,241218,,*15
$GPGGA,222630.0,3443.4937,N,08633.1335,W,1,,,217.0,M,,M,,*7E
$GPRMC,222630.0,A,3443.4937,N,08633.1335,W,,,241218,,*19
$GPGGA,222700.0,3443.4940,N,08633.1332,W,1,,,217.2,M,,M,,*79
$GPRMC,222700.0,A,3443.4940,N,08633.1332,W,,,241218,,*1C
$GPGGA,222730.0,3443.4949,N,08633.1333,W,1,,,214.7,M,,M,,*74
$GPRMC,222730.0,A,3443.4949,N,08633.1333,W,,,241218,,*17
$GPGGA,222800.0,3443.4949,N,08633.1333,W,1,,,215.0,M,,M,,*7E
$GPRMC,222800.0,A,3443.4949,N,08633.1333,W,,,241218,,*1B
$GPGGA,222830.0,3443.4948,N,08633.1333,W,1,,,215.5,M,,M,,*79
$GPRMC,222830.0,A,3443.4948,N,08633.1333,W,,,241218,,*19
$GPGGA,222900.0,3443.4948,N,08633.1333,W,1,,,216.0,M,,M,,*7D
$GPRMC,222900.0,A,3443.4948,N,08633.1333,W,,,241218,,*1B
$GPGGA,222930.0,3443.4948,N,08633.1333,W,1,,,216.6,M,,M,,*78
$GPRMC,222930.0,A,3443.4948,N,08633.1333,W,,,241218,,*18
$GPGGA,223000.0,3443.4935,N,08633.1348,W,1,,,229.8,M,,M,,*77
$GPRMC,223000.0,A,3443.4935,N,08633.1348,W,,,241218,,*15
$GPGGA,223030.0,3443.4930,N,08633.1335,W,1,,,242.5,M,,M,,*7B
$GPRMC,223030.0,A,3443.4930,N,08633.1335,W,,,241218,,*19
$GPGGA,223100.0,3443.4935,N,08633.1329,W,1,,,241.6,M,,M,,*71
$GPRMC,223100.0,A,3443.4935,N,08633.1329,W,,,241218,,*13
$GPGGA,223130.0,3443.4981,N,08633.1323,W,1,,,242.4,M,,M,,*76
$GPRMC,223130.0,A,3443.4981,N,08633.1323,W,,,241218,,*15
$GPGGA,223200.0,3443.5001,N,08633.1304,W,1,,,239.5,M,,M,,*7E
$GPRMC,223200.0,A,3443.5001,N,08633.1304,W,,,241218,,*10
$GPGGA,223230.0,3443.5001,N,08633.1300,W,1,,,237.7,M,,M,,*75
$GPRMC,223230.0,A,3443.5001,N,08633.1300,W,,,241218,,*17
$GPGGA,223300.0,3443.5000,N,08633.1300,W,1,,,236.4,M,,M,,*74
$GPRMC,223300.0,A,3443.5000,N,08633.1300,W,,,241218,,*14
$GPGGA,223330.0,3443.4998,N,08633.1301,W,1,,,234.6,M,,M,,*7F
$GPRMC,223330.0,A,3443.4998,N,08633.1301,W,,,241218,,*1F
$GPGGA,223430.0,3443.4972,N,08633.1297,W,1,,,206.0,M,,M,,*75
$GPRMC,223430.0,A,3443.4972,N,08633.1297,W,,,241218,,*12
$GPGGA,223500.0,3443.4969,N,08633.1298,W,1,,,221.1,M,,M,,*76
$GPRMC,223500.0,A,3443.4969,N,08633.1298,W,,,241218,,*15
$GPGGA,223530.0,3443.4968,N,08633.1299,W,1,,,223.3,M,,M,,*75
$GPRMC,223530.0,A,3443.4968,N,08633.1299,W,,,241218,,*16
$GPGGA,223600.0,3443.4966,N,08633.1297,W,1,,,223.3,M,,M,,*75
$GPRMC,223600.0,A,3443.4966,N,08633.1297,W,,,241218,,*16
$GPGGA,223630.0,3443.4945,N,08633.1286,W,1,,,222.2,M,,M,,*77
$GPRMC,223630.0,A,3443.4945,N,08633.1286,W,,,241218,,*14
$GPGGA,223700.0,3443.4949,N,08633.1294,W,1,,,220.6,M,,M,,*7C
$GPRMC,223700.0,A,3443.4949,N,08633.1294,W,,,241218,,*19
$GPGGA,223730.0,3443.4947,N,08633.1303,W,1,,,227.1,M,,M,,*7E
$GPRMC,223730.0,A,3443.4947,N,08633.1303,W,,,241218,,*1B
$GPGGA,223800.0,3443.4947,N,08633.1296,W,1,,,226.2,M,,M,,*7D
$GPRMC,223800.0,A,3443.4947,N,08633.1296,W,,,241218,,*1A
$GPGGA,223830.0,3443.4939,N,08633.1295,W,1,,,227.0,M,,M,,*77
$GPRMC,223830.0,A,3443.4939,N,08633.1295,W,,,241218,,*13
$GPGGA,223900.0,3443.4938,N,08633.1295,W,1,,,229.9,M,,M,,*73
$GPRMC,223900.0,A,3443.4938,N,08633.1295,W,,,241218,,*10
$GPGGA,223930.0,3443.4938,N,08633.1295,W,1,,,228.7,M,,M,,*7F
$GPRMC,223930.0,A,3443.4938,N,08633.1295,W,,,241218,,*13
$GPGGA,224000.0,3443.4938,N,08633.1295,W,1,,,229.1,M,,M,,*75
$GPRMC,224000.0,A,3443.4938,N,08633.1295,W,,,241218,,*1E
$GPGGA,224030.0,3443.4938,N,08633.1295,W,1,,,229.0,M,,M,,*77
$GPRMC,224030.0,A,3443.4938,N,08633.1295,W,,,241218,,*1D
$GPGGA,224100.0,3443.4938,N,08633.1295,W,1,,,229.8,M,,M,,*7D
$GPRMC,224100.0,A,3443.4938,N,08633.1295,W,,,241218,,*1F
$GPGGA,224130.0,3443.4939,N,08633.1295,W,1,,,229.9,M,,M,,*7E
$GPRMC,224130.0,A,3443.4939,N,08633.1295,W,,,241218,,*1D
$GPGGA,224200.0,3443.4939,N,08633.1294,W,1,,,230.2,M,,M,,*7C
$GPRMC,224200.0,A,3443.4939,N,08633.1294,W,,,241218,,*1C
$GPGGA,224230.0,3443.4939,N,08633.1294,W,1,,,230.3,M,,M,,*7E
$GPRMC,224230.0,A,3443.4939,N,08633.1294,W,,,241218,,*1F
$GPGGA,224300.0,3443.4939,N,08633.1294,W,1,,,230.8,M,,M,,*77
$GPRMC,224300.0,A,3443.4939,N,08633.1294,W,,,241218,,*1D
$GPGGA,224330.0,3443.4940,N,08633.1294,W,1,,,230.2,M,,M,,*70
$GPRMC,224330.0,A,3443.4940,N,08633.1294,W,,,241218,,*10
$GPGGA,224400.0,3443.4974,N,08633.1256,W,1,,,214.5,M,,M,,*7C
$GPRMC,224400.0,A,3443.4974,N,08633.1256,W,,,241218,,*1D
$GPGGA,224430.0,3443.4957,N,08633.1296,W,1,,,218.0,M,,M,,*7B
$GPRMC,224430.0,A,3443.4957,N,08633.1296,W,,,241218,,*13
$GPGGA,224500.0,3443.4957,N,08633.1295,W,1,,,224.8,M,,M,,*7D
$GPRMC,224500.0,A,3443.4957,N,08633.1295,W,,,241218,,*12
$GPGGA,224530.0,3443.4952,N,08633.1293,W,1,,,231.1,M,,M,,*70
$GPRMC,224530.0,A,3443.4952,N,08633.1293,W,,,241218,,*12
$GPGGA,224600.1,3443.4948,N,08633.1275,W,1,,,231.0,M,,M,,*73
$GPRMC,224600.1,A,3443.4948,N,08633.1275,W,,,241218,,*10
$GPGGA,224630.0,3443.4910,N,08633.1303,W,1,,,8.3,M,,M,,*77
$GPRMC,224630.0,A,3443.4910,N,08633.1303,W,,,241218,,*1F
$GPGGA,224700.0,3443.4996,N,08633.1180,W,1,,,231.3,M,,M,,*7A
$GPRMC,224700.0,A,3443.4996,N,08633.1180,W,,,241218,,*1A
$GPGGA,224730.0,3443.4995,N,08633.1181,W,1,,,226.5,M,,M,,*7B
$GPRMC,224730.0,A,3443.4995,N,08633.1181,W,,,241218,,*1B
$GPGGA,224800.0,3443.4992,N,08633.1184,W,1,,,233.5,M,,M,,*71
$GPRMC,224800.0,A,3443.4992,N,08633.1184,W,,,241218,,*15
$GPGGA,224830.0,3443.4984,N,08633.1186,W,1,,,236.9,M,,M,,*7E
$GPRMC,224830.0,A,3443.4984,N,08633.1186,W,,,241218,,*13
$GPGGA,224900.0,3443.4979,N,08633.1202,W,1,,,232.8,M,,M,,*74
$GPRMC,224900.0,A,3443.4979,N,08633.1202,W,,,241218,,*1C
$GPGGA,224930.0,3443.4920,N,08633.1315,W,1,,,237.4,M,,M,,*75
$GPRMC,224930.0,A,3443.4920,N,08633.1315,W,,,241218,,*14
$GPGGA,225000.0,3443.4882,N,08633.1349,W,1,,,245.9,M,,M,,*76
$GPRMC,225000.0,A,3443.4882,N,08633.1349,W,,,241218,,*1F
$GPGGA,225030.0,3443.4896,N,08633.1355,W,1,,,232.4,M,,M,,*70
$GPRMC,225030.0,A,3443.4896,N,08633.1355,W,,,241218,,*14
$GPGGA,225330.0,3443.4848,N,08633.1533,W,1,,,222.2,M,,M,,*71
$GPRMC,225330.0,A,3443.4848,N,08633.1533,W,,,241218,,*12
$GPGGA,225400.0,3443.4867,N,08633.1517,W,1,,,223.4,M,,M,,*79
$GPRMC,225400.0,A,3443.4867,N,08633.1517,W,,,241218,,*1D
$GPGGA,225430.0,3443.4867,N,08633.1517,W,1,,,225.1,M,,M,,*79
$GPRMC,225430.0,A,3443.4867,N,08633.1517,W,,,241218,,*1E
$GPGGA,225500.0,3443.4919,N,08633.1462,W,1,,,220.1,M,,M,,*75
$GPRMC,225500.0,A,3443.4919,N,08633.1462,W,,,241218,,*17
$GPGGA,225800.0,3443.4896,N,08633.1414,W,1,,,231.4,M,,M,,*7A
$GPRMC,225800.0,A,3443.4896,N,08633.1414,W,,,241218,,*1D
$GPGGA,225930.0,3443.4886,N,08633.1395,W,1,,,227.4,M,,M,,*70
$GPRMC,225930.0,A,3443.4886,N,08633.1395,W,,,241218,,*10
$GPGGA,230000.0,3443.4891,N,08633.1359,W,1,,,247.6,M,,M,,*7C
$GPRMC,230000.0,A,3443.4891,N,08633.1359,W,,,241218,,*18
$GPGGA,230030.0,3443.4871,N,08633.1245,W,1,,,219.5,M,,M,,*75
$GPRMC,230030.0,A,3443.4871,N,08633.1245,W,,,241218,,*19
$GPGGA,230100.0,3443.5100,N,08633.1332,W,1,,,226.1,M,,M,,*70
$GPRMC,230100.0,A,3443.5100,N,08633.1332,W,,,241218,,*14
$GPGGA,230130.0,3443.5013,N,08633.1272,W,1,,,214.9,M,,M,,*7C
$GPRMC,230130.0,A,3443.5013,N,08633.1272,W,,,241218,,*11
$GPGGA,230200.0,3443.5010,N,08633.1273,W,1,,,216.0,M,,M,,*75
$GPRMC,230200.0,A,3443.5010,N,08633.1273,W,,,241218,,*13
$GPGGA,230230.0,3443.5008,N,08633.1274,W,1,,,215.9,M,,M,,*72
$GPRMC,230230.0,A,3443.5008,N,08633.1274,W,,,241218,,*1E
$GPGGA,230300.0,3443.5005,N,08633.1275,W,1,,,214.2,M,,M,,*76
$GPRMC,230300.0,A,3443.5005,N,08633.1275,W,,,241218,,*10
$GPGGA,230330.0,3443.5002,N,08633.1275,W,1,,,214.6,M,,M,,*76
$GPRMC,230330.0,A,3443.5002,N,08633.1275,W,,,241218,,*14
$GPGGA,230400.0,3443.4996,N,08633.1285,W,1,,,215.7,M,,M,,*78
$GPRMC,230400.0,A,3443.4996,N,08633.1285,W,,,241218,,*1A
$GPGGA,230430.0,3443.4993,N,08633.1286,W,1,,,216.0,M,,M,,*79
$GPRMC,230430.0,A,3443.4993,N,08633.1286,W,,,241218,,*1F
$GPGGA,230500.0,3443.4991,N,08633.1286,W,1,,,216.6,M,,M,,*7F
$GPRMC,230500.0,A,3443.4991,N,08633.1286,W,,,241218,,*1F
$GPGGA,230530.0,3443.4989,N,08633.1286,W,1,,,216.8,M,,M,,*7B
$GPRMC,230530.0,A,3443.4989,N,08633.1286,W,,,241218,,*15
$GPGGA,230600.0,3443.4988,N,08633.1286,W,1,,,217.0,M,,M,,*73
$GPRMC,230600.0,A,3443.4988,N,08633.1286,W,,,241218,,*14
$GPGGA,230630.0,3443.4986,N,08633.1286,W,1,,,217.2,M,,M,,*7C
$GPRMC,230630.0,A,3443.4986,N,08633.1286,W,,,241218,,*19
$GPGGA,230700.0,3443.4984,N,08633.1287,W,1,,,217.3,M,,M,,*7C
$GPRMC,230700.0,A,3443.4984,N,08633.1287,W,,,241218,,*18
$GPGGA,230730.0,3443.4982,N,08633.1287,W,1,,,217.6,M,,M,,*7C
$GPRMC,230730.0,A,3443.4982,N,08633.1287,W,,,241218,,*1D
$GPGGA,230800.0,3443.4979,N,08633.1287,W,1,,,217.7,M,,M,,*75
$GPRMC,230800.0,A,3443.4979,N,08633.1287,W,,,241218,,*15
$GPGGA,230830.0,3443.4964,N,08633.1285,W,1,,,217.6,M,,M,,*79
$GPRMC,230830.0,A,3443.4964,N,08633.1285,W,,,241218,,*18
$GPGGA,230900.1,3443.4962,N,08633.1285,W,1,,,217.6,M,,M,,*7C
$GPRMC,230900.1,A,3443.4962,N,08633.1285,W,,,241218,,*1D
$GPGGA,230930.0,3443.4961,N,08633.1285,W,1,,,218.2,M,,M,,*76
$GPRMC,230930.0,A,3443.4961,N,08633.1285,W,,,241218,,*1C
$GPGGA,231000.0,3443.4960,N,08633.1285,W,1,,,217.9,M,,M,,*78
$GPRMC,231000.0,A,3443.4960,N,08633.1285,W,,,241218,,*16
$GPGGA,231030.0,3443.4935,N,08633.1273,W,1,,,221.7,M,,M,,*79
$GPRMC,231030.0,A,3443.4935,N,08633.1273,W,,,241218,,*1C
$GPGGA,231100.0,3443.4935,N,08633.1273,W,1,,,221.8,M,,M,,*74
$GPRMC,231100.0,A,3443.4935,N,08633.1273,W,,,241218,,*1E
$GPGGA,231130.0,3443.4934,N,08633.1274,W,1,,,221.7,M,,M,,*7E
$GPRMC,231130.0,A,3443.4934,N,08633.1274,W,,,241218,,*1B
$GPGGA,231200.0,3443.4932,N,08633.1279,W,1,,,218.5,M,,M,,*7D
$GPRMC,231200.0,A,3443.4932,N,08633.1279,W,,,241218,,*10
$GPGGA,231230.0,3443.4932,N,08633.1279,W,1,,,219.1,M,,M,,*7B
$GPRMC,231230.0,A,3443.4932,N,08633.1279,W,,,241218,,*13
$GPGGA,231300.0,3443.4932,N,08633.1242,W,1,,,215.3,M,,M,,*7F
$GPRMC,231300.0,A,3443.4932,N,08633.1242,W,,,241218,,*19
$GPGGA,231330.0,3443.4931,N,08633.1243,W,1,,,215.7,M,,M,,*7A
$GPRMC,231330.0,A,3443.4931,N,08633.1243,W,,,241218,,*18
$GPGGA,231400.0,3443.4924,N,08633.1251,W,1,,,213.0,M,,M,,*78
$GPRMC,231400.0,A,3443.4924,N,08633.1251,W,,,241218,,*1B
$GPGGA,231430.0,3443.4919,N,08633.1261,W,1,,,213.1,M,,M,,*77
$GPRMC,231430.0,A,3443.4919,N,08633.1261,W,,,241218,,*15
$GPGGA,231500.0,3443.4920,N,08633.1260,W,1,,,216.1,M,,M,,*7B
$GPRMC,231500.0,A,3443.4920,N,08633.1260,W,,,241218,,*1C
$GPGGA,231530.0,3443.4924,N,08633.1255,W,1,,,218.7,M,,M,,*72
$GPRMC,231530.0,A,3443.4924,N,08633.1255,W,,,241218,,*1D
$GPGGA,231600.0,3443.4924,N,08633.1238,W,1,,,228.9,M,,M,,*74
$GPRMC,231600.0,A,3443.4924,N,08633.1238,W,,,241218,,*16
$GPGGA,231630.0,3443.4780,N,08633.1316,W,1,,,229.2,M,,M,,*70
$GPRMC,231630.0,A,3443.4780,N,08633.1316,W,,,241218,,*18
$GPGGA,231700.0,3443.4828,N,08633.1345,W,1,,,218.7,M,,M,,*7E
$GPRMC,231700.0,A,3443.4828,N,08633.1345,W,,,241218,,*11
$GPGGA,231730.0,3443.4833,N,08633.1344,W,1,,,222.0,M,,M,,*78
$GPRMC,231730.0,A,3443.4833,N,08633.1344,W,,,241218,,*19
$GPGGA,231800.0,3443.4835,N,08633.1307,W,1,,,219.4,M,,M,,*79
$GPRMC,231800.0,A,3443.4835,N,08633.1307,W,,,241218,,*14
$GPGGA,231830.0,3443.4841,N,08633.1307,W,1,,,215.8,M,,M,,*79
$GPRMC,231830.0,A,3443.4841,N,08633.1307,W,,,241218,,*14
$GPGGA,231900.0,3443.4844,N,08633.1306,W,1,,,218.7,M,,M,,*7D
$GPRMC,231900.0,A,3443.4844,N,08633.1306,W,,,241218,,*12
$GPGGA,231930.0,3443.4847,N,08633.1306,W,1,,,219.8,M,,M,,*73
$GPRMC,231930.0,A,3443.4847,N,08633.1306,W,,,241218,,*12
$GPGGA,232000.0,3443.4849,N,08633.1305,W,1,,,219.1,M,,M,,*7E
$GPRMC,232000.0,A,3443.4849,N,08633.1305,W,,,241218,,*16
$GPGGA,232030.0,3443.4852,N,08633.1305,W,1,,,217.2,M,,M,,*7A
$GPRMC,232030.0,A,3443.4852,N,08633.1305,W,,,241218,,*1F
$GPGGA,232100.0,3443.4856,N,08633.1305,W,1,,,217.5,M,,M,,*7B
$GPRMC,232100.0,A,3443.4856,N,08633.1305,W,,,241218,,*19
$GPGGA,232130.0,3443.4879,N,08633.1274,W,1,,,229.2,M,,M,,*78
$GPRMC,232130.0,A,3443.4879,N,08633.1274,W,,,241218,,*10
$GPGGA,232200.0,3443.4877,N,08633.1262,W,1,,,229.5,M,,M,,*76
$GPRMC,232200.0,A,3443.4877,N,08633.1262,W,,,241218,,*19
$GPGGA,232230.0,3443.4882,N,08633.1242,W,1,,,235.2,M,,M,,*77
$GPRMC,232230.0,A,3443.4882,N,08633.1242,W,,,241218,,*12
$GPGGA,232300.0,3443.4880,N,08633.1239,W,1,,,235.5,M,,M,,*7C
$GPRMC,232300.0,A,3443.4880,N,08633.1239,W,,,241218,,*1E
$GPGGA,232330.0,3443.4881,N,08633.1241,W,1,,,235.7,M,,M,,*73
$GPRMC,232330.0,A,3443.4881,N,08633.1241,W,,,241218,,*13
$GPGGA,232400.0,3443.4882,N,08633.1247,W,1,,,237.9,M,,M,,*7E
$GPRMC,232400.0,A,3443.4882,N,08633.1247,W,,,241218,,*12
$GPGGA,232430.0,3443.4890,N,08633.1255,W,1,,,232.3,M,,M,,*72
$GPRMC,232430.0,A,3443.4890,N,08633.1255,W,,,241218,,*11
$GPGGA,232500.0,3443.4962,N,08633.1350,W,1,,,180.1,M,,M,,*70
$GPRMC,232500.0,A,3443.4962,N,08633.1350,W,,,241218,,*1B
$GPGGA,232530.0,3443.4947,N,08633.1337,W,1,,,211.9,M,,M,,*76
$GPRMC,232530.0,A,3443.4947,N,08633.1337,W,,,241218,,*1E
$GPGGA,232600.0,3443.4945,N,08633.1335,W,1,,,219.5,M,,M,,*72
$GPRMC,232600.0,A,3443.4945,N,08633.1335,W,,,241218,,*1E
$GPGGA,232630.0,3443.4942,N,08633.1334,W,1,,,224.7,M,,M,,*7B
$GPRMC,232630.0,A,3443.4942,N,08633.1334,W,,,241218,,*1B
$GPGGA,232700.0,3443.4937,N,08633.1334,W,1,,,222.0,M,,M,,*7A
$GPRMC,232700.0,A,3443.4937,N,08633.1334,W,,,241218,,*1B
$GPGGA,232730.0,3443.4926,N,08633.1330,W,1,,,209.9,M,,M,,*7D
$GPRMC,232730.0,A,3443.4926,N,08633.1330,W,,,241218,,*1C
$GPGGA,232800.0,3443.4923,N,08633.1324,W,1,,,211.0,M,,M,,*71
$GPRMC,232800.0,A,3443.4923,N,08633.1324,W,,,241218,,*10
$GPGGA,232830.0,3443.4914,N,08633.1325,W,1,,,199.8,M,,M,,*7C
$GPRMC,232830.0,A,3443.4914,N,08633.1325,W,,,241218,,*16
$GPGGA,232900.0,3443.4914,N,08633.1321,W,1,,,189.2,M,,M,,*71
$GPRMC,232900.0,A,3443.4914,N,08633.1321,W,,,241218,,*10
$GPGGA,232930.1,3443.4909,N,08633.1316,W,1,,,196.6,M,,M,,*71
$GPRMC,232930.1,A,3443.4909,N,08633.1316,W,,,241218,,*1A
$GPGGA,233000.0,3443.4909,N,08633.1315,W,1,,,197.9,M,,M,,*76
$GPRMC,233000.0,A,3443.4909,N,08633.1315,W,,,241218,,*13
$GPGGA,233030.0,3443.4834,N,08633.1283,W,1,,,199.4,M,,M,,*77
$GPRMC,233030.0,A,3443.4834,N,08633.1283,W,,,241218,,*11
$GPGGA,233100.0,3443.4906,N,08633.1305,W,1,,,216.9,M,,M,,*73
$GPRMC,233100.0,A,3443.4906,N,08633.1305,W,,,241218,,*1C
$GPGGA,233230.0,3443.4869,N,08633.1311,W,1,,,240.7,M,,M,,*73
$GPRMC,233230.0,A,3443.4869,N,08633.1311,W,,,241218,,*11
$GPGGA,233300.0,3443.4875,N,08633.1304,W,1,,,224.8,M,,M,,*75
$GPRMC,233300.0,A,3443.4875,N,08633.1304,W,,,241218,,*1A
$GPGGA,233330.0,3443.4882,N,08633.1295,W,1,,,217.7,M,,M,,*78
$GPRMC,233330.0,A,3443.4882,N,08633.1295,W,,,241218,,*18
$GPGGA,233400.0,3443.4893,N,08633.1296,W,1,,,219.9,M,,M,,*7F
$GPRMC,233400.0,A,3443.4893,N,08633.1296,W,,,241218,,*1F
$GPGGA,233430.0,3443.4898,N,08633.1299,W,1,,,217.0,M,,M,,*7F
$GPRMC,233430.0,A,3443.4898,N,08633.1299,W,,,241218,,*18
$GPGGA,233500.0,3443.4893,N,08633.1307,W,1,,,220.0,M,,M,,*74
$GPRMC,233500.0,A,3443.4893,N,08633.1307,W,,,241218,,*17
$GPGGA,233530.0,3443.4891,N,08633.1323,W,1,,,221.8,M,,M,,*7A
$GPRMC,233530.0,A,3443.4891,N,08633.1323,W,,,241218,,*10
$GPGGA,233830.0,3443.4939,N,08633.1319,W,1,,,221.8,M,,M,,*7D
$GPRMC,233830.0,A,3443.4939,N,08633.1319,W,,,241218,,*17
$GPGGA,233900.0,3443.4932,N,08633.1310,W,1,,,221.8,M,,M,,*7D
$GPRMC,233900.0,A,3443.4932,N,08633.1310,W,,,241218,,*17
$GPGGA,233930.0,3443.4936,N,08633.1306,W,1,,,222.3,M,,M,,*75
$GPRMC,233930.0,A,3443.4936,N,08633.1306,W,,,241218,,*17
$GPGGA,234000.0,3443.4926,N,08633.1306,W,1,,,222.4,M,,M,,*7E
$GPRMC,234000.0,A,3443.4926,N,08633.1306,W,,,241218,,*1B
$GPGGA,234030.0,3443.4921,N,08633.1305,W,1,,,222.4,M,,M,,*79
$GPRMC,234030.0,A,3443.4921,N,08633.1305,W,,,241218,,*1C
$GPGGA,234100.0,3443.4927,N,08633.1300,W,1,,,222.1,M,,M,,*7D
$GPRMC,234100.0,A,3443.4927,N,08633.1300,W,,,241218,,*1D
$GPGGA,234130.0,3443.4927,N,08633.1300,W,1,,,221.3,M,,M,,*7F
$GPRMC,234130.0,A,3443.4927,N,08633.1300,W,,,241218,,*1E
$GPGGA,234200.0,3443.4927,N,08633.1300,W,1,,,220.9,M,,M,,*74
$GPRMC,234200.0,A,3443.4927,N,08633.1300,W,,,241218,,*1E
$GPGGA,234230.1,3443.4919,N,08633.1292,W,1,,,214.8,M,,M,,*77
$GPRMC,234230.1,A,3443.4919,N,08633.1292,W,,,241218,,*1B
$GPGGA,234300.0,3443.4919,N,08633.1292,W,1,,,214.9,M,,M,,*75
$GPRMC,234300.0,A,3443.4919,N,08633.1292,W,,,241218,,*18
$GPGGA,234330.0,3443.4919,N,08633.1292,W,1,,,214.8,M,,M,,*77
$GPRMC,234330.0,A,3443.4919,N,08633.1292,W,,,241218,,*1B
$GPGGA,234400.0,3443.4919,N,08633.1291,W,1,,,214.2,M,,M,,*7A
$GPRMC,234400.0,A,3443.4919,N,08633.1291,W,,,241218,,*1C
$GPGGA,234430.0,3443.4919,N,08633.1291,W,1,,,214.3,M,,M,,*78
$GPRMC,234430.0,A,3443.4919,N,08633.1291,W,,,241218,,*1F
$GPGGA,234500.0,3443.4919,N,08633.1291,W,1,,,214.0,M,,M,,*79
$GPRMC,234500.0,A,3443.4919,N,08633.1291,W,,,241218,,*1D
$GPGGA,234530.0,3443.4918,N,08633.1291,W,1,,,214.3,M,,M,,*78
$GPRMC,234530.0,A,3443.4918,N,08633.1291,W,,,241218,,*1F
$GPGGA,234600.0,3443.4918,N,08633.1291,W,1,,,214.4,M,,M,,*7F
$GPRMC,234600.0,A,3443.4918,N,08633.1291,W,,,241218,,*1F
$GPGGA,234630.0,3443.4918,N,08633.1297,W,1,,,219.2,M,,M,,*71
$GPRMC,234630.0,A,3443.4918,N,08633.1297,W,,,241218,,*1A
$GPGGA,234700.1,3443.4924,N,08633.1297,W,1,,,207.5,M,,M,,*75
$GPRMC,234700.1,A,3443.4924,N,08633.1297,W,,,241218,,*16
$GPGGA,234730.4,3443.4924,N,08633.1298,W,1,,,206.4,M,,M,,*7C
$GPRMC,234730.4,A,3443.4924,N,08633.1298,W,,,241218,,*1F
$GPGGA,234800.0,3443.4927,N,08633.1298,W,1,,,201.4,M,,M,,*70
$GPRMC,234800.0,A,3443.4927,N,08633.1298,W,,,241218,,*14
$GPGGA,234830.0,3443.4927,N,08633.1299,W,1,,,201.0,M,,M,,*76
$GPRMC,234830.0,A,3443.4927,N,08633.1299,W,,,241218,,*16
$GPGGA,234900.0,3443.4928,N,08633.1303,W,1,,,195.0,M,,M,,*77
$GPRMC,234900.0,A,3443.4928,N,08633.1303,W,,,241218,,*19
$GPGGA,234930.0,3443.4928,N,08633.1303,W,1,,,195.0,M,,M,,*74
$GPRMC,234930.0,A,3443.4928,N,08633.1303,W,,,241218,,*1A
$GPGGA,235000.0,3443.4936,N,08633.1295,W,1,,,189.2,M,,M,,*71
$GPRMC,235000.0,A,3443.4936,N,08633.1295,W,,,241218,,*10
$GPGGA,235030.0,3443.4936,N,08633.1295,W,1,,,189.4,M,,M,,*74
$GPRMC,235030.0,A,3443.4936,N,08633.1295,W,,,241218,,*13
$GPGGA,235100.0,3443.4943,N,08633.1277,W,1,,,173.7,M,,M,,*7E
$GPRMC,235100.0,A,3443.4943,N,08633.1277,W,,,241218,,*1F
$GPGGA,235130.0,3443.4932,N,08633.1297,W,1,,,193.2,M,,M,,*7E
$GPRMC,235130.0,A,3443.4932,N,08633.1297,W,,,241218,,*14
$GPGGA,235200.0,3443.4932,N,08633.1297,W,1,,,197.3,M,,M,,*7B
$GPRMC,235200.0,A,3443.4932,N,08633.1297,W,,,241218,,*14
$GPGGA,235230.0,3443.4942,N,08633.1283,W,1,,,183.1,M,,M,,*7D
$GPRMC,235230.0,A,3443.4942,N,08633.1283,W,,,241218,,*15
$GPGGA,235300.0,3443.4940,N,08633.1264,W,1,,,175.3,M,,M,,*7F
$GPRMC,235300.0,A,3443.4940,N,08633.1264,W,,,241218,,*1C
$GPGGA,235330.0,3443.4968,N,08633.1275,W,1,,,178.4,M,,M,,*7C
$GPRMC,235330.0,A,3443.4968,N,08633.1275,W,,,241218,,*15
$GPGGA,235400.0,3443.4959,N,08633.1271,W,1,,,188.9,M,,M,,*7C
$GPRMC,235400.0,A,3443.4959,N,08633.1271,W,,,241218,,*17
$GPGGA,235430.0,3443.4952,N,08633.1300,W,1,,,196.5,M,,M,,*70
$GPRMC,235430.0,A,3443.4952,N,08633.1300,W,,,241218,,*18
$GPGGA,235500.0,3443.4954,N,08633.1290,W,1,,,200.1,M,,M,,*74
$GPRMC,235500.0,A,3443.4954,N,08633.1290,W,,,241218,,*14
$GPGGA,235530.0,3443.4949,N,08633.1290,W,1,,,207.8,M,,M,,*75
$GPRMC,235530.0,A,3443.4949,N,08633.1290,W,,,241218,,*1B
$GPGGA,235600.0,3443.4949,N,08633.1290,W,1,,,208.7,M,,M,,*75
$GPRMC,235600.0,A,3443.4949,N,08633.1290,W,,,241218,,*1B
$GPGGA,235630.1,3443.4948,N,08633.1289,W,1,,,210.5,M,,M,,*75
$GPRMC,235630.1,A,3443.4948,N,08633.1289,W,,,241218,,*10
$GPGGA,235700.0,3443.4937,N,08633.1295,W,1,,,216.5,M,,M,,*75
$GPRMC,235700.0,A,3443.4937,N,08633.1295,W,,,241218,,*16
$GPGGA,235730.0,3443.4933,N,08633.1292,W,1,,,220.8,M,,M,,*7D
$GPRMC,235730.0,A,3443.4933,N,08633.1292,W,,,241218,,*16
$GPGGA,235800.0,3443.4936,N,08633.1286,W,1,,,221.1,M,,M,,*79
$GPRMC,235800.0,A,3443.4936,N,08633.1286,W,,,241218,,*1A
$GPGGA,235830.0,3443.4941,N,08633.1279,W,1,,,214.2,M,,M,,*7F
$GPRMC,235830.0,A,3443.4941,N,08633.1279,W,,,241218,,*19
$GPGGA,235900.0,3443.4941,N,08633.1278,W,1,,,213.3,M,,M,,*7A
$GPRMC,235900.0,A,3443.4941,N,08633.1278,W,,,241218,,*1A
$GPGGA,000130.0,3443.5004,N,08633.1250,W,1,,,212.8,M,,M,,*7C
$GPRMC,000130.0,A,3443.5004,N,08633.1250,W,,,251218,,*17
$GPGGA,000200.0,3443.4983,N,08633.1261,W,1,,,212.8,M,,M,,*79
$GPRMC,000200.0,A,3443.4983,N,08633.1261,W,,,251218,,*12
$GPGGA,000230.0,3443.4978,N,08633.1264,W,1,,,212.8,M,,M,,*7B
$GPRMC,000230.0,A,3443.4978,N,08633.1264,W,,,251218,,*10
$GPGGA,000300.0,3443.4969,N,08633.1272,W,1,,,212.8,M,,M,,*7E
$GPRMC,000300.0,A,3443.4969,N,08633.1272,W,,,251218,,*15
$GPGGA,000330.0,3443.4969,N,08633.1271,W,1,,,212.8,M,,M,,*7E
$GPRMC,000330.0,A,3443.4969,N,08633.1271,W,,,251218,,*15
$GPGGA,000400.0,3443.4967,N,08633.1274,W,1,,,212.8,M,,M,,*71
$GPRMC,000400.0,A,3443.4967,N,08633.1274,W,,,251218,,*1A
$GPGGA,000430.0,3443.4994,N,08633.1223,W,1,,,212.8,M,,M,,*7C
$GPRMC,000430.0,A,3443.4994,N,08633.1223,W,,,251218,,*17
$GPGGA,000500.0,3443.4986,N,08633.1276,W,1,,,212.8,M,,M,,*7D
$GPRMC,000500.0,A,3443.4986,N,08633.1276,W,,,251218,,*16
$GPGGA,000530.0,3443.5008,N,08633.1265,W,1,,,219.1,M,,M,,*70
$GPRMC,000530.0,A,3443.5008,N,08633.1265,W,,,251218,,*19
$GPGGA,000600.0,3443.5006,N,08633.1266,W,1,,,215.2,M,,M,,*72
$GPRMC,000600.0,A,3443.5006,N,08633.1266,W,,,251218,,*14
$GPGGA,000630.0,3443.5004,N,08633.1266,W,1,,,220.3,M,,M,,*74
$GPRMC,000630.0,A,3443.5004,N,08633.1266,W,,,251218,,*15
$GPGGA,000700.0,3443.4983,N,08633.1280,W,1,,,222.7,M,,M,,*7F
$GPRMC,000700.0,A,3443.4983,N,08633.1280,W,,,251218,,*18
$GPGGA,000730.0,3443.4972,N,08633.1280,W,1,,,220.1,M,,M,,*76
$GPRMC,000730.0,A,3443.4972,N,08633.1280,W,,,251218,,*15
$GPGGA,000800.0,3443.4965,N,08633.1279,W,1,,,219.0,M,,M,,*71
$GPRMC,000800.0,A,3443.4965,N,08633.1279,W,,,251218,,*19
$GPGGA,000830.0,3443.4961,N,08633.1278,W,1,,,217.4,M,,M,,*7D
$GPRMC,000830.0,A,3443.4961,N,08633.1278,W,,,251218,,*1F
$GPGGA,000900.0,3443.4958,N,08633.1277,W,1,,,217.4,M,,M,,*7A
$GPRMC,000900.0,A,3443.4958,N,08633.1277,W,,,251218,,*18
$GPGGA,000930.0,3443.4957,N,08633.1275,W,1,,,217.4,M,,M,,*74
$GPRMC,000930.0,A,3443.4957,N,08633.1275,W,,,251218,,*16
$GPGGA,001000.0,3443.4957,N,08633.1275,W,1,,,217.2,M,,M,,*79
$GPRMC,001000.0,A,3443.4957,N,08633.1275,W,,,251218,,*1D
$GPGGA,001030.0,3443.4931,N,08633.1301,W,1,,,214.8,M,,M,,*71
$GPRMC,001030.0,A,3443.4931,N,08633.1301,W,,,251218,,*1C
$GPGGA,001100.0,3443.4931,N,08633.1300,W,1,,,214.7,M,,M,,*7D
$GPRMC,001100.0,A,3443.4931,N,08633.1300,W,,,251218,,*1F
$GPGGA,001130.0,3443.4930,N,08633.1299,W,1,,,215.0,M,,M,,*78
$GPRMC,001130.0,A,3443.4930,N,08633.1299,W,,,251218,,*1C
$GPGGA,001200.0,3443.4930,N,08633.1297,W,1,,,214.9,M,,M,,*7E
$GPRMC,001200.0,A,3443.4930,N,08633.1297,W,,,251218,,*12
$GPGGA,001230.0,3443.4929,N,08633.1296,W,1,,,214.9,M,,M,,*74
$GPRMC,001230.0,A,3443.4929,N,08633.1296,W,,,251218,,*18
$GPGGA,001300.0,3443.4929,N,08633.1295,W,1,,,215.2,M,,M,,*7F
$GPRMC,001300.0,A,3443.4929,N,08633.1295,W,,,251218,,*19
$GPGGA,001330.0,3443.4933,N,08633.1294,W,1,,,215.3,M,,M,,*77
$GPRMC,001330.0,A,3443.4933,N,08633.1294,W,,,251218,,*10
$GPGGA,001400.0,3443.4935,N,08633.1293,W,1,,,215.2,M,,M,,*73
$GPRMC,001400.0,A,3443.4935,N,08633.1293,W,,,251218,,*15
$GPGGA,001430.0,3443.4937,N,08633.1292,W,1,,,214.9,M,,M,,*79
$GPRMC,001430.0,A,3443.4937,N,08633.1292,W,,,251218,,*15
$GPGGA,001500.0,3443.4940,N,08633.1291,W,1,,,214.6,M,,M,,*77
$GPRMC,001500.0,A,3443.4940,N,08633.1291,W,,,251218,,*14
$GPGGA,001530.0,3443.4946,N,08633.1288,W,1,,,213.4,M,,M,,*7F
$GPRMC,001530.0,A,3443.4946,N,08633.1288,W,,,251218,,*19
$GPGGA,001600.0,3443.4950,N,08633.1286,W,1,,,212.2,M,,M,,*71
$GPRMC,001600.0,A,3443.4950,N,08633.1286,W,,,251218,,*10
$GPGGA,001630.0,3443.4952,N,08633.1286,W,1,,,211.2,M,,M,,*73
$GPRMC,001630.0,A,3443.4952,N,08633.1286,W,,,251218,,*11
$GPGGA,001700.0,3443.4951,N,08633.1286,W,1,,,210.5,M,,M,,*74
$GPRMC,001700.0,A,3443.4951,N,08633.1286,W,,,251218,,*10
$GPGGA,001730.0,3443.4943,N,08633.1288,W,1,,,212.0,M,,M,,*7D
$GPRMC,001730.0,A,3443.4943,N,08633.1288,W,,,251218,,*1E
$GPGGA,001800.0,3443.4955,N,08633.1284,W,1,,,211.2,M,,M,,*7B
$GPRMC,001800.0,A,3443.4955,N,08633.1284,W,,,251218,,*19
$GPGGA,001830.0,3443.4969,N,08633.1290,W,1,,,207.5,M,,M,,*72
$GPRMC,001830.0,A,3443.4969,N,08633.1290,W,,,251218,,*10
$GPGGA,001900.0,3443.5005,N,08633.1304,W,1,,,195.2,M,,M,,*71
$GPRMC,001900.0,A,3443.5005,N,08633.1304,W,,,251218,,*1C
$GPGGA,001930.0,3443.5000,N,08633.1301,W,1,,,197.9,M,,M,,*7B
$GPRMC,001930.0,A,3443.5000,N,08633.1301,W,,,251218,,*1F
$GPGGA,002000.0,3443.4999,N,08633.1301,W,1,,,199.3,M,,M,,*7E
$GPRMC,002000.0,A,3443.4999,N,08633.1301,W,,,251218,,*1E
$GPGGA,002030.0,3443.4997,N,08633.1301,W,1,,,200.4,M,,M,,*77
$GPRMC,002030.0,A,3443.4997,N,08633.1301,W,,,251218,,*13
$GPGGA,002100.0,3443.4981,N,08633.1337,W,1,,,193.6,M,,M,,*7C
$GPRMC,002100.0,A,3443.4981,N,08633.1337,W,,,251218,,*13
$GPGGA,002130.0,3443.4972,N,08633.1344,W,1,,,195.1,M,,M,,*76
$GPRMC,002130.0,A,3443.4972,N,08633.1344,W,,,251218,,*18
$GPGGA,002200.0,3443.4971,N,08633.1344,W,1,,,197.4,M,,M,,*72
$GPRMC,002200.0,A,3443.4971,N,08633.1344,W,,,251218,,*1B
$GPGGA,002230.0,3443.5002,N,08633.1301,W,1,,,210.3,M,,M,,*77
$GPRMC,002230.0,A,3443.5002,N,08633.1301,W,,,251218,,*15
$GPGGA,002300.0,3443.4993,N,08633.1297,W,1,,,212.9,M,,M,,*73
$GPRMC,002300.0,A,3443.4993,N,08633.1297,W,,,251218,,*19
$GPGGA,002330.0,3443.4992,N,08633.1297,W,1,,,213.1,M,,M,,*78
$GPRMC,002330.0,A,3443.4992,N,08633.1297,W,,,251218,,*1B
$GPGGA,002400.0,3443.5038,N,08633.1304,W,1,,,204.7,M,,M,,*7F
$GPRMC,002400.0,A,3443.5038,N,08633.1304,W,,,251218,,*1C
$GPGGA,002430.0,3443.5044,N,08633.1297,W,1,,,208.7,M,,M,,*70
$GPRMC,002430.0,A,3443.5044,N,08633.1297,W,,,251218,,*1F
$GPGGA,002500.0,3443.5043,N,08633.1297,W,1,,,209.3,M,,M,,*70
$GPRMC,002500.0,A,3443.5043,N,08633.1297,W,,,251218,,*1A
$GPGGA,002530.0,3443.5033,N,08633.1302,W,1,,,207.9,M,,M,,*7D
$GPRMC,002530.0,A,3443.5033,N,08633.1302,W,,,251218,,*13
$GPGGA,002600.0,3443.5029,N,08633.1304,W,1,,,206.6,M,,M,,*7E
$GPRMC,002600.0,A,3443.5029,N,08633.1304,W,,,251218,,*1E
$GPGGA,002630.0,3443.5047,N,08633.1300,W,1,,,207.1,M,,M,,*77
$GPRMC,002630.0,A,3443.5047,N,08633.1300,W,,,251218,,*11
$GPGGA,002700.0,3443.5047,N,08633.1300,W,1,,,205.9,M,,M,,*7F
$GPRMC,002700.0,A,3443.5047,N,08633.1300,W,,,251218,,*13
$GPGGA,002730.0,3443.5044,N,08633.1301,W,1,,,204.2,M,,M,,*74
$GPRMC,002730.0,A,3443.5044,N,08633.1301,W,,,251218,,*12
$GPGGA,002800.0,3443.5038,N,08633.1304,W,1,,,202.3,M,,M,,*71
$GPRMC,002800.0,A,3443.5038,N,08633.1304,W,,,251218,,*10
$GPGGA,002830.0,3443.5055,N,08633.1297,W,1,,,203.2,M,,M,,*72
$GPRMC,002830.0,A,3443.5055,N,08633.1297,W,,,251218,,*13
$GPGGA,002900.0,3443.5057,N,08633.1296,W,1,,,203.5,M,,M,,*74
$GPRMC,002900.0,A,3443.5057,N,08633.1296,W,,,251218,,*12
$GPGGA,002930.0,3443.5083,N,08633.1275,W,1,,,209.6,M,,M,,*7A
$GPRMC,002930.0,A,3443.5083,N,08633.1275,W,,,251218,,*15
$GPGGA,003000.0,3443.5091,N,08633.1266,W,1,,,212.8,M,,M,,*74
$GPRMC,003000.0,A,3443.5091,N,08633.1266,W,,,251218,,*1F
$GPGGA,003030.0,3443.5079,N,08633.1275,W,1,,,210.3,M,,M,,*7A
$GPRMC,003030.0,A,3443.5079,N,08633.1275,W,,,251218,,*18
$GPGGA,003100.0,3443.5091,N,08633.1267,W,1,,,212.8,M,,M,,*74
$GPRMC,003100.0,A,3443.5091,N,08633.1267,W,,,251218,,*1F
$GPGGA,003130.0,3443.5100,N,08633.1246,W,1,,,217.7,M,,M,,*77
$GPRMC,003130.0,A,3443.5100,N,08633.1246,W,,,251218,,*16
$GPGGA,003200.0,3443.5098,N,08633.1246,W,1,,,217.5,M,,M,,*75
$GPRMC,003200.0,A,3443.5098,N,08633.1246,W,,,251218,,*16
$GPGGA,003230.0,3443.5096,N,08633.1249,W,1,,,218.7,M,,M,,*7A
$GPRMC,003230.0,A,3443.5096,N,08633.1249,W,,,251218,,*14
$GPGGA,003300.0,3443.5105,N,08633.1248,W,1,,,222.8,M,,M,,*74
$GPRMC,003300.0,A,3443.5105,N,08633.1248,W,,,251218,,*1C
$GPGGA,003330.0,3443.5083,N,08633.1264,W,1,,,209.7,M,,M,,*70
$GPRMC,003330.0,A,3443.5083,N,08633.1264,W,,,251218,,*1E
$GPGGA,003400.0,3443.5086,N,08633.1261,W,1,,,208.8,M,,M,,*7A
$GPRMC,003400.0,A,3443.5086,N,08633.1261,W,,,251218,,*1A
$GPGGA,003430.0,3443.5076,N,08633.1264,W,1,,,207.8,M,,M,,*7C
$GPRMC,003430.0,A,3443.5076,N,08633.1264,W,,,251218,,*13
$GPGGA,003500.0,3443.5024,N,08633.1273,W,1,,,217.8,M,,M,,*7E
$GPRMC,003500.0,A,3443.5024,N,08633.1273,W,,,251218,,*10
$GPGGA,003530.0,3443.5012,N,08633.1277,W,1,,,219.3,M,,M,,*79
$GPRMC,003530.0,A,3443.5012,N,08633.1277,W,,,251218,,*12
$GPGGA,003600.0,3443.5010,N,08633.1282,W,1,,,220.5,M,,M,,*7D
$GPRMC,003600.0,A,3443.5010,N,08633.1282,W,,,251218,,*1A
$GPGGA,003630.0,3443.4992,N,08633.1287,W,1,,,217.4,M,,M,,*7C
$GPRMC,003630.0,A,3443.4992,N,08633.1287,W,,,251218,,*1E
$GPGGA,003700.0,3443.4998,N,08633.1285,W,1,,,215.9,M,,M,,*79
$GPRMC,003700.0,A,3443.4998,N,08633.1285,W,,,251218,,*14
$GPGGA,003730.0,3443.4997,N,08633.1286,W,1,,,214.1,M,,M,,*7F
$GPRMC,003730.0,A,3443.4997,N,08633.1286,W,,,251218,,*1B
$GPGGA,003800.0,3443.5008,N,08633.1283,W,1,,,214.4,M,,M,,*7D
$GPRMC,003800.0,A,3443.5008,N,08633.1283,W,,,251218,,*1C
$GPGGA,003830.0,3443.5017,N,08633.1281,W,1,,,214.7,M,,M,,*71
$GPRMC,003830.0,A,3443.5017,N,08633.1281,W,,,251218,,*13
$GPGGA,003900.0,3443.5017,N,08633.1281,W,1,,,214.1,M,,M,,*75
$GPRMC,003900.0,A,3443.5017,N,08633.1281,W,,,251218,,*11
$GPGGA,004800.0,3443.4833,N,08633.1350,W,1,,,214.0,M,,M,,*70
$GPRMC,004800.0,A,3443.4833,N,08633.1350,W,,,251218,,*15
$GPGGA,004830.0,3443.4840,N,08633.1347,W,1,,,214.0,M,,M,,*71
$GPRMC,004830.0,A,3443.4840,N,08633.1347,W,,,251218,,*14
$GPGGA,004900.0,3443.4894,N,08633.1312,W,1,,,220.8,M,,M,,*75
$GPRMC,004900.0,A,3443.4894,N,08633.1312,W,,,251218,,*1F
$GPGGA,004930.0,3443.4893,N,08633.1303,W,1,,,210.2,M,,M,,*78
$GPRMC,004930.0,A,3443.4893,N,08633.1303,W,,,251218,,*1B
$GPGGA,005000.0,3443.4893,N,08633.1290,W,1,,,209.7,M,,M,,*75
$GPRMC,005000.0,A,3443.4893,N,08633.1290,W,,,251218,,*1B
$GPGGA,005030.0,3443.4893,N,08633.1287,W,1,,,208.0,M,,M,,*76
$GPRMC,005030.0,A,3443.4893,N,08633.1287,W,,,251218,,*1E
$GPGGA,005200.0,3443.4858,N,08633.1187,W,1,,,208.1,M,,M,,*72
$GPRMC,005200.0,A,3443.4858,N,08633.1187,W,,,251218,,*1B
$GPGGA,005230.0,3443.4890,N,08633.1224,W,1,,,208.1,M,,M,,*7F
$GPRMC,005230.0,A,3443.4890,N,08633.1224,W,,,251218,,*16
$GPGGA,005300.0,3443.4893,N,08633.1259,W,1,,,208.2,M,,M,,*77
$GPRMC,005300.0,A,3443.4893,N,08633.1259,W,,,251218,,*1D
$GPGGA,005330.0,3443.4898,N,08633.1277,W,1,,,209.0,M,,M,,*70
$GPRMC,005330.0,A,3443.4898,N,08633.1277,W,,,251218,,*19
$GPGGA,005400.0,3443.4897,N,08633.1283,W,1,,,208.3,M,,M,,*72
$GPRMC,005400.0,A,3443.4897,N,08633.1283,W,,,251218,,*19
$GPGGA,005430.0,3443.4897,N,08633.1285,W,1,,,208.0,M,,M,,*74
$GPRMC,005430.0,A,3443.4897,N,08633.1285,W,,,251218,,*1C
$GPGGA,005500.0,3443.4897,N,08633.1286,W,1,,,207.4,M,,M,,*7E
$GPRMC,005500.0,A,3443.4897,N,08633.1286,W,,,251218,,*1D
$GPGGA,005530.0,3443.4897,N,08633.1287,W,1,,,207.2,M,,M,,*7A
$GPRMC,005530.0,A,3443.4897,N,08633.1287,W,,,251218,,*1F
$GPGGA,005600.0,3443.4898,N,08633.1287,W,1,,,206.1,M,,M,,*77
$GPRMC,005600.0,A,3443.4898,N,08633.1287,W,,,251218,,*10
$GPGGA,005630.0,3443.4897,N,08633.1288,W,1,,,204.7,M,,M,,*70
$GPRMC,005630.0,A,3443.4897,N,08633.1288,W,,,251218,,*13
$GPGGA,005700.0,3443.4903,N,08633.1282,W,1,,,211.0,M,,M,,*77
$GPRMC,005700.0,A,3443.4903,N,08633.1282,W,,,251218,,*17
$GPGGA,005730.0,3443.4913,N,08633.1284,W,1,,,213.4,M,,M,,*75
$GPRMC,005730.0,A,3443.4913,N,08633.1284,W,,,251218,,*13
$GPGGA,005800.0,3443.4914,N,08633.1281,W,1,,,212.4,M,,M,,*7A
$GPRMC,005800.0,A,3443.4914,N,08633.1281,W,,,251218,,*1D
$GPGGA,005830.0,3443.4903,N,08633.1277,W,1,,,206.3,M,,M,,*74
$GPRMC,005830.0,A,3443.4903,N,08633.1277,W,,,251218,,*11
$GPGGA,005900.0,3443.4904,N,08633.1276,W,1,,,205.4,M,,M,,*74
$GPRMC,005900.0,A,3443.4904,N,08633.1276,W,,,251218,,*15
$GPGGA,005930.0,3443.4905,N,08633.1276,W,1,,,203.5,M,,M,,*71
$GPRMC,005930.0,A,3443.4905,N,08633.1276,W,,,251218,,*17
$GPGGA,010000.0,3443.4910,N,08633.1280,W,1,,,199.7,M,,M,,*70
$GPRMC,010000.0,A,3443.4910,N,08633.1280,W,,,251218,,*14
$GPGGA,010030.0,3443.4910,N,08633.1281,W,1,,,194.5,M,,M,,*7D
$GPRMC,010030.0,A,3443.4910,N,08633.1281,W,,,251218,,*16
$GPGGA,010100.0,3443.4915,N,08633.1282,W,1,,,194.4,M,,M,,*78
$GPRMC,010100.0,A,3443.4915,N,08633.1282,W,,,251218,,*12
$GPGGA,010130.0,3443.4916,N,08633.1281,W,1,,,193.4,M,,M,,*7C
$GPRMC,010130.0,A,3443.4916,N,08633.1281,W,,,251218,,*11
$GPGGA,010200.0,3443.4919,N,08633.1282,W,1,,,192.0,M,,M,,*75
$GPRMC,010200.0,A,3443.4919,N,08633.1282,W,,,251218,,*1D
$GPGGA,010230.0,3443.4919,N,08633.1281,W,1,,,194.8,M,,M,,*7B
$GPRMC,010230.0,A,3443.4919,N,08633.1281,W,,,251218,,*1D
$GPGGA,010300.0,3443.4920,N,08633.1282,W,1,,,192.0,M,,M,,*7E
$GPRMC,010300.0,A,3443.4920,N,08633.1282,W,,,251218,,*16
$GPGGA,010330.0,3443.4921,N,08633.1281,W,1,,,192.1,M,,M,,*7E
$GPRMC,010330.0,A,3443.4921,N,08633.1281,W,,,251218,,*17
$GPGGA,010400.0,3443.4922,N,08633.1280,W,1,,,193.3,M,,M,,*7B
$GPRMC,010400.0,A,3443.4922,N,08633.1280,W,,,251218,,*11
$GPGGA,010430.0,3443.4923,N,08633.1279,W,1,,,194.7,M,,M,,*7C
$GPRMC,010430.0,A,3443.4923,N,08633.1279,W,,,251218,,*15
$GPGGA,010530.0,3443.4905,N,08633.1252,W,1,,,195.8,M,,M,,*7E
$GPRMC,010530.0,A,3443.4905,N,08633.1252,W,,,251218,,*19
$GPGGA,010600.0,3443.4905,N,08633.1254,W,1,,,195.2,M,,M,,*72
$GPRMC,010600.0,A,3443.4905,N,08633.1254,W,,,251218,,*1F
$GPGGA,010630.0,3443.4905,N,08633.1255,W,1,,,194.9,M,,M,,*7A
$GPRMC,010630.0,A,3443.4905,N,08633.1255,W,,,251218,,*1D
$GPGGA,010700.0,3443.4904,N,08633.1256,W,1,,,192.8,M,,M,,*7D
$GPRMC,010700.0,A,3443.4904,N,08633.1256,W,,,251218,,*1D
$GPGGA,010730.0,3443.4903,N,08633.1256,W,1,,,194.5,M,,M,,*72
$GPRMC,010730.0,A,3443.4903,N,08633.1256,W,,,251218,,*19
$GPGGA,010800.0,3443.4904,N,08633.1256,W,1,,,197.8,M,,M,,*77
$GPRMC,010800.0,A,3443.4904,N,08633.1256,W,,,251218,,*12
$GPGGA,010830.0,3443.4905,N,08633.1256,W,1,,,201.2,M,,M,,*73
$GPRMC,010830.0,A,3443.4905,N,08633.1256,W,,,251218,,*10
$GPGGA,010900.0,3443.4906,N,08633.1257,W,1,,,202.3,M,,M,,*71
$GPRMC,010900.0,A,3443.4906,N,08633.1257,W,,,251218,,*10
$GPGGA,010930.0,3443.4919,N,08633.1274,W,1,,,172.2,M,,M,,*78
$GPRMC,010930.0,A,3443.4919,N,08633.1274,W,,,251218,,*1C
$GPGGA,011000.0,3443.4919,N,08633.1274,W,1,,,189.9,M,,M,,*7C
$GPRMC,011000.0,A,3443.4919,N,08633.1274,W,,,251218,,*17
$GPGGA,011030.0,3443.4919,N,08633.1272,W,1,,,194.9,M,,M,,*75
$GPRMC,011030.0,A,3443.4919,N,08633.1272,W,,,251218,,*12
$GPGGA,011100.0,3443.4919,N,08633.1272,W,1,,,194.3,M,,M,,*7D
$GPRMC,011100.0,A,3443.4919,N,08633.1272,W,,,251218,,*10
$GPGGA,011130.0,3443.4917,N,08633.1283,W,1,,,197.6,M,,M,,*78
$GPRMC,011130.0,A,3443.4917,N,08633.1283,W,,,251218,,*13
$GPGGA,011200.0,3443.4873,N,08633.1166,W,1,,,173.2,M,,M,,*7D
$GPRMC,011200.0,A,3443.4873,N,08633.1166,W,,,251218,,*18
$GPGGA,011230.0,3443.4874,N,08633.1168,W,1,,,189.0,M,,M,,*70
$GPRMC,011230.0,A,3443.4874,N,08633.1168,W,,,251218,,*12
$GPGGA,011300.0,3443.4874,N,08633.1173,W,1,,,194.9,M,,M,,*7D
$GPRMC,011300.0,A,3443.4874,N,08633.1173,W,,,251218,,*1A
$GPGGA,011330.0,3443.4879,N,08633.1187,W,1,,,203.7,M,,M,,*7B
$GPRMC,011330.0,A,3443.4879,N,08633.1187,W,,,251218,,*1F
$GPGGA,011400.0,3443.4883,N,08633.1191,W,1,,,205.2,M,,M,,*7E
$GPRMC,011400.0,A,3443.4883,N,08633.1191,W,,,251218,,*19
$GPGGA,011430.0,3443.4886,N,08633.1194,W,1,,,208.3,M,,M,,*71
$GPRMC,011430.0,A,3443.4886,N,08633.1194,W,,,251218,,*1A
$GPGGA,011500.0,3443.4886,N,08633.1194,W,1,,,210.2,M,,M,,*7B
$GPRMC,011500.0,A,3443.4886,N,08633.1194,W,,,251218,,*18
$GPGGA,011530.0,3443.4886,N,08633.1195,W,1,,,208.5,M,,M,,*77
$GPRMC,011530.0,A,3443.4886,N,08633.1195,W,,,251218,,*1A
$GPGGA,011600.0,3443.4881,N,08633.1183,W,1,,,206.3,M,,M,,*7F
$GPRMC,011600.0,A,3443.4881,N,08633.1183,W,,,251218,,*1A
$GPGGA,011630.0,3443.4871,N,08633.1164,W,1,,,200.2,M,,M,,*7D
$GPRMC,011630.0,A,3443.4871,N,08633.1164,W,,,251218,,*1F
$GPGGA,011700.0,3443.4871,N,08633.1164,W,1,,,201.5,M,,M,,*79
$GPRMC,011700.0,A,3443.4871,N,08633.1164,W,,,251218,,*1D
$GPGGA,011730.0,3443.4871,N,08633.1165,W,1,,,203.4,M,,M,,*78
$GPRMC,011730.0,A,3443.4871,N,08633.1165,W,,,251218,,*1F
$GPGGA,011800.0,3443.4897,N,08633.1171,W,1,,,205.8,M,,M,,*73
$GPRMC,011800.0,A,3443.4897,N,08633.1171,W,,,251218,,*1E
$GPGGA,011830.0,3443.4921,N,08633.1216,W,1,,,224.4,M,,M,,*71
$GPRMC,011830.0,A,3443.4921,N,08633.1216,W,,,251218,,*13
$GPGGA,011900.0,3443.4921,N,08633.1219,W,1,,,224.2,M,,M,,*7A
$GPRMC,011900.0,A,3443.4921,N,08633.1219,W,,,251218,,*1E
$GPGGA,011930.0,3443.4921,N,08633.1220,W,1,,,222.6,M,,M,,*71
$GPRMC,011930.0,A,3443.4921,N,08633.1220,W,,,251218,,*17
$GPGGA,012000.0,3443.4918,N,08633.1222,W,1,,,222.1,M,,M,,*77
$GPRMC,012000.0,A,3443.4918,N,08633.1222,W,,,251218,,*16
$GPGGA,012030.3,3443.4908,N,08633.1148,W,1,,,188.5,M,,M,,*7E
$GPRMC,012030.3,A,3443.4908,N,08633.1148,W,,,251218,,*18
$GPGGA,012130.0,3443.4905,N,08633.1190,W,1,,,198.8,M,,M,,*78
$GPRMC,012130.0,A,3443.4905,N,08633.1190,W,,,251218,,*12
$GPGGA,012200.0,3443.4896,N,08633.1258,W,1,,,205.7,M,,M,,*7C
$GPRMC,012200.0,A,3443.4896,N,08633.1258,W,,,251218,,*1E
$GPGGA,012230.0,3443.4893,N,08633.1257,W,1,,,202.9,M,,M,,*7C
$GPRMC,012230.0,A,3443.4893,N,08633.1257,W,,,251218,,*17
$GPGGA,012300.0,3443.4895,N,08633.1258,W,1,,,201.5,M,,M,,*78
$GPRMC,012300.0,A,3443.4895,N,08633.1258,W,,,251218,,*1C
$GPGGA,012330.0,3443.4898,N,08633.1248,W,1,,,200.0,M,,M,,*73
$GPRMC,012330.0,A,3443.4898,N,08633.1248,W,,,251218,,*13
$GPGGA,012400.0,3443.4894,N,08633.1261,W,1,,,203.6,M,,M,,*75
$GPRMC,012400.0,A,3443.4894,N,08633.1261,W,,,251218,,*10
$GPGGA,012430.0,3443.4867,N,08633.1289,W,1,,,214.4,M,,M,,*78
$GPRMC,012430.0,A,3443.4867,N,08633.1289,W,,,251218,,*19
$GPGGA,012500.0,3443.4883,N,08633.1274,W,1,,,214.1,M,,M,,*77
$GPRMC,012500.0,A,3443.4883,N,08633.1274,W,,,251218,,*13
$GPGGA,012530.0,3443.4891,N,08633.1257,W,1,,,209.6,M,,M,,*7D
$GPRMC,012530.0,A,3443.4891,N,08633.1257,W,,,251218,,*12
$GPGGA,012600.0,3443.4896,N,08633.1259,W,1,,,210.4,M,,M,,*7E
$GPRMC,012600.0,A,3443.4896,N,08633.1259,W,,,251218,,*1B
$GPGGA,012630.0,3443.4898,N,08633.1257,W,1,,,210.9,M,,M,,*70
$GPRMC,012630.0,A,3443.4898,N,08633.1257,W,,,251218,,*18
$GPGGA,012700.0,3443.4900,N,08633.1263,W,1,,,213.0,M,,M,,*7F
$GPRMC,012700.0,A,3443.4900,N,08633.1263,W,,,251218,,*1D
$GPGGA,012730.0,3443.4900,N,08633.1263,W,1,,,214.3,M,,M,,*78
$GPRMC,012730.0,A,3443.4900,N,08633.1263,W,,,251218,,*1E
$GPGGA,012800.0,3443.4901,N,08633.1263,W,1,,,214.8,M,,M,,*7E
$GPRMC,012800.0,A,3443.4901,N,08633.1263,W,,,251218,,*13
$GPGGA,012830.0,3443.4901,N,08633.1264,W,1,,,214.6,M,,M,,*74
$GPRMC,012830.0,A,3443.4901,N,08633.1264,W,,,251218,,*17
$GPGGA,012900.0,3443.4901,N,08633.1264,W,1,,,215.4,M,,M,,*75
$GPRMC,012900.0,A,3443.4901,N,08633.1264,W,,,251218,,*15
$GPGGA,012930.0,3443.4902,N,08633.1265,W,1,,,218.2,M,,M,,*7F
$GPRMC,012930.0,A,3443.4902,N,08633.1265,W,,,251218,,*14
$GPGGA,013000.0,3443.4903,N,08633.1267,W,1,,,219.6,M,,M,,*72
$GPRMC,013000.0,A,3443.4903,N,08633.1267,W,,,251218,,*1C
$GPGGA,013030.0,3443.4908,N,08633.1279,W,1,,,224.7,M,,M,,*7A
$GPRMC,013030.0,A,3443.4908,N,08633.1279,W,,,251218,,*1B
$GPGGA,013100.0,3443.4905,N,08633.1275,W,1,,,236.0,M,,M,,*7D
$GPRMC,013100.0,A,3443.4905,N,08633.1275,W,,,251218,,*18
$GPGGA,013130.0,3443.4905,N,08633.1274,W,1,,,235.8,M,,M,,*74
$GPRMC,013130.0,A,3443.4905,N,08633.1274,W,,,251218,,*1A
$GPGGA,013200.0,3443.4906,N,08633.1274,W,1,,,236.0,M,,M,,*7C
$GPRMC,013200.0,A,3443.4906,N,08633.1274,W,,,251218,,*19
$GPGGA,013230.0,3443.4906,N,08633.1274,W,1,,,234.8,M,,M,,*75
$GPRMC,013230.0,A,3443.4906,N,08633.1274,W,,,251218,,*1A
$GPGGA,013300.0,3443.4906,N,08633.1274,W,1,,,233.5,M,,M,,*7D
$GPRMC,013300.0,A,3443.4906,N,08633.1274,W,,,251218,,*18
$GPGGA,013330.0,3443.4906,N,08633.1275,W,1,,,231.7,M,,M,,*7F
$GPRMC,013330.0,A,3443.4906,N,08633.1275,W,,,251218,,*1A
$GPGGA,013400.0,3443.4906,N,08633.1275,W,1,,,230.3,M,,M,,*7E
$GPRMC,013400.0,A,3443.4906,N,08633.1275,W,,,251218,,*1E
$GPGGA,013430.0,3443.4906,N,08633.1275,W,1,,,229.7,M,,M,,*71
$GPRMC,013430.0,A,3443.4906,N,08633.1275,W,,,251218,,*1D
$GPGGA,013500.0,3443.4906,N,08633.1277,W,1,,,229.3,M,,M,,*75
$GPRMC,013500.0,A,3443.4906,N,08633.1277,W,,,251218,,*1D
$GPGGA,013530.0,3443.4915,N,08633.1285,W,1,,,227.4,M,,M,,*70
$GPRMC,013530.0,A,3443.4915,N,08633.1285,W,,,251218,,*11
$GPGGA,013600.0,3443.4916,N,08633.1287,W,1,,,227.4,M,,M,,*71
$GPRMC,013600.0,A,3443.4916,N,08633.1287,W,,,251218,,*10
$GPGGA,013630.0,3443.4904,N,08633.1271,W,1,,,235.2,M,,M,,*7D
$GPRMC,013630.0,A,3443.4904,N,08633.1271,W,,,251218,,*19
$GPGGA,013700.0,3443.4899,N,08633.1268,W,1,,,237.7,M,,M,,*75
$GPRMC,013700.0,A,3443.4899,N,08633.1268,W,,,251218,,*16
$GPGGA,013730.0,3443.4905,N,08633.1271,W,1,,,234.3,M,,M,,*7D
$GPRMC,013730.0,A,3443.4905,N,08633.1271,W,,,251218,,*19
$GPGGA,013800.0,3443.4798,N,08633.1262,W,1,,,88.8,M,,M,,*47
$GPRMC,013800.0,A,3443.4798,N,08633.1262,W,,,251218,,*1D
$GPGGA,013830.0,3443.4841,N,08633.1317,W,1,,,15.0,M,,M,,*40
$GPRMC,013830.0,A,3443.4841,N,08633.1317,W,,,251218,,*16
$GPGGA,013900.0,3443.4842,N,08633.1316,W,1,,,4.6,M,,M,,*76
$GPRMC,013900.0,A,3443.4842,N,08633.1316,W,,,251218,,*16
$GPGGA,013930.0,3443.4811,N,08633.1311,W,1,,,20.0,M,,M,,*44
$GPRMC,013930.0,A,3443.4811,N,08633.1311,W,,,251218,,*14
$GPGGA,014000.0,3443.4838,N,08633.1313,W,1,,,255.8,M,,M,,*78
$GPRMC,014000.0,A,3443.4838,N,08633.1313,W,,,251218,,*10
$GPGGA,014030.0,3443.4839,N,08633.1313,W,1,,,251.4,M,,M,,*72
$GPRMC,014030.0,A,3443.4839,N,08633.1313,W,,,251218,,*12
$GPGGA,014230.0,3443.4996,N,08633.1304,W,1,,,238.4,M,,M,,*7D
$GPRMC,014230.0,A,3443.4996,N,08633.1304,W,,,251218,,*12
$GPGGA,014300.0,3443.5001,N,08633.1239,W,1,,,235.4,M,,M,,*7B
$GPRMC,014300.0,A,3443.5001,N,08633.1239,W,,,251218,,*19
$GPGGA,014330.0,3443.4993,N,08633.1246,W,1,,,238.8,M,,M,,*72
$GPRMC,014330.0,A,3443.4993,N,08633.1246,W,,,251218,,*11
$GPGGA,014400.0,3443.4970,N,08633.1304,W,1,,,239.0,M,,M,,*75
$GPRMC,014400.0,A,3443.4970,N,08633.1304,W,,,251218,,*1F
$GPGGA,014430.0,3443.4885,N,08633.1308,W,1,,,238.4,M,,M,,*74
$GPRMC,014430.0,A,3443.4885,N,08633.1308,W,,,251218,,*1B
$GPGGA,014630.0,3443.4918,N,08633.1292,W,1,,,254.3,M,,M,,*7C
$GPRMC,014630.0,A,3443.4918,N,08633.1292,W,,,251218,,*1E
$GPGGA,014730.0,3443.4919,N,08633.1309,W,1,,,4.5,M,,M,,*7E
$GPRMC,014730.0,A,3443.4919,N,08633.1309,W,,,251218,,*1D
$GPGGA,014800.0,3443.4846,N,08633.1367,W,1,,,245.5,M,,M,,*76
$GPRMC,014800.0,A,3443.4846,N,08633.1367,W,,,251218,,*12
$GPGGA,014830.0,3443.4850,N,08633.1361,W,1,,,235.9,M,,M,,*7F
$GPRMC,014830.0,A,3443.4850,N,08633.1361,W,,,251218,,*10
$GPGGA,014900.0,3443.4856,N,08633.1358,W,1,,,237.9,M,,M,,*73
$GPRMC,014900.0,A,3443.4856,N,08633.1358,W,,,251218,,*1E
$GPGGA,015030.0,3443.4922,N,08633.1356,W,1,,,237.0,M,,M,,*7D
$GPRMC,015030.0,A,3443.4922,N,08633.1356,W,,,251218,,*19
$GPGGA,015100.0,3443.4940,N,08633.1342,W,1,,,237.0,M,,M,,*7E
$GPRMC,015100.0,A,3443.4940,N,08633.1342,W,,,251218,,*1A
$GPGGA,015130.0,3443.4939,N,08633.1340,W,1,,,237.0,M,,M,,*71
$GPRMC,015130.0,A,3443.4939,N,08633.1340,W,,,251218,,*15
$GPGGA,015230.0,3443.4950,N,08633.1294,W,1,,,237.0,M,,M,,*75
$GPRMC,015230.0,A,3443.4950,N,08633.1294,W,,,251218,,*11
$GPGGA,015300.0,3443.5020,N,08633.1226,W,1,,,237.0,M,,M,,*71
$GPRMC,015300.0,A,3443.5020,N,08633.1226,W,,,251218,,*15
$GPGGA,015330.0,3443.4966,N,08633.1286,W,1,,,237.0,M,,M,,*72
$GPRMC,015330.0,A,3443.4966,N,08633.1286,W,,,251218,,*16
$GPGGA,015400.0,3443.4939,N,08633.1263,W,1,,,237.0,M,,M,,*77
$GPRMC,015400.0,A,3443.4939,N,08633.1263,W,,,251218,,*13
$GPGGA,015730.0,3443.4847,N,08633.1359,W,1,,,11.8,M,,M,,*49
$GPRMC,015730.0,A,3443.4847,N,08633.1359,W,,,251218,,*13
$GPGGA,015800.0,3443.4836,N,08633.1512,W,1,,,11.8,M,,M,,*4A
$GPRMC,015800.0,A,3443.4836,N,08633.1512,W,,,251218,,*10
$GPGGA,015830.0,3443.4850,N,08633.1472,W,1,,,11.0,M,,M,,*46
$GPRMC,015830.0,A,3443.4850,N,08633.1472,W,,,251218,,*14
$GPGGA,015900.0,3443.4877,N,08633.1429,W,1,,,11.0,M,,M,,*4F
$GPRMC,015900.0,A,3443.4877,N,08633.1429,W,,,251218,,*1D
$GPGGA,015930.0,3443.4890,N,08633.1433,W,1,,,11.0,M,,M,,*4E
$GPRMC,015930.0,A,3443.4890,N,08633.1433,W,,,251218,,*1C
$GPGGA,020000.0,3443.4900,N,08633.1419,W,1,,,11.0,M,,M,,*42
$GPRMC,020000.0,A,3443.4900,N,08633.1419,W,,,251218,,*10
$GPGGA,020030.0,3443.4906,N,08633.1449,W,1,,,11.0,M,,M,,*42
$GPRMC,020030.0,A,3443.4906,N,08633.1449,W,,,251218,,*10
$GPGGA,020100.0,3443.4914,N,08633.1458,W,1,,,11.0,M,,M,,*43
$GPRMC,020100.0,A,3443.4914,N,08633.1458,W,,,251218,,*11
$GPGGA,020130.0,3443.4886,N,08633.1164,W,1,,,11.0,M,,M,,*40
$GPRMC,020130.0,A,3443.4886,N,08633.1164,W,,,251218,,*12
$GPGGA,020200.0,3443.4888,N,08633.1097,W,1,,,11.0,M,,M,,*43
$GPRMC,020200.0,A,3443.4888,N,08633.1097,W,,,251218,,*11
$GPGGA,020230.0,3443.4902,N,08633.1109,W,1,,,11.0,M,,M,,*45
$GPRMC,020230.0,A,3443.4902,N,08633.1109,W,,,251218,,*17
$GPGGA,020300.0,3443.4902,N,08633.1118,W,1,,,11.0,M,,M,,*47
$GPRMC,020300.0,A,3443.4902,N,08633.1118,W,,,251218,,*15
$GPGGA,020330.0,3443.4929,N,08633.1181,W,1,,,11.0,M,,M,,*4D
$GPRMC,020330.0,A,3443.4929,N,08633.1181,W,,,251218,,*1F
$GPGGA,020430.0,3443.4950,N,08633.1243,W,1,,,241.4,M,,M,,*7A
$GPRMC,020430.0,A,3443.4950,N,08633.1243,W,,,251218,,*1B
$GPGGA,020500.0,3443.4965,N,08633.1366,W,1,,,192.6,M,,M,,*77
$GPRMC,020500.0,A,3443.4965,N,08633.1366,W,,,251218,,*19
$GPGGA,020630.0,3443.4664,N,08633.1313,W,1,,,87.3,M,,M,,*4B
$GPRMC,020630.0,A,3443.4664,N,08633.1313,W,,,251218,,*15
$GPGGA,020700.0,3443.4663,N,08633.1407,W,1,,,87.3,M,,M,,*4C
$GPRMC,020700.0,A,3443.4663,N,08633.1407,W,,,251218,,*12
$GPGGA,020730.0,3443.4647,N,08633.1462,W,1,,,87.3,M,,M,,*4A
$GPRMC,020730.0,A,3443.4647,N,08633.1462,W,,,251218,,*14
$GPGGA,020830.0,3443.4635,N,08633.1449,W,1,,,87.2,M,,M,,*48
$GPRMC,020830.0,A,3443.4635,N,08633.1449,W,,,251218,,*17
$GPGGA,020900.0,3443.4979,N,08633.1509,W,1,,,86.9,M,,M,,*42
$GPRMC,020900.0,A,3443.4979,N,08633.1509,W,,,251218,,*17
$GPGGA,020930.0,3443.4692,N,08633.1562,W,1,,,81.6,M,,M,,*4E
$GPRMC,020930.0,A,3443.4692,N,08633.1562,W,,,251218,,*13
$GPGGA,021000.0,3443.4740,N,08633.1251,W,1,,,72.9,M,,M,,*4F
$GPRMC,021000.0,A,3443.4740,N,08633.1251,W,,,251218,,*11
$GPGGA,021030.0,3443.4849,N,08633.1258,W,1,,,51.1,M,,M,,*4A
$GPRMC,021030.0,A,3443.4849,N,08633.1258,W,,,251218,,*1D
$GPGGA,021100.0,3443.4782,N,08633.1435,W,1,,,49.0,M,,M,,*45
$GPRMC,021100.0,A,3443.4782,N,08633.1435,W,,,251218,,*1A
$GPGGA,021130.0,3443.4901,N,08633.1452,W,1,,,46.0,M,,M,,*4D
$GPRMC,021130.0,A,3443.4901,N,08633.1452,W,,,251218,,*1D
$GPGGA,021200.0,3443.4907,N,08633.1380,W,1,,,37.8,M,,M,,*4D
$GPRMC,021200.0,A,3443.4907,N,08633.1380,W,,,251218,,*13
$GPGGA,021230.0,3443.4925,N,08633.1335,W,1,,,14.0,M,,M,,*49
$GPRMC,021230.0,A,3443.4925,N,08633.1335,W,,,251218,,*1E
$GPGGA,021300.0,3443.4929,N,08633.1328,W,1,,,247.3,M,,M,,*7C
$GPRMC,021300.0,A,3443.4929,N,08633.1328,W,,,251218,,*1C
$GPGGA,021330.0,3443.4934,N,08633.1304,W,1,,,228.1,M,,M,,*76
$GPRMC,021330.0,A,3443.4934,N,08633.1304,W,,,251218,,*1D
$GPGGA,021400.0,3443.4964,N,08633.1237,W,1,,,208.1,M,,M,,*74
$GPRMC,021400.0,A,3443.4964,N,08633.1237,W,,,251218,,*1D
$GPGGA,021430.0,3443.4946,N,08633.1238,W,1,,,203.3,M,,M,,*71
$GPRMC,021430.0,A,3443.4946,N,08633.1238,W,,,251218,,*11
$GPGGA,021500.0,3443.4945,N,08633.1241,W,1,,,201.7,M,,M,,*78
$GPRMC,021500.0,A,3443.4945,N,08633.1241,W,,,251218,,*1E
$GPGGA,021530.0,3443.4945,N,08633.1241,W,1,,,199.8,M,,M,,*76
$GPRMC,021530.0,A,3443.4945,N,08633.1241,W,,,251218,,*1D
$GPGGA,021600.0,3443.4946,N,08633.1241,W,1,,,199.1,M,,M,,*7C
$GPRMC,021600.0,A,3443.4946,N,08633.1241,W,,,251218,,*1E
$GPGGA,021630.0,3443.4945,N,08633.1241,W,1,,,199.0,M,,M,,*7D
$GPRMC,021630.0,A,3443.4945,N,08633.1241,W,,,251218,,*1E
$GPGGA,021700.0,3443.4946,N,08633.1241,W,1,,,198.7,M,,M,,*7A
$GPRMC,021700.0,A,3443.4946,N,08633.1241,W,,,251218,,*1F
$GPGGA,021730.0,3443.4932,N,08633.1237,W,1,,,201.9,M,,M,,*76
$GPRMC,021730.0,A,3443.4932,N,08633.1237,W,,,251218,,*1E
$GPGGA,021800.1,3443.4956,N,08633.1228,W,1,,,194.9,M,,M,,*78
$GPRMC,021800.1,A,3443.4956,N,08633.1228,W,,,251218,,*1F
$GPGGA,021830.0,3443.4956,N,08633.1228,W,1,,,194.9,M,,M,,*7A
$GPRMC,021830.0,A,3443.4956,N,08633.1228,W,,,251218,,*1D
$GPGGA,021900.0,3443.4956,N,08633.1228,W,1,,,195.3,M,,M,,*73
$GPRMC,021900.0,A,3443.4956,N,08633.1228,W,,,251218,,*1F
$GPGGA,021930.0,3443.4956,N,08633.1229,W,1,,,197.1,M,,M,,*71
$GPRMC,021930.0,A,3443.4956,N,08633.1229,W,,,251218,,*1D
$GPGGA,022000.0,3443.4954,N,08633.1229,W,1,,,199.1,M,,M,,*74
$GPRMC,022000.0,A,3443.4954,N,08633.1229,W,,,251218,,*16
$GPGGA,022030.0,3443.4953,N,08633.1229,W,1,,,201.0,M,,M,,*73
$GPRMC,022030.0,A,3443.4953,N,08633.1229,W,,,251218,,*12
$GPGGA,022100.0,3443.4953,N,08633.1229,W,1,,,201.4,M,,M,,*75
$GPRMC,022100.0,A,3443.4953,N,08633.1229,W,,,251218,,*10
$GPGGA,022130.0,3443.4947,N,08633.1250,W,1,,,198.7,M,,M,,*7D
$GPRMC,022130.0,A,3443.4947,N,08633.1250,W,,,251218,,*18
$GPGGA,022200.0,3443.4947,N,08633.1250,W,1,,,200.6,M,,M,,*7E
$GPRMC,022200.0,A,3443.4947,N,08633.1250,W,,,251218,,*18
$GPGGA,022230.0,3443.4947,N,08633.1251,W,1,,,201.1,M,,M,,*7A
$GPRMC,022230.0,A,3443.4947,N,08633.1251,W,,,251218,,*1A
$GPGGA,022300.0,3443.4946,N,08633.1251,W,1,,,201.1,M,,M,,*79
$GPRMC,022300.0,A,3443.4946,N,08633.1251,W,,,251218,,*19
$GPGGA,022330.0,3443.4946,N,08633.1250,W,1,,,201.7,M,,M,,*7D
$GPRMC,022330.0,A,3443.4946,N,08633.1250,W,,,251218,,*1B
$GPGGA,022400.0,3443.4958,N,08633.1253,W,1,,,198.7,M,,M,,*76
$GPRMC,022400.0,A,3443.4958,N,08633.1253,W,,,251218,,*13
$GPGGA,022430.0,3443.4952,N,08633.1244,W,1,,,200.5,M,,M,,*79
$GPRMC,022430.0,A,3443.4952,N,08633.1244,W,,,251218,,*1C
$GPGGA,022700.0,3443.4901,N,08633.1122,W,1,,,206.1,M,,M,,*7E
$GPRMC,022700.0,A,3443.4901,N,08633.1122,W,,,251218,,*19
$GPGGA,022730.0,3443.5012,N,08633.1084,W,1,,,205.9,M,,M,,*71
$GPRMC,022730.0,A,3443.5012,N,08633.1084,W,,,251218,,*1D
$GPGGA,022800.0,3443.4774,N,08633.1026,W,1,,,205.9,M,,M,,*73
$GPRMC,022800.0,A,3443.4774,N,08633.1026,W,,,251218,,*1F
$GPGGA,022830.0,3443.4803,N,08633.1071,W,1,,,205.9,M,,M,,*7D
$GPRMC,022830.0,A,3443.4803,N,08633.1071,W,,,251218,,*11
$GPGGA,022900.0,3443.4815,N,08633.1099,W,1,,,205.9,M,,M,,*7E
$GPRMC,022900.0,A,3443.4815,N,08633.1099,W,,,251218,,*12
$GPGGA,022930.0,3443.4887,N,08633.1076,W,1,,,207.8,M,,M,,*74
$GPRMC,022930.0,A,3443.4887,N,08633.1076,W,,,251218,,*1B
$GPGGA,023000.0,3443.4880,N,08633.1084,W,1,,,207.9,M,,M,,*74
$GPRMC,023000.0,A,3443.4880,N,08633.1084,W,,,251218,,*1A
$GPGGA,023030.0,3443.4886,N,08633.1074,W,1,,,207.9,M,,M,,*7E
$GPRMC,023030.0,A,3443.4886,N,08633.1074,W,,,251218,,*10
$GPGGA,023100.0,3443.4887,N,08633.1097,W,1,,,207.9,M,,M,,*70
$GPRMC,023100.0,A,3443.4887,N,08633.1097,W,,,251218,,*1E
$GPGGA,023130.0,3443.4898,N,08633.1078,W,1,,,207.9,M,,M,,*7C
$GPRMC,023130.0,A,3443.4898,N,08633.1078,W,,,251218,,*12
$GPGGA,023200.1,3443.4766,N,08633.1471,W,1,,,207.8,M,,M,,*7F
$GPRMC,023200.1,A,3443.4766,N,08633.1471,W,,,251218,,*10
$GPGGA,023230.1,3443.4849,N,08633.1388,W,1,,,207.8,M,,M,,*7F
$GPRMC,023230.1,A,3443.4849,N,08633.1388,W,,,251218,,*10
$GPGGA,023300.0,3443.4857,N,08633.1389,W,1,,,207.8,M,,M,,*72
$GPRMC,023300.0,A,3443.4857,N,08633.1389,W,,,251218,,*1D
$GPGGA,023330.0,3443.4871,N,08633.1381,W,1,,,207.8,M,,M,,*7D
$GPRMC,023330.0,A,3443.4871,N,08633.1381,W,,,251218,,*12
$GPGGA,023400.0,3443.4879,N,08633.1373,W,1,,,207.8,M,,M,,*7C
$GPRMC,023400.0,A,3443.4879,N,08633.1373,W,,,251218,,*13
$GPGGA,023430.0,3443.4900,N,08633.1358,W,1,,,207.8,M,,M,,*79
$GPRMC,023430.0,A,3443.4900,N,08633.1358,W,,,251218,,*16
$GPGGA,023500.0,3443.4923,N,08633.1353,W,1,,,207.8,M,,M,,*71
$GPRMC,023500.0,A,3443.4923,N,08633.1353,W,,,251218,,*1E
$GPGGA,023530.0,3443.4908,N,08633.1345,W,1,,,207.8,M,,M,,*7C
$GPRMC,023530.0,A,3443.4908,N,08633.1345,W,,,251218,,*13
$GPGGA,023600.0,3443.4900,N,08633.1344,W,1,,,207.8,M,,M,,*75
$GPRMC,023600.0,A,3443.4900,N,08633.1344,W,,,251218,,*1A
$GPGGA,023700.0,3443.4732,N,08633.1317,W,1,,,207.8,M,,M,,*7D
$GPRMC,023700.0,A,3443.4732,N,08633.1317,W,,,251218,,*12
$GPGGA,023730.0,3443.4817,N,08633.1278,W,1,,,207.8,M,,M,,*7E
$GPRMC,023730.0,A,3443.4817,N,08633.1278,W,,,251218,,*11
$GPGGA,023800.0,3443.4872,N,08633.1229,W,1,,,207.8,M,,M,,*75
$GPRMC,023800.0,A,3443.4872,N,08633.1229,W,,,251218,,*1A
$GPGGA,023830.0,3443.4876,N,08633.1227,W,1,,,207.8,M,,M,,*7C
$GPRMC,023830.0,A,3443.4876,N,08633.1227,W,,,251218,,*13
$GPGGA,023900.0,3443.4897,N,08633.1211,W,1,,,207.8,M,,M,,*74
$GPRMC,023900.0,A,3443.4897,N,08633.1211,W,,,251218,,*1B
$GPGGA,023930.0,3443.4893,N,08633.1215,W,1,,,207.8,M,,M,,*77
$GPRMC,023930.0,A,3443.4893,N,08633.1215,W,,,251218,,*18
$GPGGA,024000.0,3443.4886,N,08633.1227,W,1,,,207.8,M,,M,,*7F
$GPRMC,024000.0,A,3443.4886,N,08633.1227,W,,,251218,,*10
$GPGGA,024030.0,3443.4887,N,08633.1232,W,1,,,207.7,M,,M,,*76
$GPRMC,024030.0,A,3443.4887,N,08633.1232,W,,,251218,,*16
$GPGGA,024100.0,3443.4886,N,08633.1243,W,1,,,207.7,M,,M,,*73
$GPRMC,024100.0,A,3443.4886,N,08633.1243,W,,,251218,,*13
$GPGGA,024130.0,3443.4895,N,08633.1244,W,1,,,207.7,M,,M,,*75
$GPRMC,024130.0,A,3443.4895,N,08633.1244,W,,,251218,,*15
$GPGGA,024200.0,3443.4928,N,08633.1228,W,1,,,207.6,M,,M,,*79
$GPRMC,024200.0,A,3443.4928,N,08633.1228,W,,,251218,,*18
$GPGGA,024230.0,3443.4929,N,08633.1229,W,1,,,207.6,M,,M,,*7A
$GPRMC,024230.0,A,3443.4929,N,08633.1229,W,,,251218,,*1B
$GPGGA,024300.0,3443.4928,N,08633.1234,W,1,,,207.6,M,,M,,*75
$GPRMC,024300.0,A,3443.4928,N,08633.1234,W,,,251218,,*14
$GPGGA,024330.0,3443.4913,N,08633.1243,W,1,,,207.6,M,,M,,*7E
$GPRMC,024330.0,A,3443.4913,N,08633.1243,W,,,251218,,*1F
$GPGGA,024400.0,3443.4920,N,08633.1239,W,1,,,207.8,M,,M,,*79
$GPRMC,024400.0,A,3443.4920,N,08633.1239,W,,,251218,,*16
$GPGGA,024430.0,3443.4922,N,08633.1246,W,1,,,207.8,M,,M,,*70
$GPRMC,024430.0,A,3443.4922,N,08633.1246,W,,,251218,,*1F
$GPGGA,024500.0,3443.4925,N,08633.1248,W,1,,,207.8,M,,M,,*7B
$GPRMC,024500.0,A,3443.4925,N,08633.1248,W,,,251218,,*14
$GPGGA,024530.0,3443.4931,N,08633.1245,W,1,,,207.8,M,,M,,*70
$GPRMC,024530.0,A,3443.4931,N,08633.1245,W,,,251218,,*1F
$GPGGA,024600.0,3443.4937,N,08633.1243,W,1,,,207.8,M,,M,,*70
$GPRMC,024600.0,A,3443.4937,N,08633.1243,W,,,251218,,*1F
$GPGGA,024630.0,3443.4938,N,08633.1240,W,1,,,207.8,M,,M,,*7F
$GPRMC,024630.0,A,3443.4938,N,08633.1240,W,,,251218,,*10
$GPGGA,024700.0,3443.4964,N,08633.1233,W,1,,,208.8,M,,M,,*7F
$GPRMC,024700.0,A,3443.4964,N,08633.1233,W,,,251218,,*1F
$GPGGA,024730.0,3443.4965,N,08633.1230,W,1,,,208.8,M,,M,,*7E
$GPRMC,024730.0,A,3443.4965,N,08633.1230,W,,,251218,,*1E
$GPGGA,024800.0,3443.4967,N,08633.1229,W,1,,,208.8,M,,M,,*78
$GPRMC,024800.0,A,3443.4967,N,08633.1229,W,,,251218,,*18
$GPGGA,024830.0,3443.4966,N,08633.1229,W,1,,,208.8,M,,M,,*7A
$GPRMC,024830.0,A,3443.4966,N,08633.1229,W,,,251218,,*1A
$GPGGA,024900.0,3443.4904,N,08633.1245,W,1,,,207.4,M,,M,,*75
$GPRMC,024900.0,A,3443.4904,N,08633.1245,W,,,251218,,*16
$GPGGA,024930.0,3443.4975,N,08633.1198,W,1,,,207.4,M,,M,,*73
$GPRMC,024930.0,A,3443.4975,N,08633.1198,W,,,251218,,*10
$GPGGA,025000.0,3443.4988,N,08633.1256,W,1,,,207.4,M,,M,,*7B
$GPRMC,025000.0,A,3443.4988,N,08633.1256,W,,,251218,,*18
$GPGGA,025030.0,3443.5006,N,08633.1216,W,1,,,207.4,M,,M,,*72
$GPRMC,025030.0,A,3443.5006,N,08633.1216,W,,,251218,,*11
$GPGGA,025330.0,3443.4689,N,08633.1516,W,1,,,207.4,M,,M,,*76
$GPRMC,025330.0,A,3443.4689,N,08633.1516,W,,,251218,,*15
$GPGGA,025400.0,3443.4931,N,08633.1287,W,1,,,206.1,M,,M,,*75
$GPRMC,025400.0,A,3443.4931,N,08633.1287,W,,,251218,,*12
$GPGGA,025430.0,3443.4928,N,08633.1295,W,1,,,201.7,M,,M,,*7C
$GPRMC,025430.0,A,3443.4928,N,08633.1295,W,,,251218,,*1A
$GPGGA,025500.0,3443.4953,N,08633.1281,W,1,,,199.0,M,,M,,*72
$GPRMC,025500.0,A,3443.4953,N,08633.1281,W,,,251218,,*11
$GPGGA,025530.1,3443.5017,N,08633.1215,W,1,,,197.3,M,,M,,*78
$GPRMC,025530.1,A,3443.5017,N,08633.1215,W,,,251218,,*16
$GPGGA,025600.0,3443.5025,N,08633.1210,W,1,,,199.6,M,,M,,*76
$GPRMC,025600.0,A,3443.5025,N,08633.1210,W,,,251218,,*13
$GPGGA,025630.0,3443.4885,N,08633.1346,W,1,,,199.5,M,,M,,*77
$GPRMC,025630.0,A,3443.4885,N,08633.1346,W,,,251218,,*11
$GPGGA,030130.0,3443.4988,N,08633.1359,W,1,,,201.6,M,,M,,*77
$GPRMC,030130.0,A,3443.4988,N,08633.1359,W,,,251218,,*10
$GPGGA,030200.0,3443.4802,N,08633.1383,W,1,,,201.6,M,,M,,*73
$GPRMC,030200.0,A,3443.4802,N,08633.1383,W,,,251218,,*14
$GPGGA,030230.0,3443.5080,N,08633.1090,W,1,,,201.7,M,,M,,*73
$GPRMC,030230.0,A,3443.5080,N,08633.1090,W,,,251218,,*15
$GPGGA,030730.0,3443.4936,N,08633.1274,W,1,,,217.1,M,,M,,*7A
$GPRMC,030730.0,A,3443.4936,N,08633.1274,W,,,251218,,*1D
$GPGGA,030800.0,3443.4856,N,08633.1297,W,1,,,195.6,M,,M,,*72
$GPRMC,030800.0,A,3443.4856,N,08633.1297,W,,,251218,,*1B
$GPGGA,030830.0,3443.4847,N,08633.1328,W,1,,,201.2,M,,M,,*7E
$GPRMC,030830.0,A,3443.4847,N,08633.1328,W,,,251218,,*1D
$GPGGA,030930.0,3443.5368,N,08633.1021,W,1,,,208.1,M,,M,,*78
$GPRMC,030930.0,A,3443.5368,N,08633.1021,W,,,251218,,*11
$GPGGA,031030.0,3443.5015,N,08633.1186,W,1,,,190.7,M,,M,,*71
$GPRMC,031030.0,A,3443.5015,N,08633.1186,W,,,251218,,*1C
$GPGGA,031100.0,3443.5012,N,08633.1198,W,1,,,201.5,M,,M,,*72
$GPRMC,031100.0,A,3443.5012,N,08633.1198,W,,,251218,,*16
$GPGGA,031130.0,3443.5054,N,08633.1213,W,1,,,203.3,M,,M,,*77
$GPRMC,031130.0,A,3443.5054,N,08633.1213,W,,,251218,,*17
$GPGGA,031200.1,3443.4951,N,08633.1270,W,1,,,205.2,M,,M,,*79
$GPRMC,031200.1,A,3443.4951,N,08633.1270,W,,,251218,,*1E
$GPGGA,031230.1,3443.4885,N,08633.1341,W,1,,,202.8,M,,M,,*7C
$GPRMC,031230.1,A,3443.4885,N,08633.1341,W,,,251218,,*16
$GPGGA,031300.0,3443.4890,N,08633.1318,W,1,,,202.8,M,,M,,*77
$GPRMC,031300.0,A,3443.4890,N,08633.1318,W,,,251218,,*1D
$GPGGA,031330.0,3443.4867,N,08633.1237,W,1,,,220.1,M,,M,,*79
$GPRMC,031330.0,A,3443.4867,N,08633.1237,W,,,251218,,*1A
$GPGGA,031400.0,3443.4877,N,08633.1238,W,1,,,243.0,M,,M,,*77
$GPRMC,031400.0,A,3443.4877,N,08633.1238,W,,,251218,,*10
$GPGGA,031430.1,3443.4866,N,08633.1275,W,1,,,218.7,M,,M,,*75
$GPRMC,031430.1,A,3443.4866,N,08633.1275,W,,,251218,,*1B
$GPGGA,031500.0,3443.4894,N,08633.1259,W,1,,,215.6,M,,M,,*79
$GPRMC,031500.0,A,3443.4894,N,08633.1259,W,,,251218,,*1B
$GPGGA,031530.0,3443.4895,N,08633.1262,W,1,,,221.3,M,,M,,*71
$GPRMC,031530.0,A,3443.4895,N,08633.1262,W,,,251218,,*11
$GPGGA,031630.1,3443.4869,N,08633.1240,W,1,,,225.8,M,,M,,*7F
$GPRMC,031630.1,A,3443.4869,N,08633.1240,W,,,251218,,*10
$GPGGA,031700.0,3443.4869,N,08633.1242,W,1,,,226.7,M,,M,,*72
$GPRMC,031700.0,A,3443.4869,N,08633.1242,W,,,251218,,*11
$GPGGA,031730.0,3443.4910,N,08633.1338,W,1,,,224.2,M,,M,,*75
$GPRMC,031730.0,A,3443.4910,N,08633.1338,W,,,251218,,*11
$GPGGA,031800.1,3443.4923,N,08633.1344,W,1,,,221.7,M,,M,,*73
$GPRMC,031800.1,A,3443.4923,N,08633.1344,W,,,251218,,*17
$GPGGA,031830.1,3443.4918,N,08633.1281,W,1,,,222.8,M,,M,,*7C
$GPRMC,031830.1,A,3443.4918,N,08633.1281,W,,,251218,,*14
$GPGGA,031900.1,3443.4919,N,08633.1281,W,1,,,221.4,M,,M,,*70
$GPRMC,031900.1,A,3443.4919,N,08633.1281,W,,,251218,,*17
$GPGGA,032030.0,3443.4900,N,08633.1291,W,1,,,222.5,M,,M,,*73
$GPRMC,032030.0,A,3443.4900,N,08633.1291,W,,,251218,,*16
$GPGGA,032100.1,3443.4901,N,08633.1290,W,1,,,216.1,M,,M,,*73
$GPRMC,032100.1,A,3443.4901,N,08633.1290,W,,,251218,,*15
$GPGGA,032130.1,3443.4901,N,08633.1290,W,1,,,212.1,M,,M,,*74
$GPRMC,032130.1,A,3443.4901,N,08633.1290,W,,,251218,,*16
$GPGGA,032230.1,3443.4965,N,08633.1254,W,1,,,201.4,M,,M,,*7A
$GPRMC,032230.1,A,3443.4965,N,08633.1254,W,,,251218,,*1F
$GPGGA,032300.1,3443.4966,N,08633.1265,W,1,,,199.4,M,,M,,*7B
$GPRMC,032300.1,A,3443.4966,N,08633.1265,W,,,251218,,*1C
$GPGGA,032330.1,3443.4979,N,08633.1288,W,1,,,199.3,M,,M,,*72
$GPRMC,032330.1,A,3443.4979,N,08633.1288,W,,,251218,,*12
$GPGGA,032400.1,3443.4945,N,08633.1277,W,1,,,200.6,M,,M,,*7F
