@Olympus/+0900/+0900
$GPGGA,150020.0,3443.4901,N,08633.1293,W,1,,,227.5,M,,M,,*71
$GPRMC,150020.0,A,3443.4901,N,08633.1293,W,,,230119,,*14
$GPGGA,150050.0,3443.4903,N,08633.1293,W,1,,,227.4,M,,M,,*75
$GPRMC,150050.0,A,3443.4903,N,08633.1293,W,,,230119,,*11
$GPGGA,150120.0,3443.4903,N,08633.1293,W,1,,,227.2,M,,M,,*75
$GPRMC,150120.0,A,3443.4903,N,08633.1293,W,,,230119,,*17
$GPGGA,150150.0,3443.4903,N,08633.1293,W,1,,,227.5,M,,M,,*75
$GPRMC,150150.0,A,3443.4903,N,08633.1293,W,,,230119,,*10
$GPGGA,150220.0,3443.4903,N,08633.1292,W,1,,,228.1,M,,M,,*7B
$GPRMC,150220.0,A,3443.4903,N,08633.1292,W,,,230119,,*15
$GPGGA,150250.0,3443.4903,N,08633.1292,W,1,,,228.2,M,,M,,*7F
$GPRMC,150250.0,A,3443.4903,N,08633.1292,W,,,230119,,*12
$GPGGA,150320.1,3443.4903,N,08633.1292,W,1,,,228.0,M,,M,,*7A
$GPRMC,150320.1,A,3443.4903,N,08633.1292,W,,,230119,,*15
$GPGGA,150350.0,3443.4903,N,08633.1292,W,1,,,227.9,M,,M,,*7A
$GPRMC,150350.0,A,3443.4903,N,08633.1292,W,,,230119,,*13
$GPGGA,150420.0,3443.4890,N,08633.1249,W,1,,,225.3,M,,M,,*7F
$GPRMC,150420.0,A,3443.4890,N,08633.1249,W,,,230119,,*1E
$GPGGA,150450.0,3443.4891,N,08633.1249,W,1,,,223.3,M,,M,,*7F
$GPRMC,150450.0,A,3443.4891,N,08633.1249,W,,,230119,,*18
$GPGGA,150520.0,3443.4891,N,08633.1250,W,1,,,222.5,M,,M,,*76
$GPRMC,150520.0,A,3443.4891,N,08633.1250,W,,,230119,,*16
$GPGGA,150550.0,3443.4894,N,08633.1250,W,1,,,223.7,M,,M,,*77
$GPRMC,150550.0,A,3443.4894,N,08633.1250,W,,,230119,,*14
$GPGGA,150620.0,3443.4895,N,08633.1251,W,1,,,223.4,M,,M,,*70
$GPRMC,150620.0,A,3443.4895,N,08633.1251,W,,,230119,,*10
$GPGGA,150650.0,3443.4895,N,08633.1253,W,1,,,222.4,M,,M,,*74
$GPRMC,150650.0,A,3443.4895,N,08633.1253,W,,,230119,,*15
$GPGGA,150720.0,3443.4896,N,08633.1254,W,1,,,221.4,M,,M,,*75
$GPRMC,150720.0,A,3443.4896,N,08633.1254,W,,,230119,,*17
$GPGGA,150750.0,3443.4895,N,08633.1267,W,1,,,220.3,M,,M,,*77
$GPRMC,150750.0,A,3443.4895,N,08633.1267,W,,,230119,,*13
$GPGGA,150820.0,3443.4896,N,08633.1268,W,1,,,218.7,M,,M,,*7C
$GPRMC,150820.0,A,3443.4896,N,08633.1268,W,,,230119,,*17
$GPGGA,150850.0,3443.4896,N,08633.1268,W,1,,,219.1,M,,M,,*7C
$GPRMC,150850.0,A,3443.4896,N,08633.1268,W,,,230119,,*10
$GPGGA,150920.0,3443.4897,N,08633.1268,W,1,,,219.1,M,,M,,*7B
$GPRMC,150920.0,A,3443.4897,N,08633.1268,W,,,230119,,*17
$GPGGA,150950.0,3443.4897,N,08633.1268,W,1,,,219.3,M,,M,,*7E
$GPRMC,150950.0,A,3443.4897,N,08633.1268,W,,,230119,,*10
$GPGGA,151020.0,3443.4897,N,08633.1268,W,1,,,219.4,M,,M,,*76
$GPRMC,151020.0,A,3443.4897,N,08633.1268,W,,,230119,,*1F
$GPGGA,151050.0,3443.4897,N,08633.1268,W,1,,,219.3,M,,M,,*76
$GPRMC,151050.0,A,3443.4897,N,08633.1268,W,,,230119,,*18
$GPGGA,151120.0,3443.4897,N,08633.1268,W,1,,,219.5,M,,M,,*76
$GPRMC,151120.0,A,3443.4897,N,08633.1268,W,,,230119,,*1E
$GPGGA,151150.0,3443.4897,N,08633.1268,W,1,,,219.5,M,,M,,*71
$GPRMC,151150.0,A,3443.4897,N,08633.1268,W,,,230119,,*19
$GPGGA,151220.0,3443.4898,N,08633.1268,W,1,,,219.5,M,,M,,*7A
$GPRMC,151220.0,A,3443.4898,N,08633.1268,W,,,230119,,*12
$GPGGA,151250.0,3443.4898,N,08633.1268,W,1,,,220.3,M,,M,,*71
$GPRMC,151250.0,A,3443.4898,N,08633.1268,W,,,230119,,*15
$GPGGA,151320.0,3443.4905,N,08633.1270,W,1,,,220.7,M,,M,,*7F
$GPRMC,151320.0,A,3443.4905,N,08633.1270,W,,,230119,,*1F
$GPGGA,151350.0,3443.4905,N,08633.1270,W,1,,,220.4,M,,M,,*7B
$GPRMC,151350.0,A,3443.4905,N,08633.1270,W,,,230119,,*18
$GPGGA,151420.0,3443.4905,N,08633.1270,W,1,,,220.1,M,,M,,*7E
$GPRMC,151420.0,A,3443.4905,N,08633.1270,W,,,230119,,*18
$GPGGA,151450.0,3443.4905,N,08633.1270,W,1,,,220.0,M,,M,,*78
$GPRMC,151450.0,A,3443.4905,N,08633.1270,W,,,230119,,*1F
$GPGGA,151520.0,3443.4911,N,08633.1271,W,1,,,217.8,M,,M,,*76
$GPRMC,151520.0,A,3443.4911,N,08633.1271,W,,,230119,,*1D
$GPGGA,151550.0,3443.4910,N,08633.1271,W,1,,,217.7,M,,M,,*7F
$GPRMC,151550.0,A,3443.4910,N,08633.1271,W,,,230119,,*1B
$GPGGA,151620.0,3443.4910,N,08633.1271,W,1,,,217.7,M,,M,,*7B
$GPRMC,151620.0,A,3443.4910,N,08633.1271,W,,,230119,,*1F
$GPGGA,151650.0,3443.4910,N,08633.1271,W,1,,,217.7,M,,M,,*7C
$GPRMC,151650.0,A,3443.4910,N,08633.1271,W,,,230119,,*18
$GPGGA,151720.0,3443.4910,N,08633.1271,W,1,,,218.0,M,,M,,*72
$GPRMC,151720.0,A,3443.4910,N,08633.1271,W,,,230119,,*1E
$GPGGA,151750.0,3443.4910,N,08633.1271,W,1,,,218.2,M,,M,,*77
$GPRMC,151750.0,A,3443.4910,N,08633.1271,W,,,230119,,*19
$GPGGA,151820.0,3443.4910,N,08633.1270,W,1,,,218.7,M,,M,,*7B
$GPRMC,151820.0,A,3443.4910,N,08633.1270,W,,,230119,,*10
$GPGGA,151850.0,3443.4922,N,08633.1277,W,1,,,219.0,M,,M,,*7C
$GPRMC,151850.0,A,3443.4922,N,08633.1277,W,,,230119,,*11
$GPGGA,151920.0,3443.4922,N,08633.1277,W,1,,,219.0,M,,M,,*7A
$GPRMC,151920.0,A,3443.4922,N,08633.1277,W,,,230119,,*17
$GPGGA,151950.0,3443.4922,N,08633.1277,W,1,,,219.0,M,,M,,*7D
$GPRMC,151950.0,A,3443.4922,N,08633.1277,W,,,230119,,*10
$GPGGA,152020.0,3443.4922,N,08633.1277,W,1,,,219.0,M,,M,,*70
$GPRMC,152020.0,A,3443.4922,N,08633.1277,W,,,230119,,*1D
$GPGGA,152050.0,3443.4922,N,08633.1276,W,1,,,219.0,M,,M,,*76
$GPRMC,152050.0,A,3443.4922,N,08633.1276,W,,,230119,,*1B
$GPGGA,152120.0,3443.4922,N,08633.1276,W,1,,,219.0,M,,M,,*70
$GPRMC,152120.0,A,3443.4922,N,08633.1276,W,,,230119,,*1D
$GPGGA,152150.0,3443.4922,N,08633.1276,W,1,,,219.1,M,,M,,*76
$GPRMC,152150.0,A,3443.4922,N,08633.1276,W,,,230119,,*1A
$GPGGA,152220.0,3443.4922,N,08633.1276,W,1,,,219.1,M,,M,,*72
$GPRMC,152220.0,A,3443.4922,N,08633.1276,W,,,230119,,*1E
$GPGGA,152304.0,3443.4922,N,08633.1276,W,1,,,219.1,M,,M,,*75
$GPRMC,152304.0,A,3443.4922,N,08633.1276,W,,,230119,,*19
$GPGGA,152334.0,3443.4922,N,08633.1276,W,1,,,219.2,M,,M,,*75
$GPRMC,152334.0,A,3443.4922,N,08633.1276,W,,,230119,,*1A
$GPGGA,152404.0,3443.4922,N,08633.1276,W,1,,,219.2,M,,M,,*71
$GPRMC,152404.0,A,3443.4922,N,08633.1276,W,,,230119,,*1E
$GPGGA,152434.0,3443.4921,N,08633.1276,W,1,,,219.2,M,,M,,*71
$GPRMC,152434.0,A,3443.4921,N,08633.1276,W,,,230119,,*1E
$GPGGA,152504.0,3443.4921,N,08633.1276,W,1,,,219.0,M,,M,,*71
$GPRMC,152504.0,A,3443.4921,N,08633.1276,W,,,230119,,*1C
$GPGGA,152534.0,3443.4921,N,08633.1276,W,1,,,218.9,M,,M,,*7A
$GPRMC,152534.0,A,3443.4921,N,08633.1276,W,,,230119,,*1F
$GPGGA,152604.0,3443.4921,N,08633.1276,W,1,,,219.0,M,,M,,*72
$GPRMC,152604.0,A,3443.4921,N,08633.1276,W,,,230119,,*1F
$GPGGA,152620.0,3443.4921,N,08633.1276,W,1,,,219.2,M,,M,,*76
$GPRMC,152620.0,A,3443.4921,N,08633.1276,W,,,230119,,*19
$GPGGA,152650.0,3443.4921,N,08633.1276,W,1,,,219.3,M,,M,,*70
$GPRMC,152650.0,A,3443.4921,N,08633.1276,W,,,230119,,*1E
$GPGGA,152720.0,3443.4921,N,08633.1276,W,1,,,219.6,M,,M,,*73
$GPRMC,152720.0,A,3443.4921,N,08633.1276,W,,,230119,,*18
$GPGGA,152750.0,3443.4921,N,08633.1276,W,1,,,220.1,M,,M,,*79
$GPRMC,152750.0,A,3443.4921,N,08633.1276,W,,,230119,,*1F
$GPGGA,152820.0,3443.4921,N,08633.1274,W,1,,,220.3,M,,M,,*71
$GPRMC,152820.0,A,3443.4921,N,08633.1274,W,,,230119,,*15
$GPGGA,152850.0,3443.4921,N,08633.1274,W,1,,,220.4,M,,M,,*71
$GPRMC,152850.0,A,3443.4921,N,08633.1274,W,,,230119,,*12
$GPGGA,152920.0,3443.4921,N,08633.1274,W,1,,,220.6,M,,M,,*75
$GPRMC,152920.0,A,3443.4921,N,08633.1274,W,,,230119,,*14
$GPGGA,152950.0,3443.4920,N,08633.1274,W,1,,,221.0,M,,M,,*74
$GPRMC,152950.0,A,3443.4920,N,08633.1274,W,,,230119,,*12
$GPGGA,153020.0,3443.4920,N,08633.1274,W,1,,,221.0,M,,M,,*7B
$GPRMC,153020.0,A,3443.4920,N,08633.1274,W,,,230119,,*1D
$GPGGA,153050.0,3443.4920,N,08633.1274,W,1,,,221.1,M,,M,,*7D
$GPRMC,153050.0,A,3443.4920,N,08633.1274,W,,,230119,,*1A
$GPGGA,153120.0,3443.4920,N,08633.1274,W,1,,,221.2,M,,M,,*78
$GPRMC,153120.0,A,3443.4920,N,08633.1274,W,,,230119,,*1C
$GPGGA,153150.0,3443.4920,N,08633.1273,W,1,,,221.7,M,,M,,*7D
$GPRMC,153150.0,A,3443.4920,N,08633.1273,W,,,230119,,*1C
$GPGGA,153220.0,3443.4920,N,08633.1273,W,1,,,222.0,M,,M,,*7D
$GPRMC,153220.0,A,3443.4920,N,08633.1273,W,,,230119,,*18
$GPGGA,153250.0,3443.4923,N,08633.1269,W,1,,,220.6,M,,M,,*76
$GPRMC,153250.0,A,3443.4923,N,08633.1269,W,,,230119,,*17
$GPGGA,153320.0,3443.4923,N,08633.1269,W,1,,,221.0,M,,M,,*77
$GPRMC,153320.0,A,3443.4923,N,08633.1269,W,,,230119,,*11
$GPGGA,153350.0,3443.4922,N,08633.1269,W,1,,,221.7,M,,M,,*76
$GPRMC,153350.0,A,3443.4922,N,08633.1269,W,,,230119,,*17
$GPGGA,153420.0,3443.4922,N,08633.1269,W,1,,,221.8,M,,M,,*79
$GPRMC,153420.0,A,3443.4922,N,08633.1269,W,,,230119,,*17
$GPGGA,153450.0,3443.4922,N,08633.1268,W,1,,,221.9,M,,M,,*7E
$GPRMC,153450.0,A,3443.4922,N,08633.1268,W,,,230119,,*11
$GPGGA,153520.0,3443.4922,N,08633.1268,W,1,,,222.3,M,,M,,*71
$GPRMC,153520.0,A,3443.4922,N,08633.1268,W,,,230119,,*17
$GPGGA,153550.0,3443.4922,N,08633.1268,W,1,,,222.5,M,,M,,*70
$GPRMC,153550.0,A,3443.4922,N,08633.1268,W,,,230119,,*10
$GPGGA,153620.0,3443.4922,N,08633.1268,W,1,,,222.6,M,,M,,*77
$GPRMC,153620.0,A,3443.4922,N,08633.1268,W,,,230119,,*14
$GPGGA,153650.0,3443.4921,N,08633.1268,W,1,,,222.8,M,,M,,*7D
$GPRMC,153650.0,A,3443.4921,N,08633.1268,W,,,230119,,*10
$GPGGA,153720.0,3443.4921,N,08633.1268,W,1,,,223.1,M,,M,,*73
$GPRMC,153720.0,A,3443.4921,N,08633.1268,W,,,230119,,*16
$GPGGA,153750.0,3443.4920,N,08633.1269,W,1,,,224.3,M,,M,,*71
$GPRMC,153750.0,A,3443.4920,N,08633.1269,W,,,230119,,*11
$GPGGA,153820.0,3443.4912,N,08633.1267,W,1,,,225.6,M,,M,,*72
$GPRMC,153820.0,A,3443.4912,N,08633.1267,W,,,230119,,*16
$GPGGA,153850.0,3443.4912,N,08633.1267,W,1,,,225.7,M,,M,,*74
$GPRMC,153850.0,A,3443.4912,N,08633.1267,W,,,230119,,*11
$GPGGA,153920.0,3443.4912,N,08633.1267,W,1,,,225.5,M,,M,,*70
$GPRMC,153920.0,A,3443.4912,N,08633.1267,W,,,230119,,*17
$GPGGA,153950.0,3443.4912,N,08633.1267,W,1,,,225.3,M,,M,,*71
$GPRMC,153950.0,A,3443.4912,N,08633.1267,W,,,230119,,*10
$GPGGA,154020.0,3443.4912,N,08633.1267,W,1,,,225.4,M,,M,,*7F
$GPRMC,154020.0,A,3443.4912,N,08633.1267,W,,,230119,,*19
$GPGGA,154050.0,3443.4913,N,08633.1267,W,1,,,225.6,M,,M,,*7B
$GPRMC,154050.0,A,3443.4913,N,08633.1267,W,,,230119,,*1F
$GPGGA,154120.0,3443.4915,N,08633.1266,W,1,,,225.8,M,,M,,*74
$GPRMC,154120.0,A,3443.4915,N,08633.1266,W,,,230119,,*1E
$GPGGA,154150.0,3443.4915,N,08633.1266,W,1,,,225.8,M,,M,,*73
$GPRMC,154150.0,A,3443.4915,N,08633.1266,W,,,230119,,*19
$GPGGA,154220.0,3443.4915,N,08633.1266,W,1,,,225.9,M,,M,,*76
$GPRMC,154220.0,A,3443.4915,N,08633.1266,W,,,230119,,*1D
$GPGGA,154250.0,3443.4915,N,08633.1266,W,1,,,225.9,M,,M,,*71
$GPRMC,154250.0,A,3443.4915,N,08633.1266,W,,,230119,,*1A
$GPGGA,154320.0,3443.4915,N,08633.1266,W,1,,,225.9,M,,M,,*77
$GPRMC,154320.0,A,3443.4915,N,08633.1266,W,,,230119,,*1C
$GPGGA,154350.0,3443.4915,N,08633.1265,W,1,,,225.9,M,,M,,*73
$GPRMC,154350.0,A,3443.4915,N,08633.1265,W,,,230119,,*18
$GPGGA,154420.0,3443.4917,N,08633.1274,W,1,,,225.2,M,,M,,*7A
$GPRMC,154420.0,A,3443.4917,N,08633.1274,W,,,230119,,*1A
$GPGGA,154450.0,3443.4917,N,08633.1274,W,1,,,225.1,M,,M,,*7E
$GPRMC,154450.0,A,3443.4917,N,08633.1274,W,,,230119,,*1D
$GPGGA,154520.0,3443.4917,N,08633.1274,W,1,,,225.0,M,,M,,*79
$GPRMC,154520.0,A,3443.4917,N,08633.1274,W,,,230119,,*1B
$GPGGA,154550.0,3443.4918,N,08633.1273,W,1,,,224.9,M,,M,,*7E
$GPRMC,154550.0,A,3443.4918,N,08633.1273,W,,,230119,,*14
$GPGGA,154620.0,3443.4912,N,08633.1281,W,1,,,222.5,M,,M,,*77
$GPRMC,154620.0,A,3443.4912,N,08633.1281,W,,,230119,,*17
$GPGGA,154650.0,3443.4912,N,08633.1281,W,1,,,222.5,M,,M,,*70
$GPRMC,154650.0,A,3443.4912,N,08633.1281,W,,,230119,,*10
$GPGGA,154720.0,3443.4912,N,08633.1281,W,1,,,222.4,M,,M,,*77
$GPRMC,154720.0,A,3443.4912,N,08633.1281,W,,,230119,,*16
$GPGGA,154750.0,3443.4912,N,08633.1281,W,1,,,222.4,M,,M,,*70
$GPRMC,154750.0,A,3443.4912,N,08633.1281,W,,,230119,,*11
$GPGGA,154820.0,3443.4912,N,08633.1281,W,1,,,222.4,M,,M,,*78
$GPRMC,154820.0,A,3443.4912,N,08633.1281,W,,,230119,,*19
$GPGGA,154850.0,3443.4903,N,08633.1286,W,1,,,221.0,M,,M,,*7F
$GPRMC,154850.0,A,3443.4903,N,08633.1286,W,,,230119,,*19
$GPGGA,154920.0,3443.4903,N,08633.1286,W,1,,,221.0,M,,M,,*79
$GPRMC,154920.0,A,3443.4903,N,08633.1286,W,,,230119,,*1F
$GPGGA,154950.0,3443.4903,N,08633.1286,W,1,,,220.9,M,,M,,*76
$GPRMC,154950.0,A,3443.4903,N,08633.1286,W,,,230119,,*18
$GPGGA,155020.0,3443.4903,N,08633.1285,W,1,,,220.8,M,,M,,*7B
$GPRMC,155020.0,A,3443.4903,N,08633.1285,W,,,230119,,*14
$GPGGA,155050.0,3443.4904,N,08633.1285,W,1,,,220.8,M,,M,,*7B
$GPRMC,155050.0,A,3443.4904,N,08633.1285,W,,,230119,,*14
$GPGGA,155120.0,3443.4904,N,08633.1285,W,1,,,220.7,M,,M,,*72
$GPRMC,155120.0,A,3443.4904,N,08633.1285,W,,,230119,,*12
$GPGGA,155150.0,3443.4904,N,08633.1285,W,1,,,220.7,M,,M,,*75
$GPRMC,155150.0,A,3443.4904,N,08633.1285,W,,,230119,,*15
$GPGGA,155220.0,3443.4904,N,08633.1285,W,1,,,221.0,M,,M,,*77
$GPRMC,155220.0,A,3443.4904,N,08633.1285,W,,,230119,,*11
$GPGGA,155250.0,3443.4904,N,08633.1285,W,1,,,221.0,M,,M,,*70
$GPRMC,155250.0,A,3443.4904,N,08633.1285,W,,,230119,,*16
$GPGGA,155320.0,3443.4904,N,08633.1285,W,1,,,220.9,M,,M,,*7E
$GPRMC,155320.0,A,3443.4904,N,08633.1285,W,,,230119,,*10
$GPGGA,155350.3,3443.4904,N,08633.1285,W,1,,,220.8,M,,M,,*7B
$GPRMC,155350.3,A,3443.4904,N,08633.1285,W,,,230119,,*14
$GPGGA,155420.0,3443.4904,N,08633.1284,W,1,,,220.7,M,,M,,*76
$GPRMC,155420.0,A,3443.4904,N,08633.1284,W,,,230119,,*16
$GPGGA,155450.0,3443.4905,N,08633.1284,W,1,,,220.8,M,,M,,*7F
$GPRMC,155450.0,A,3443.4905,N,08633.1284,W,,,230119,,*10
$GPGGA,155520.0,3443.4905,N,08633.1284,W,1,,,220.9,M,,M,,*78
$GPRMC,155520.0,A,3443.4905,N,08633.1284,W,,,230119,,*16
$GPGGA,155550.0,3443.4905,N,08633.1284,W,1,,,220.9,M,,M,,*7F
$GPRMC,155550.0,A,3443.4905,N,08633.1284,W,,,230119,,*11
$GPGGA,155620.0,3443.4906,N,08633.1284,W,1,,,220.9,M,,M,,*78
$GPRMC,155620.0,A,3443.4906,N,08633.1284,W,,,230119,,*16
$GPGGA,155650.0,3443.4906,N,08633.1284,W,1,,,220.8,M,,M,,*7E
$GPRMC,155650.0,A,3443.4906,N,08633.1284,W,,,230119,,*11
$GPGGA,155720.0,3443.4906,N,08633.1284,W,1,,,220.8,M,,M,,*78
$GPRMC,155720.0,A,3443.4906,N,08633.1284,W,,,230119,,*17
$GPGGA,155750.0,3443.4906,N,08633.1284,W,1,,,220.8,M,,M,,*7F
$GPRMC,155750.0,A,3443.4906,N,08633.1284,W,,,230119,,*10
$GPGGA,155820.0,3443.4906,N,08633.1284,W,1,,,220.9,M,,M,,*76
$GPRMC,155820.0,A,3443.4906,N,08633.1284,W,,,230119,,*18
$GPGGA,155850.0,3443.4906,N,08633.1283,W,1,,,221.0,M,,M,,*7E
$GPRMC,155850.0,A,3443.4906,N,08633.1283,W,,,230119,,*18
$GPGGA,155920.1,3443.4906,N,08633.1283,W,1,,,221.1,M,,M,,*78
$GPRMC,155920.1,A,3443.4906,N,08633.1283,W,,,230119,,*1F
$GPGGA,155950.0,3443.4906,N,08633.1283,W,1,,,221.2,M,,M,,*7D
$GPRMC,155950.0,A,3443.4906,N,08633.1283,W,,,230119,,*19
$GPGGA,160020.0,3443.4907,N,08633.1283,W,1,,,221.2,M,,M,,*74
$GPRMC,160020.0,A,3443.4907,N,08633.1283,W,,,230119,,*10
$GPGGA,160050.0,3443.4907,N,08633.1282,W,1,,,221.3,M,,M,,*73
$GPRMC,160050.0,A,3443.4907,N,08633.1282,W,,,230119,,*16
$GPGGA,160120.0,3443.4905,N,08633.1284,W,1,,,222.6,M,,M,,*77
$GPRMC,160120.0,A,3443.4905,N,08633.1284,W,,,230119,,*14
$GPGGA,160150.0,3443.4908,N,08633.1285,W,1,,,221.6,M,,M,,*7F
$GPRMC,160150.0,A,3443.4908,N,08633.1285,W,,,230119,,*1F
$GPGGA,160220.0,3443.4908,N,08633.1284,W,1,,,221.9,M,,M,,*75
$GPRMC,160220.0,A,3443.4908,N,08633.1284,W,,,230119,,*1A
$GPGGA,160250.0,3443.4908,N,08633.1284,W,1,,,221.9,M,,M,,*72
$GPRMC,160250.0,A,3443.4908,N,08633.1284,W,,,230119,,*1D
$GPGGA,160320.0,3443.4908,N,08633.1283,W,1,,,222.1,M,,M,,*78
$GPRMC,160320.0,A,3443.4908,N,08633.1283,W,,,230119,,*1C
$GPGGA,160350.0,3443.4908,N,08633.1283,W,1,,,222.2,M,,M,,*7C
$GPRMC,160350.0,A,3443.4908,N,08633.1283,W,,,230119,,*1B
$GPGGA,160420.0,3443.4908,N,08633.1282,W,1,,,222.2,M,,M,,*7D
$GPRMC,160420.0,A,3443.4908,N,08633.1282,W,,,230119,,*1A
$GPGGA,160450.0,3443.4908,N,08633.1282,W,1,,,222.2,M,,M,,*7A
$GPRMC,160450.0,A,3443.4908,N,08633.1282,W,,,230119,,*1D
$GPGGA,160520.0,3443.4908,N,08633.1282,W,1,,,222.2,M,,M,,*7C
$GPRMC,160520.0,A,3443.4908,N,08633.1282,W,,,230119,,*1B
$GPGGA,160550.0,3443.4908,N,08633.1282,W,1,,,222.2,M,,M,,*7B
$GPRMC,160550.0,A,3443.4908,N,08633.1282,W,,,230119,,*1C
$GPGGA,160620.0,3443.4908,N,08633.1282,W,1,,,222.2,M,,M,,*7F
$GPRMC,160620.0,A,3443.4908,N,08633.1282,W,,,230119,,*18
$GPGGA,160650.0,3443.4908,N,08633.1282,W,1,,,222.2,M,,M,,*78
$GPRMC,160650.0,A,3443.4908,N,08633.1282,W,,,230119,,*1F
$GPGGA,160720.0,3443.4909,N,08633.1282,W,1,,,222.0,M,,M,,*7D
$GPRMC,160720.0,A,3443.4909,N,08633.1282,W,,,230119,,*18
$GPGGA,160750.0,3443.4909,N,08633.1282,W,1,,,221.7,M,,M,,*7E
$GPRMC,160750.0,A,3443.4909,N,08633.1282,W,,,230119,,*1F
$GPGGA,160820.0,3443.4909,N,08633.1282,W,1,,,221.5,M,,M,,*74
$GPRMC,160820.0,A,3443.4909,N,08633.1282,W,,,230119,,*17
$GPGGA,160850.0,3443.4909,N,08633.1282,W,1,,,221.4,M,,M,,*72
$GPRMC,160850.0,A,3443.4909,N,08633.1282,W,,,230119,,*10
$GPGGA,160920.0,3443.4910,N,08633.1282,W,1,,,221.2,M,,M,,*7A
$GPRMC,160920.0,A,3443.4910,N,08633.1282,W,,,230119,,*1E
$GPGGA,160950.0,3443.4910,N,08633.1282,W,1,,,221.2,M,,M,,*7D
$GPRMC,160950.0,A,3443.4910,N,08633.1282,W,,,230119,,*19
$GPGGA,161020.0,3443.4905,N,08633.1283,W,1,,,218.8,M,,M,,*77
$GPRMC,161020.0,A,3443.4905,N,08633.1283,W,,,230119,,*13
$GPGGA,161050.0,3443.4905,N,08633.1283,W,1,,,218.7,M,,M,,*7F
$GPRMC,161050.0,A,3443.4905,N,08633.1283,W,,,230119,,*14
$GPGGA,161120.0,3443.4905,N,08633.1283,W,1,,,218.7,M,,M,,*79
$GPRMC,161120.0,A,3443.4905,N,08633.1283,W,,,230119,,*12
$GPGGA,161150.0,3443.4906,N,08633.1282,W,1,,,218.7,M,,M,,*7C
$GPRMC,161150.0,A,3443.4906,N,08633.1282,W,,,230119,,*17
$GPGGA,161220.0,3443.4907,N,08633.1282,W,1,,,218.8,M,,M,,*76
$GPRMC,161220.0,A,3443.4907,N,08633.1282,W,,,230119,,*12
$GPGGA,161250.0,3443.4908,N,08633.1283,W,1,,,219.5,M,,M,,*73
$GPRMC,161250.0,A,3443.4908,N,08633.1283,W,,,230119,,*1B
$GPGGA,161320.0,3443.4894,N,08633.1293,W,1,,,222.8,M,,M,,*75
$GPRMC,161320.0,A,3443.4894,N,08633.1293,W,,,230119,,*18
$GPGGA,161350.0,3443.4900,N,08633.1288,W,1,,,226.2,M,,M,,*7A
$GPRMC,161350.0,A,3443.4900,N,08633.1288,W,,,230119,,*19
$GPGGA,161420.0,3443.4901,N,08633.1287,W,1,,,225.7,M,,M,,*72
$GPRMC,161420.0,A,3443.4901,N,08633.1287,W,,,230119,,*17
$GPGGA,161450.0,3443.4907,N,08633.1285,W,1,,,225.4,M,,M,,*72
$GPRMC,161450.0,A,3443.4907,N,08633.1285,W,,,230119,,*14
$GPGGA,161520.0,3443.4908,N,08633.1283,W,1,,,224.2,M,,M,,*7A
$GPRMC,161520.0,A,3443.4908,N,08633.1283,W,,,230119,,*1B
$GPGGA,161550.0,3443.4909,N,08633.1283,W,1,,,223.2,M,,M,,*7B
$GPRMC,161550.0,A,3443.4909,N,08633.1283,W,,,230119,,*1D
$GPGGA,161620.0,3443.4909,N,08633.1281,W,1,,,222.1,M,,M,,*7F
$GPRMC,161620.0,A,3443.4909,N,08633.1281,W,,,230119,,*1B
$GPGGA,161650.0,3443.4909,N,08633.1281,W,1,,,221.9,M,,M,,*73
$GPRMC,161650.0,A,3443.4909,N,08633.1281,W,,,230119,,*1C
$GPGGA,161720.0,3443.4909,N,08633.1281,W,1,,,222.3,M,,M,,*7C
$GPRMC,161720.0,A,3443.4909,N,08633.1281,W,,,230119,,*1A
$GPGGA,161750.0,3443.4909,N,08633.1280,W,1,,,223.3,M,,M,,*7B
$GPRMC,161750.0,A,3443.4909,N,08633.1280,W,,,230119,,*1C
$GPGGA,161820.0,3443.4913,N,08633.1276,W,1,,,222.9,M,,M,,*7A
$GPRMC,161820.0,A,3443.4913,N,08633.1276,W,,,230119,,*16
$GPGGA,161850.0,3443.4913,N,08633.1276,W,1,,,222.5,M,,M,,*71
$GPRMC,161850.0,A,3443.4913,N,08633.1276,W,,,230119,,*11
$GPGGA,161920.0,3443.4913,N,08633.1275,W,1,,,222.4,M,,M,,*75
$GPRMC,161920.0,A,3443.4913,N,08633.1275,W,,,230119,,*14
$GPGGA,161950.0,3443.4913,N,08633.1275,W,1,,,222.4,M,,M,,*72
$GPRMC,161950.0,A,3443.4913,N,08633.1275,W,,,230119,,*13
$GPGGA,162020.0,3443.4908,N,08633.1280,W,1,,,222.3,M,,M,,*78
$GPRMC,162020.0,A,3443.4908,N,08633.1280,W,,,230119,,*1E
$GPGGA,162050.0,3443.4908,N,08633.1280,W,1,,,222.4,M,,M,,*78
$GPRMC,162050.0,A,3443.4908,N,08633.1280,W,,,230119,,*19
$GPGGA,162120.0,3443.4908,N,08633.1279,W,1,,,222.2,M,,M,,*7E
$GPRMC,162120.0,A,3443.4908,N,08633.1279,W,,,230119,,*19
$GPGGA,162150.0,3443.4909,N,08633.1279,W,1,,,222.0,M,,M,,*7A
$GPRMC,162150.0,A,3443.4909,N,08633.1279,W,,,230119,,*1F
$GPGGA,162220.0,3443.4909,N,08633.1278,W,1,,,222.0,M,,M,,*7F
$GPRMC,162220.0,A,3443.4909,N,08633.1278,W,,,230119,,*1A
$GPGGA,162250.0,3443.4909,N,08633.1277,W,1,,,221.9,M,,M,,*7D
$GPRMC,162250.0,A,3443.4909,N,08633.1277,W,,,230119,,*12
$GPGGA,162320.0,3443.4910,N,08633.1275,W,1,,,221.5,M,,M,,*7D
$GPRMC,162320.0,A,3443.4910,N,08633.1275,W,,,230119,,*1E
$GPGGA,162350.0,3443.4909,N,08633.1275,W,1,,,221.7,M,,M,,*70
$GPRMC,162350.0,A,3443.4909,N,08633.1275,W,,,230119,,*11
$GPGGA,162420.0,3443.4908,N,08633.1274,W,1,,,222.5,M,,M,,*71
$GPRMC,162420.0,A,3443.4908,N,08633.1274,W,,,230119,,*11
$GPGGA,162450.0,3443.4913,N,08633.1278,W,1,,,222.6,M,,M,,*73
$GPRMC,162450.0,A,3443.4913,N,08633.1278,W,,,230119,,*10
$GPGGA,162520.0,3443.4913,N,08633.1277,W,1,,,223.0,M,,M,,*7D
$GPRMC,162520.0,A,3443.4913,N,08633.1277,W,,,230119,,*19
$GPGGA,162550.0,3443.4915,N,08633.1282,W,1,,,223.4,M,,M,,*72
$GPRMC,162550.0,A,3443.4915,N,08633.1282,W,,,230119,,*12
$GPGGA,162620.0,3443.4915,N,08633.1282,W,1,,,223.6,M,,M,,*74
$GPRMC,162620.0,A,3443.4915,N,08633.1282,W,,,230119,,*16
$GPGGA,162650.0,3443.4915,N,08633.1281,W,1,,,223.8,M,,M,,*7E
$GPRMC,162650.0,A,3443.4915,N,08633.1281,W,,,230119,,*12
$GPGGA,162720.0,3443.4915,N,08633.1281,W,1,,,223.8,M,,M,,*78
$GPRMC,162720.0,A,3443.4915,N,08633.1281,W,,,230119,,*14
$GPGGA,162750.0,3443.4923,N,08633.1287,W,1,,,225.0,M,,M,,*72
$GPRMC,162750.0,A,3443.4923,N,08633.1287,W,,,230119,,*10
$GPGGA,162820.0,3443.4925,N,08633.1290,W,1,,,223.4,M,,M,,*78
$GPRMC,162820.0,A,3443.4925,N,08633.1290,W,,,230119,,*18
$GPGGA,162850.0,3443.4942,N,08633.1316,W,1,,,240.8,M,,M,,*78
$GPRMC,162850.0,A,3443.4942,N,08633.1316,W,,,230119,,*11
$GPGGA,162920.0,3443.4946,N,08633.1318,W,1,,,242.5,M,,M,,*7B
$GPRMC,162920.0,A,3443.4946,N,08633.1318,W,,,230119,,*1D
$GPGGA,162950.0,3443.4946,N,08633.1317,W,1,,,239.8,M,,M,,*72
$GPRMC,162950.0,A,3443.4946,N,08633.1317,W,,,230119,,*15
$GPGGA,163020.0,3443.4942,N,08633.1312,W,1,,,235.5,M,,M,,*7D
$GPRMC,163020.0,A,3443.4942,N,08633.1312,W,,,230119,,*1B
$GPGGA,163050.0,3443.4942,N,08633.1311,W,1,,,235.5,M,,M,,*79
$GPRMC,163050.0,A,3443.4942,N,08633.1311,W,,,230119,,*1F
$GPGGA,163120.0,3443.4965,N,08633.1294,W,1,,,236.1,M,,M,,*71
$GPRMC,163120.0,A,3443.4965,N,08633.1294,W,,,230119,,*10
$GPGGA,163150.0,3443.4965,N,08633.1294,W,1,,,233.3,M,,M,,*71
$GPRMC,163150.0,A,3443.4965,N,08633.1294,W,,,230119,,*17
$GPGGA,163220.0,3443.4964,N,08633.1294,W,1,,,230.7,M,,M,,*73
$GPRMC,163220.0,A,3443.4964,N,08633.1294,W,,,230119,,*12
$GPGGA,163250.0,3443.4964,N,08633.1294,W,1,,,229.0,M,,M,,*7B
$GPRMC,163250.0,A,3443.4964,N,08633.1294,W,,,230119,,*15
$GPGGA,163320.2,3443.4976,N,08633.1293,W,1,,,234.7,M,,M,,*70
$GPRMC,163320.2,A,3443.4976,N,08633.1293,W,,,230119,,*15
$GPGGA,163350.0,3443.4976,N,08633.1293,W,1,,,234.0,M,,M,,*72
$GPRMC,163350.0,A,3443.4976,N,08633.1293,W,,,230119,,*10
$GPGGA,163420.0,3443.4975,N,08633.1293,W,1,,,232.1,M,,M,,*76
$GPRMC,163420.0,A,3443.4975,N,08633.1293,W,,,230119,,*13
$GPGGA,163450.0,3443.4975,N,08633.1292,W,1,,,231.0,M,,M,,*72
$GPRMC,163450.0,A,3443.4975,N,08633.1292,W,,,230119,,*15
$GPGGA,163520.0,3443.4974,N,08633.1291,W,1,,,229.2,M,,M,,*7D
$GPRMC,163520.0,A,3443.4974,N,08633.1291,W,,,230119,,*11
$GPGGA,163550.0,3443.4973,N,08633.1289,W,1,,,227.6,M,,M,,*7E
$GPRMC,163550.0,A,3443.4973,N,08633.1289,W,,,230119,,*18
$GPGGA,163620.0,3443.4973,N,08633.1288,W,1,,,227.0,M,,M,,*7D
$GPRMC,163620.0,A,3443.4973,N,08633.1288,W,,,230119,,*1D
$GPGGA,163650.0,3443.4972,N,08633.1288,W,1,,,226.5,M,,M,,*7F
$GPRMC,163650.0,A,3443.4972,N,08633.1288,W,,,230119,,*1B
$GPGGA,163720.0,3443.4971,N,08633.1287,W,1,,,226.4,M,,M,,*74
$GPRMC,163720.0,A,3443.4971,N,08633.1287,W,,,230119,,*11
$GPGGA,163750.0,3443.4970,N,08633.1287,W,1,,,226.4,M,,M,,*72
$GPRMC,163750.0,A,3443.4970,N,08633.1287,W,,,230119,,*17
$GPGGA,163820.0,3443.4968,N,08633.1286,W,1,,,226.7,M,,M,,*71
$GPRMC,163820.0,A,3443.4968,N,08633.1286,W,,,230119,,*17
$GPGGA,163850.0,3443.4965,N,08633.1285,W,1,,,226.8,M,,M,,*77
$GPRMC,163850.0,A,3443.4965,N,08633.1285,W,,,230119,,*1E
$GPGGA,163920.0,3443.4963,N,08633.1286,W,1,,,227.5,M,,M,,*78
$GPRMC,163920.0,A,3443.4963,N,08633.1286,W,,,230119,,*1D
$GPGGA,163950.0,3443.4960,N,08633.1286,W,1,,,228.2,M,,M,,*74
$GPRMC,163950.0,A,3443.4960,N,08633.1286,W,,,230119,,*19
$GPGGA,164020.0,3443.4965,N,08633.1292,W,1,,,234.1,M,,M,,*73
$GPRMC,164020.0,A,3443.4965,N,08633.1292,W,,,230119,,*10
$GPGGA,164050.0,3443.4963,N,08633.1292,W,1,,,228.4,M,,M,,*7A
$GPRMC,164050.0,A,3443.4963,N,08633.1292,W,,,230119,,*11
$GPGGA,164120.0,3443.4962,N,08633.1292,W,1,,,225.2,M,,M,,*76
$GPRMC,164120.0,A,3443.4962,N,08633.1292,W,,,230119,,*16
$GPGGA,164150.0,3443.4961,N,08633.1292,W,1,,,223.6,M,,M,,*70
$GPRMC,164150.0,A,3443.4961,N,08633.1292,W,,,230119,,*12
$GPGGA,164220.0,3443.4960,N,08633.1292,W,1,,,224.0,M,,M,,*74
$GPRMC,164220.0,A,3443.4960,N,08633.1292,W,,,230119,,*17
$GPGGA,164250.0,3443.4959,N,08633.1292,W,1,,,223.9,M,,M,,*77
$GPRMC,164250.0,A,3443.4959,N,08633.1292,W,,,230119,,*1A
$GPGGA,164320.0,3443.4958,N,08633.1292,W,1,,,224.1,M,,M,,*7F
$GPRMC,164320.0,A,3443.4958,N,08633.1292,W,,,230119,,*1D
$GPGGA,164350.0,3443.4957,N,08633.1291,W,1,,,226.6,M,,M,,*71
$GPRMC,164350.0,A,3443.4957,N,08633.1291,W,,,230119,,*16
$GPGGA,164420.0,3443.4956,N,08633.1291,W,1,,,228.8,M,,M,,*70
$GPRMC,164420.0,A,3443.4956,N,08633.1291,W,,,230119,,*17
$GPGGA,164450.0,3443.4954,N,08633.1290,W,1,,,229.9,M,,M,,*74
$GPRMC,164450.0,A,3443.4954,N,08633.1290,W,,,230119,,*13
$GPGGA,164520.0,3443.4952,N,08633.1289,W,1,,,229.6,M,,M,,*73
$GPRMC,164520.0,A,3443.4952,N,08633.1289,W,,,230119,,*1B
$GPGGA,164550.0,3443.4952,N,08633.1289,W,1,,,229.6,M,,M,,*74
$GPRMC,164550.0,A,3443.4952,N,08633.1289,W,,,230119,,*1C
$GPGGA,164620.0,3443.4948,N,08633.1288,W,1,,,228.3,M,,M,,*7E
$GPRMC,164620.0,A,3443.4948,N,08633.1288,W,,,230119,,*12
$GPGGA,164650.0,3443.4948,N,08633.1288,W,1,,,228.3,M,,M,,*79
$GPRMC,164650.0,A,3443.4948,N,08633.1288,W,,,230119,,*15
$GPGGA,164720.1,3443.4942,N,08633.1288,W,1,,,227.9,M,,M,,*71
$GPRMC,164720.1,A,3443.4942,N,08633.1288,W,,,230119,,*18
$GPGGA,164750.0,3443.4942,N,08633.1286,W,1,,,228.5,M,,M,,*7A
$GPRMC,164750.0,A,3443.4942,N,08633.1286,W,,,230119,,*10
$GPGGA,164820.0,3443.4939,N,08633.1285,W,1,,,228.6,M,,M,,*7E
$GPRMC,164820.0,A,3443.4939,N,08633.1285,W,,,230119,,*17
$GPGGA,164850.0,3443.4929,N,08633.1285,W,1,,,226.2,M,,M,,*72
$GPRMC,164850.0,A,3443.4929,N,08633.1285,W,,,230119,,*11
$GPGGA,164920.0,3443.4929,N,08633.1285,W,1,,,226.5,M,,M,,*73
$GPRMC,164920.0,A,3443.4929,N,08633.1285,W,,,230119,,*17
$GPGGA,164950.0,3443.4928,N,08633.1285,W,1,,,226.6,M,,M,,*76
$GPRMC,164950.0,A,3443.4928,N,08633.1285,W,,,230119,,*11
$GPGGA,165020.0,3443.4927,N,08633.1284,W,1,,,226.6,M,,M,,*77
$GPRMC,165020.0,A,3443.4927,N,08633.1284,W,,,230119,,*10
$GPGGA,165050.0,3443.4926,N,08633.1284,W,1,,,226.4,M,,M,,*73
$GPRMC,165050.0,A,3443.4926,N,08633.1284,W,,,230119,,*16
$GPGGA,165120.0,3443.4926,N,08633.1283,W,1,,,226.3,M,,M,,*75
$GPRMC,165120.0,A,3443.4926,N,08633.1283,W,,,230119,,*17
$GPGGA,165150.0,3443.4926,N,08633.1283,W,1,,,226.3,M,,M,,*72
$GPRMC,165150.0,A,3443.4926,N,08633.1283,W,,,230119,,*10
$GPGGA,165220.0,3443.4925,N,08633.1283,W,1,,,226.2,M,,M,,*74
$GPRMC,165220.0,A,3443.4925,N,08633.1283,W,,,230119,,*17
$GPGGA,165250.0,3443.4914,N,08633.1291,W,1,,,226.3,M,,M,,*73
$GPRMC,165250.0,A,3443.4914,N,08633.1291,W,,,230119,,*11
$GPGGA,165320.0,3443.4908,N,08633.1292,W,1,,,223.5,M,,M,,*78
$GPRMC,165320.0,A,3443.4908,N,08633.1292,W,,,230119,,*19
$GPGGA,165350.0,3443.4908,N,08633.1292,W,1,,,223.4,M,,M,,*7E
$GPRMC,165350.0,A,3443.4908,N,08633.1292,W,,,230119,,*1E
$GPGGA,165420.0,3443.4900,N,08633.1302,W,1,,,223.0,M,,M,,*7A
$GPRMC,165420.0,A,3443.4900,N,08633.1302,W,,,230119,,*1E
$GPGGA,165450.0,3443.4900,N,08633.1302,W,1,,,222.7,M,,M,,*7B
$GPRMC,165450.0,A,3443.4900,N,08633.1302,W,,,230119,,*19
$GPGGA,165520.0,3443.4900,N,08633.1302,W,1,,,222.6,M,,M,,*7C
$GPRMC,165520.0,A,3443.4900,N,08633.1302,W,,,230119,,*1F
$GPGGA,165550.0,3443.4898,N,08633.1295,W,1,,,223.8,M,,M,,*7B
$GPRMC,165550.0,A,3443.4898,N,08633.1295,W,,,230119,,*17
$GPGGA,165620.0,3443.4897,N,08633.1293,W,1,,,223.0,M,,M,,*7E
$GPRMC,165620.0,A,3443.4897,N,08633.1293,W,,,230119,,*1A
$GPGGA,165650.0,3443.4896,N,08633.1292,W,1,,,223.3,M,,M,,*7A
$GPRMC,165650.0,A,3443.4896,N,08633.1292,W,,,230119,,*1D
$GPGGA,165720.0,3443.4896,N,08633.1289,W,1,,,222.6,M,,M,,*72
$GPRMC,165720.0,A,3443.4896,N,08633.1289,W,,,230119,,*11
$GPGGA,165750.0,3443.4895,N,08633.1286,W,1,,,221.8,M,,M,,*74
$GPRMC,165750.0,A,3443.4895,N,08633.1286,W,,,230119,,*1A
$GPGGA,165820.0,3443.4895,N,08633.1283,W,1,,,221.7,M,,M,,*76
$GPRMC,165820.0,A,3443.4895,N,08633.1283,W,,,230119,,*17
$GPGGA,165850.0,3443.4895,N,08633.1282,W,1,,,221.1,M,,M,,*76
$GPRMC,165850.0,A,3443.4895,N,08633.1282,W,,,230119,,*11
$GPGGA,165920.0,3443.4895,N,08633.1281,W,1,,,220.9,M,,M,,*7A
$GPRMC,165920.0,A,3443.4895,N,08633.1281,W,,,230119,,*14
$GPGGA,165950.0,3443.4895,N,08633.1281,W,1,,,221.0,M,,M,,*75
$GPRMC,165950.0,A,3443.4895,N,08633.1281,W,,,230119,,*13
$GPGGA,170020.0,3443.4904,N,08633.1275,W,1,,,221.1,M,,M,,*7C
$GPRMC,170020.0,A,3443.4904,N,08633.1275,W,,,230119,,*1B
$GPGGA,170050.1,3443.4904,N,08633.1275,W,1,,,221.0,M,,M,,*7B
$GPRMC,170050.1,A,3443.4904,N,08633.1275,W,,,230119,,*1D
$GPGGA,170120.0,3443.4904,N,08633.1275,W,1,,,221.0,M,,M,,*7C
$GPRMC,170120.0,A,3443.4904,N,08633.1275,W,,,230119,,*1A
$GPGGA,170150.0,3443.4904,N,08633.1275,W,1,,,220.9,M,,M,,*73
$GPRMC,170150.0,A,3443.4904,N,08633.1275,W,,,230119,,*1D
$GPGGA,170220.0,3443.4899,N,08633.1285,W,1,,,219.8,M,,M,,*76
$GPRMC,170220.0,A,3443.4899,N,08633.1285,W,,,230119,,*13
$GPGGA,170250.0,3443.4899,N,08633.1285,W,1,,,219.9,M,,M,,*70
$GPRMC,170250.0,A,3443.4899,N,08633.1285,W,,,230119,,*14
$GPGGA,170320.0,3443.4898,N,08633.1285,W,1,,,220.0,M,,M,,*74
$GPRMC,170320.0,A,3443.4898,N,08633.1285,W,,,230119,,*13
$GPGGA,170350.1,3443.4898,N,08633.1285,W,1,,,220.1,M,,M,,*73
$GPRMC,170350.1,A,3443.4898,N,08633.1285,W,,,230119,,*15
$GPGGA,170420.0,3443.4898,N,08633.1284,W,1,,,220.1,M,,M,,*73
$GPRMC,170420.0,A,3443.4898,N,08633.1284,W,,,230119,,*15
$GPGGA,170450.0,3443.4898,N,08633.1283,W,1,,,220.2,M,,M,,*70
$GPRMC,170450.0,A,3443.4898,N,08633.1283,W,,,230119,,*15
$GPGGA,170520.0,3443.4897,N,08633.1284,W,1,,,220.4,M,,M,,*78
$GPRMC,170520.0,A,3443.4897,N,08633.1284,W,,,230119,,*1B
$GPGGA,170550.0,3443.4897,N,08633.1284,W,1,,,220.8,M,,M,,*73
$GPRMC,170550.0,A,3443.4897,N,08633.1284,W,,,230119,,*1C
$GPGGA,170620.0,3443.4897,N,08633.1284,W,1,,,221.2,M,,M,,*7C
$GPRMC,170620.0,A,3443.4897,N,08633.1284,W,,,230119,,*18
$GPGGA,170650.0,3443.4909,N,08633.1288,W,1,,,223.2,M,,M,,*73
$GPRMC,170650.0,A,3443.4909,N,08633.1288,W,,,230119,,*15
$GPGGA,170720.0,3443.4909,N,08633.1288,W,1,,,223.8,M,,M,,*7F
$GPRMC,170720.0,A,3443.4909,N,08633.1288,W,,,230119,,*13
$GPGGA,170750.0,3443.4909,N,08633.1288,W,1,,,224.6,M,,M,,*71
$GPRMC,170750.0,A,3443.4909,N,08633.1288,W,,,230119,,*14
$GPGGA,170820.0,3443.4909,N,08633.1287,W,1,,,225.1,M,,M,,*70
$GPRMC,170820.0,A,3443.4909,N,08633.1287,W,,,230119,,*13
$GPGGA,170850.0,3443.4909,N,08633.1287,W,1,,,225.4,M,,M,,*72
$GPRMC,170850.0,A,3443.4909,N,08633.1287,W,,,230119,,*14
$GPGGA,170920.0,3443.4914,N,08633.1285,W,1,,,225.6,M,,M,,*78
$GPRMC,170920.0,A,3443.4914,N,08633.1285,W,,,230119,,*1C
$GPGGA,170950.0,3443.4908,N,08633.1277,W,1,,,223.0,M,,M,,*7F
$GPRMC,170950.0,A,3443.4908,N,08633.1277,W,,,230119,,*1B
$GPGGA,171020.0,3443.4908,N,08633.1278,W,1,,,223.2,M,,M,,*7D
$GPRMC,171020.0,A,3443.4908,N,08633.1278,W,,,230119,,*1B
$GPGGA,171050.0,3443.4908,N,08633.1278,W,1,,,223.1,M,,M,,*79
$GPRMC,171050.0,A,3443.4908,N,08633.1278,W,,,230119,,*1C
$GPGGA,171120.0,3443.4901,N,08633.1272,W,1,,,224.1,M,,M,,*7B
$GPRMC,171120.0,A,3443.4901,N,08633.1272,W,,,230119,,*19
$GPGGA,171150.0,3443.4901,N,08633.1272,W,1,,,224.0,M,,M,,*7D
$GPRMC,171150.0,A,3443.4901,N,08633.1272,W,,,230119,,*1E
$GPGGA,171220.0,3443.4901,N,08633.1272,W,1,,,223.9,M,,M,,*77
$GPRMC,171220.0,A,3443.4901,N,08633.1272,W,,,230119,,*1A
$GPGGA,171250.4,3443.4901,N,08633.1272,W,1,,,223.9,M,,M,,*74
$GPRMC,171250.4,A,3443.4901,N,08633.1272,W,,,230119,,*19
$GPGGA,171320.0,3443.4901,N,08633.1272,W,1,,,223.9,M,,M,,*76
$GPRMC,171320.0,A,3443.4901,N,08633.1272,W,,,230119,,*1B
$GPGGA,171350.0,3443.4894,N,08633.1270,W,1,,,224.3,M,,M,,*73
$GPRMC,171350.0,A,3443.4894,N,08633.1270,W,,,230119,,*13
$GPGGA,171420.0,3443.4890,N,08633.1268,W,1,,,224.0,M,,M,,*7D
$GPRMC,171420.0,A,3443.4890,N,08633.1268,W,,,230119,,*1E
$GPGGA,171450.1,3443.4895,N,08633.1270,W,1,,,224.1,M,,M,,*76
$GPRMC,171450.1,A,3443.4895,N,08633.1270,W,,,230119,,*14
$GPGGA,171520.0,3443.4895,N,08633.1269,W,1,,,223.8,M,,M,,*77
$GPRMC,171520.0,A,3443.4895,N,08633.1269,W,,,230119,,*1B
$GPGGA,171550.0,3443.4895,N,08633.1269,W,1,,,223.7,M,,M,,*7F
$GPRMC,171550.0,A,3443.4895,N,08633.1269,W,,,230119,,*1C
$GPGGA,171620.0,3443.4895,N,08633.1269,W,1,,,223.6,M,,M,,*7A
$GPRMC,171620.0,A,3443.4895,N,08633.1269,W,,,230119,,*18
$GPGGA,171650.0,3443.4912,N,08633.1275,W,1,,,225.0,M,,M,,*7E
$GPRMC,171650.0,A,3443.4912,N,08633.1275,W,,,230119,,*1C
$GPGGA,171720.0,3443.4911,N,08633.1275,W,1,,,225.6,M,,M,,*7D
$GPRMC,171720.0,A,3443.4911,N,08633.1275,W,,,230119,,*19
$GPGGA,171750.2,3443.4942,N,08633.1278,W,1,,,226.4,M,,M,,*72
$GPRMC,171750.2,A,3443.4942,N,08633.1278,W,,,230119,,*17
$GPGGA,171820.0,3443.4946,N,08633.1288,W,1,,,229.5,M,,M,,*7D
$GPRMC,171820.0,A,3443.4946,N,08633.1288,W,,,230119,,*16
$GPGGA,171850.0,3443.4959,N,08633.1266,W,1,,,224.6,M,,M,,*7A
$GPRMC,171850.0,A,3443.4959,N,08633.1266,W,,,230119,,*1F
$GPGGA,171920.0,3443.4952,N,08633.1265,W,1,,,223.8,M,,M,,*7D
$GPRMC,171920.0,A,3443.4952,N,08633.1265,W,,,230119,,*11
$GPGGA,171950.0,3443.4951,N,08633.1265,W,1,,,223.9,M,,M,,*78
$GPRMC,171950.0,A,3443.4951,N,08633.1265,W,,,230119,,*15
$GPGGA,172020.0,3443.4950,N,08633.1265,W,1,,,224.1,M,,M,,*7B
$GPRMC,172020.0,A,3443.4950,N,08633.1265,W,,,230119,,*19
$GPGGA,172050.0,3443.4948,N,08633.1264,W,1,,,223.4,M,,M,,*76
$GPRMC,172050.0,A,3443.4948,N,08633.1264,W,,,230119,,*16
$GPGGA,172120.0,3443.4946,N,08633.1264,W,1,,,223.4,M,,M,,*7E
$GPRMC,172120.0,A,3443.4946,N,08633.1264,W,,,230119,,*1E
$GPGGA,172150.0,3443.4944,N,08633.1264,W,1,,,223.5,M,,M,,*7A
$GPRMC,172150.0,A,3443.4944,N,08633.1264,W,,,230119,,*1B
$GPGGA,172220.0,3443.4943,N,08633.1263,W,1,,,223.4,M,,M,,*7F
$GPRMC,172220.0,A,3443.4943,N,08633.1263,W,,,230119,,*1F
$GPGGA,172250.0,3443.4941,N,08633.1263,W,1,,,223.0,M,,M,,*7E
$GPRMC,172250.0,A,3443.4941,N,08633.1263,W,,,230119,,*1A
$GPGGA,172320.0,3443.4941,N,08633.1262,W,1,,,222.7,M,,M,,*7F
$GPRMC,172320.0,A,3443.4941,N,08633.1262,W,,,230119,,*1D
$GPGGA,172350.0,3443.4937,N,08633.1264,W,1,,,223.1,M,,M,,*78
$GPRMC,172350.0,A,3443.4937,N,08633.1264,W,,,230119,,*1D
$GPGGA,172420.0,3443.4937,N,08633.1264,W,1,,,223.1,M,,M,,*78
$GPRMC,172420.0,A,3443.4937,N,08633.1264,W,,,230119,,*1D
$GPGGA,172450.0,3443.4937,N,08633.1264,W,1,,,223.0,M,,M,,*7E
$GPRMC,172450.0,A,3443.4937,N,08633.1264,W,,,230119,,*1A
$GPGGA,172520.0,3443.4934,N,08633.1265,W,1,,,222.4,M,,M,,*7F
$GPRMC,172520.0,A,3443.4934,N,08633.1265,W,,,230119,,*1E
$GPGGA,172550.0,3443.4945,N,08633.1259,W,1,,,221.8,M,,M,,*7E
$GPRMC,172550.0,A,3443.4945,N,08633.1259,W,,,230119,,*10
$GPGGA,172620.0,3443.4945,N,08633.1259,W,1,,,222.5,M,,M,,*74
$GPRMC,172620.0,A,3443.4945,N,08633.1259,W,,,230119,,*14
$GPGGA,172650.0,3443.4944,N,08633.1259,W,1,,,221.5,M,,M,,*71
$GPRMC,172650.0,A,3443.4944,N,08633.1259,W,,,230119,,*12
$GPGGA,172720.0,3443.4944,N,08633.1259,W,1,,,221.2,M,,M,,*70
$GPRMC,172720.0,A,3443.4944,N,08633.1259,W,,,230119,,*14
$GPGGA,172750.0,3443.4943,N,08633.1258,W,1,,,221.0,M,,M,,*73
$GPRMC,172750.0,A,3443.4943,N,08633.1258,W,,,230119,,*15
$GPGGA,172820.2,3443.4941,N,08633.1258,W,1,,,221.5,M,,M,,*7E
$GPRMC,172820.2,A,3443.4941,N,08633.1258,W,,,230119,,*1D
$GPGGA,172850.0,3443.4941,N,08633.1258,W,1,,,221.9,M,,M,,*77
$GPRMC,172850.0,A,3443.4941,N,08633.1258,W,,,230119,,*18
$GPGGA,172920.0,3443.4940,N,08633.1258,W,1,,,222.0,M,,M,,*7A
$GPRMC,172920.0,A,3443.4940,N,08633.1258,W,,,230119,,*1F
$GPGGA,172950.0,3443.4938,N,08633.1258,W,1,,,221.6,M,,M,,*77
$GPRMC,172950.0,A,3443.4938,N,08633.1258,W,,,230119,,*17
$GPGGA,173020.0,3443.4938,N,08633.1258,W,1,,,221.4,M,,M,,*7A
$GPRMC,173020.0,A,3443.4938,N,08633.1258,W,,,230119,,*18
$GPGGA,173050.2,3443.4937,N,08633.1258,W,1,,,221.2,M,,M,,*76
$GPRMC,173050.2,A,3443.4937,N,08633.1258,W,,,230119,,*12
$GPGGA,173120.0,3443.4937,N,08633.1258,W,1,,,220.9,M,,M,,*78
$GPRMC,173120.0,A,3443.4937,N,08633.1258,W,,,230119,,*16
$GPGGA,173150.0,3443.4937,N,08633.1262,W,1,,,221.2,M,,M,,*7C
$GPRMC,173150.0,A,3443.4937,N,08633.1262,W,,,230119,,*18
$GPGGA,173220.0,3443.4936,N,08633.1261,W,1,,,220.5,M,,M,,*7C
$GPRMC,173220.0,A,3443.4936,N,08633.1261,W,,,230119,,*1E
$GPGGA,173250.2,3443.4935,N,08633.1261,W,1,,,219.3,M,,M,,*76
$GPRMC,173250.2,A,3443.4935,N,08633.1261,W,,,230119,,*18
$GPGGA,173320.0,3443.4953,N,08633.1271,W,1,,,219.7,M,,M,,*77
$GPRMC,173320.0,A,3443.4953,N,08633.1271,W,,,230119,,*1D
$GPGGA,173350.0,3443.4952,N,08633.1272,W,1,,,219.9,M,,M,,*7C
$GPRMC,173350.0,A,3443.4952,N,08633.1272,W,,,230119,,*18
$GPGGA,173420.0,3443.4951,N,08633.1272,W,1,,,220.4,M,,M,,*78
$GPRMC,173420.0,A,3443.4951,N,08633.1272,W,,,230119,,*1B
$GPGGA,173450.0,3443.4949,N,08633.1272,W,1,,,221.4,M,,M,,*77
$GPRMC,173450.0,A,3443.4949,N,08633.1272,W,,,230119,,*15
$GPGGA,173520.0,3443.4948,N,08633.1277,W,1,,,223.4,M,,M,,*77
$GPRMC,173520.0,A,3443.4948,N,08633.1277,W,,,230119,,*17
$GPGGA,173550.0,3443.4947,N,08633.1276,W,1,,,223.8,M,,M,,*72
$GPRMC,173550.0,A,3443.4947,N,08633.1276,W,,,230119,,*1E
$GPGGA,173620.0,3443.4947,N,08633.1276,W,1,,,223.9,M,,M,,*77
$GPRMC,173620.0,A,3443.4947,N,08633.1276,W,,,230119,,*1A
$GPGGA,173650.0,3443.4946,N,08633.1275,W,1,,,224.0,M,,M,,*7C
$GPRMC,173650.0,A,3443.4946,N,08633.1275,W,,,230119,,*1F
$GPGGA,173720.0,3443.4946,N,08633.1275,W,1,,,224.0,M,,M,,*7A
$GPRMC,173720.0,A,3443.4946,N,08633.1275,W,,,230119,,*19
$GPGGA,173750.0,3443.4946,N,08633.1275,W,1,,,224.0,M,,M,,*7D
$GPRMC,173750.0,A,3443.4946,N,08633.1275,W,,,230119,,*1E
$GPGGA,173820.0,3443.4938,N,08633.1273,W,1,,,224.8,M,,M,,*72
$GPRMC,173820.0,A,3443.4938,N,08633.1273,W,,,230119,,*19
$GPGGA,173850.0,3443.4937,N,08633.1274,W,1,,,225.0,M,,M,,*74
$GPRMC,173850.0,A,3443.4937,N,08633.1274,W,,,230119,,*16
$GPGGA,173920.0,3443.4937,N,08633.1274,W,1,,,224.9,M,,M,,*7A
$GPRMC,173920.0,A,3443.4937,N,08633.1274,W,,,230119,,*10
$GPGGA,173950.0,3443.4937,N,08633.1274,W,1,,,224.8,M,,M,,*7C
$GPRMC,173950.0,A,3443.4937,N,08633.1274,W,,,230119,,*17
$GPGGA,174020.0,3443.4945,N,08633.1277,W,1,,,224.6,M,,M,,*7D
$GPRMC,174020.0,A,3443.4945,N,08633.1277,W,,,230119,,*18
$GPGGA,174050.0,3443.4944,N,08633.1276,W,1,,,224.6,M,,M,,*7A
$GPRMC,174050.0,A,3443.4944,N,08633.1276,W,,,230119,,*1F
$GPGGA,174120.0,3443.4941,N,08633.1279,W,1,,,225.9,M,,M,,*78
$GPRMC,174120.0,A,3443.4941,N,08633.1279,W,,,230119,,*13
$GPGGA,174150.0,3443.4941,N,08633.1279,W,1,,,225.8,M,,M,,*7E
$GPRMC,174150.0,A,3443.4941,N,08633.1279,W,,,230119,,*14
$GPGGA,174220.0,3443.4941,N,08633.1279,W,1,,,225.8,M,,M,,*7A
$GPRMC,174220.0,A,3443.4941,N,08633.1279,W,,,230119,,*10
$GPGGA,174250.0,3443.4940,N,08633.1278,W,1,,,225.7,M,,M,,*72
$GPRMC,174250.0,A,3443.4940,N,08633.1278,W,,,230119,,*17
$GPGGA,174320.0,3443.4941,N,08633.1272,W,1,,,224.4,M,,M,,*7D
$GPRMC,174320.0,A,3443.4941,N,08633.1272,W,,,230119,,*1A
$GPGGA,174350.0,3443.4941,N,08633.1272,W,1,,,224.4,M,,M,,*7A
$GPRMC,174350.0,A,3443.4941,N,08633.1272,W,,,230119,,*1D
$GPGGA,174420.0,3443.4941,N,08633.1272,W,1,,,224.4,M,,M,,*7A
$GPRMC,174420.0,A,3443.4941,N,08633.1272,W,,,230119,,*1D
$GPGGA,174450.0,3443.4941,N,08633.1272,W,1,,,224.4,M,,M,,*7D
$GPRMC,174450.0,A,3443.4941,N,08633.1272,W,,,230119,,*1A
$GPGGA,174520.0,3443.4941,N,08633.1272,W,1,,,224.3,M,,M,,*7C
$GPRMC,174520.0,A,3443.4941,N,08633.1272,W,,,230119,,*1C
$GPGGA,174550.0,3443.4939,N,08633.1272,W,1,,,226.8,M,,M,,*7D
$GPRMC,174550.0,A,3443.4939,N,08633.1272,W,,,230119,,*14
$GPGGA,174620.0,3443.4939,N,08633.1272,W,1,,,226.7,M,,M,,*76
$GPRMC,174620.0,A,3443.4939,N,08633.1272,W,,,230119,,*10
$GPGGA,174650.0,3443.4939,N,08633.1272,W,1,,,226.6,M,,M,,*70
$GPRMC,174650.0,A,3443.4939,N,08633.1272,W,,,230119,,*17
$GPGGA,174720.0,3443.4939,N,08633.1272,W,1,,,226.6,M,,M,,*76
$GPRMC,174720.0,A,3443.4939,N,08633.1272,W,,,230119,,*11
$GPGGA,174750.0,3443.4949,N,08633.1272,W,1,,,224.1,M,,M,,*73
$GPRMC,174750.0,A,3443.4949,N,08633.1272,W,,,230119,,*11
$GPGGA,174820.0,3443.4949,N,08633.1271,W,1,,,224.1,M,,M,,*78
$GPRMC,174820.0,A,3443.4949,N,08633.1271,W,,,230119,,*1A
$GPGGA,174850.0,3443.4949,N,08633.1271,W,1,,,224.1,M,,M,,*7F
$GPRMC,174850.0,A,3443.4949,N,08633.1271,W,,,230119,,*1D
$GPGGA,174920.0,3443.4949,N,08633.1271,W,1,,,224.1,M,,M,,*79
$GPRMC,174920.0,A,3443.4949,N,08633.1271,W,,,230119,,*1B
$GPGGA,174950.0,3443.4953,N,08633.1265,W,1,,,221.8,M,,M,,*7C
$GPRMC,174950.0,A,3443.4953,N,08633.1265,W,,,230119,,*12
$GPGGA,175020.0,3443.4953,N,08633.1264,W,1,,,221.9,M,,M,,*73
$GPRMC,175020.0,A,3443.4953,N,08633.1264,W,,,230119,,*1C
$GPGGA,175050.0,3443.4953,N,08633.1264,W,1,,,222.1,M,,M,,*7F
$GPRMC,175050.0,A,3443.4953,N,08633.1264,W,,,230119,,*1B
$GPGGA,175120.0,3443.4952,N,08633.1264,W,1,,,222.3,M,,M,,*7A
$GPRMC,175120.0,A,3443.4952,N,08633.1264,W,,,230119,,*1C
$GPGGA,175150.0,3443.4947,N,08633.1265,W,1,,,221.9,M,,M,,*71
$GPRMC,175150.0,A,3443.4947,N,08633.1265,W,,,230119,,*1E
$GPGGA,175220.0,3443.4946,N,08633.1264,W,1,,,225.8,M,,M,,*70
$GPRMC,175220.0,A,3443.4946,N,08633.1264,W,,,230119,,*1A
$GPGGA,175250.0,3443.4946,N,08633.1264,W,1,,,226.3,M,,M,,*7F
$GPRMC,175250.0,A,3443.4946,N,08633.1264,W,,,230119,,*1D
$GPGGA,175320.0,3443.4949,N,08633.1264,W,1,,,226.9,M,,M,,*7C
$GPRMC,175320.0,A,3443.4949,N,08633.1264,W,,,230119,,*14
$GPGGA,175350.0,3443.4949,N,08633.1263,W,1,,,227.1,M,,M,,*75
$GPRMC,175350.0,A,3443.4949,N,08633.1263,W,,,230119,,*14
$GPGGA,175420.0,3443.4949,N,08633.1263,W,1,,,226.8,M,,M,,*7D
$GPRMC,175420.0,A,3443.4949,N,08633.1263,W,,,230119,,*14
$GPGGA,175450.0,3443.4948,N,08633.1262,W,1,,,226.8,M,,M,,*7A
$GPRMC,175450.0,A,3443.4948,N,08633.1262,W,,,230119,,*13
$GPGGA,175520.0,3443.4948,N,08633.1261,W,1,,,226.9,M,,M,,*7E
$GPRMC,175520.0,A,3443.4948,N,08633.1261,W,,,230119,,*16
$GPGGA,175550.0,3443.4947,N,08633.1264,W,1,,,225.3,M,,M,,*7A
$GPRMC,175550.0,A,3443.4947,N,08633.1264,W,,,230119,,*1B
$GPGGA,175620.0,3443.4947,N,08633.1263,W,1,,,225.0,M,,M,,*7A
$GPRMC,175620.0,A,3443.4947,N,08633.1263,W,,,230119,,*18
$GPGGA,175650.0,3443.4947,N,08633.1263,W,1,,,224.5,M,,M,,*79
$GPRMC,175650.0,A,3443.4947,N,08633.1263,W,,,230119,,*1F
$GPGGA,175720.0,3443.4965,N,08633.1239,W,1,,,222.3,M,,M,,*70
$GPRMC,175720.0,A,3443.4965,N,08633.1239,W,,,230119,,*16
$GPGGA,175750.0,3443.4965,N,08633.1238,W,1,,,221.9,M,,M,,*7F
$GPRMC,175750.0,A,3443.4965,N,08633.1238,W,,,230119,,*10
$GPGGA,175820.0,3443.4964,N,08633.1238,W,1,,,220.7,M,,M,,*79
$GPRMC,175820.0,A,3443.4964,N,08633.1238,W,,,230119,,*19
$GPGGA,175850.0,3443.4964,N,08633.1240,W,1,,,218.5,M,,M,,*78
$GPRMC,175850.0,A,3443.4964,N,08633.1240,W,,,230119,,*11
$GPGGA,175920.0,3443.4963,N,08633.1240,W,1,,,217.8,M,,M,,*7B
$GPRMC,175920.0,A,3443.4963,N,08633.1240,W,,,230119,,*10
$GPGGA,175950.0,3443.4963,N,08633.1240,W,1,,,217.0,M,,M,,*74
$GPRMC,175950.0,A,3443.4963,N,08633.1240,W,,,230119,,*17
$GPGGA,180020.0,3443.4962,N,08633.1241,W,1,,,216.4,M,,M,,*75
$GPRMC,180020.0,A,3443.4962,N,08633.1241,W,,,230119,,*13
$GPGGA,180050.0,3443.4962,N,08633.1241,W,1,,,216.1,M,,M,,*77
$GPRMC,180050.0,A,3443.4962,N,08633.1241,W,,,230119,,*14
$GPGGA,180120.0,3443.4962,N,08633.1240,W,1,,,215.2,M,,M,,*70
$GPRMC,180120.0,A,3443.4962,N,08633.1240,W,,,230119,,*13
$GPGGA,180150.0,3443.4962,N,08633.1240,W,1,,,214.6,M,,M,,*72
$GPRMC,180150.0,A,3443.4962,N,08633.1240,W,,,230119,,*14
$GPGGA,180220.0,3443.4951,N,08633.1243,W,1,,,216.0,M,,M,,*71
$GPRMC,180220.0,A,3443.4951,N,08633.1243,W,,,230119,,*13
$GPGGA,180250.0,3443.4951,N,08633.1242,W,1,,,215.1,M,,M,,*75
$GPRMC,180250.0,A,3443.4951,N,08633.1242,W,,,230119,,*15
$GPGGA,180320.0,3443.4952,N,08633.1242,W,1,,,214.4,M,,M,,*74
$GPRMC,180320.0,A,3443.4952,N,08633.1242,W,,,230119,,*10
$GPGGA,180350.0,3443.4944,N,08633.1245,W,1,,,216.5,M,,M,,*70
$GPRMC,180350.0,A,3443.4944,N,08633.1245,W,,,230119,,*17
$GPGGA,180420.0,3443.4944,N,08633.1245,W,1,,,215.5,M,,M,,*73
$GPRMC,180420.0,A,3443.4944,N,08633.1245,W,,,230119,,*17
$GPGGA,180450.0,3443.4936,N,08633.1249,W,1,,,217.8,M,,M,,*72
$GPRMC,180450.0,A,3443.4936,N,08633.1249,W,,,230119,,*19
$GPGGA,180520.0,3443.4936,N,08633.1248,W,1,,,217.7,M,,M,,*7A
$GPRMC,180520.0,A,3443.4936,N,08633.1248,W,,,230119,,*1E
$GPGGA,180550.0,3443.4936,N,08633.1248,W,1,,,217.5,M,,M,,*7F
$GPRMC,180550.0,A,3443.4936,N,08633.1248,W,,,230119,,*19
$GPGGA,180620.0,3443.4936,N,08633.1248,W,1,,,217.7,M,,M,,*79
$GPRMC,180620.0,A,3443.4936,N,08633.1248,W,,,230119,,*1D
$GPGGA,180650.0,3443.4936,N,08633.1248,W,1,,,218.9,M,,M,,*7F
$GPRMC,180650.0,A,3443.4936,N,08633.1248,W,,,230119,,*1A
$GPGGA,180720.0,3443.4936,N,08633.1248,W,1,,,219.6,M,,M,,*77
$GPRMC,180720.0,A,3443.4936,N,08633.1248,W,,,230119,,*1C
$GPGGA,180750.0,3443.4935,N,08633.1247,W,1,,,219.6,M,,M,,*7C
$GPRMC,180750.0,A,3443.4935,N,08633.1247,W,,,230119,,*17
$GPGGA,180820.0,3443.4934,N,08633.1247,W,1,,,219.1,M,,M,,*72
$GPRMC,180820.0,A,3443.4934,N,08633.1247,W,,,230119,,*1E
$GPGGA,180850.0,3443.4933,N,08633.1247,W,1,,,219.2,M,,M,,*71
$GPRMC,180850.0,A,3443.4933,N,08633.1247,W,,,230119,,*1E
$GPGGA,180920.0,3443.4933,N,08633.1248,W,1,,,219.5,M,,M,,*7F
$GPRMC,180920.0,A,3443.4933,N,08633.1248,W,,,230119,,*17
$GPGGA,180950.0,3443.4932,N,08633.1248,W,1,,,219.6,M,,M,,*7A
$GPRMC,180950.0,A,3443.4932,N,08633.1248,W,,,230119,,*11
$GPGGA,181020.0,3443.4932,N,08633.1248,W,1,,,219.7,M,,M,,*74
$GPRMC,181020.0,A,3443.4932,N,08633.1248,W,,,230119,,*1E
$GPGGA,181050.0,3443.4932,N,08633.1249,W,1,,,219.6,M,,M,,*73
$GPRMC,181050.0,A,3443.4932,N,08633.1249,W,,,230119,,*18
$GPGGA,181120.0,3443.4932,N,08633.1249,W,1,,,219.5,M,,M,,*76
$GPRMC,181120.0,A,3443.4932,N,08633.1249,W,,,230119,,*1E
$GPGGA,181150.0,3443.4932,N,08633.1249,W,1,,,219.4,M,,M,,*70
$GPRMC,181150.0,A,3443.4932,N,08633.1249,W,,,230119,,*19
$GPGGA,181220.0,3443.4932,N,08633.1249,W,1,,,219.3,M,,M,,*73
$GPRMC,181220.0,A,3443.4932,N,08633.1249,W,,,230119,,*1D
$GPGGA,181250.0,3443.4932,N,08633.1249,W,1,,,219.3,M,,M,,*74
$GPRMC,181250.0,A,3443.4932,N,08633.1249,W,,,230119,,*1A
$GPGGA,181320.0,3443.4932,N,08633.1249,W,1,,,219.4,M,,M,,*75
$GPRMC,181320.0,A,3443.4932,N,08633.1249,W,,,230119,,*1C
$GPGGA,181350.0,3443.4932,N,08633.1249,W,1,,,219.7,M,,M,,*71
$GPRMC,181350.0,A,3443.4932,N,08633.1249,W,,,230119,,*1B
$GPGGA,181420.0,3443.4932,N,08633.1249,W,1,,,219.9,M,,M,,*7F
$GPRMC,181420.0,A,3443.4932,N,08633.1249,W,,,230119,,*1B
$GPGGA,181450.0,3443.4932,N,08633.1249,W,1,,,220.0,M,,M,,*7B
$GPRMC,181450.0,A,3443.4932,N,08633.1249,W,,,230119,,*1C
$GPGGA,181520.0,3443.4932,N,08633.1249,W,1,,,220.0,M,,M,,*7D
$GPRMC,181520.0,A,3443.4932,N,08633.1249,W,,,230119,,*1A
$GPGGA,181550.0,3443.4932,N,08633.1249,W,1,,,220.0,M,,M,,*7A
$GPRMC,181550.0,A,3443.4932,N,08633.1249,W,,,230119,,*1D
$GPGGA,181620.0,3443.4940,N,08633.1242,W,1,,,220.5,M,,M,,*75
$GPRMC,181620.0,A,3443.4940,N,08633.1242,W,,,230119,,*17
$GPGGA,181650.0,3443.4940,N,08633.1242,W,1,,,220.0,M,,M,,*77
$GPRMC,181650.0,A,3443.4940,N,08633.1242,W,,,230119,,*10
$GPGGA,181720.0,3443.4940,N,08633.1242,W,1,,,216.3,M,,M,,*77
$GPRMC,181720.0,A,3443.4940,N,08633.1242,W,,,230119,,*16
$GPGGA,181750.0,3443.4940,N,08633.1242,W,1,,,215.1,M,,M,,*71
$GPRMC,181750.0,A,3443.4940,N,08633.1242,W,,,230119,,*11
$GPGGA,181820.0,3443.4940,N,08633.1242,W,1,,,214.9,M,,M,,*70
$GPRMC,181820.0,A,3443.4940,N,08633.1242,W,,,230119,,*19
$GPGGA,181850.0,3443.4940,N,08633.1243,W,1,,,214.6,M,,M,,*79
$GPRMC,181850.0,A,3443.4940,N,08633.1243,W,,,230119,,*1F
$GPGGA,181920.0,3443.4930,N,08633.1243,W,1,,,214.0,M,,M,,*7E
$GPRMC,181920.0,A,3443.4930,N,08633.1243,W,,,230119,,*1E
$GPGGA,181950.0,3443.4930,N,08633.1243,W,1,,,214.1,M,,M,,*78
$GPRMC,181950.0,A,3443.4930,N,08633.1243,W,,,230119,,*19
$GPGGA,182020.0,3443.4930,N,08633.1243,W,1,,,214.0,M,,M,,*74
$GPRMC,182020.0,A,3443.4930,N,08633.1243,W,,,230119,,*14
$GPGGA,182050.1,3443.4932,N,08633.1242,W,1,,,215.2,M,,M,,*72
$GPRMC,182050.1,A,3443.4932,N,08633.1242,W,,,230119,,*11
$GPGGA,182120.0,3443.4932,N,08633.1242,W,1,,,215.7,M,,M,,*70
$GPRMC,182120.0,A,3443.4932,N,08633.1242,W,,,230119,,*16
$GPGGA,182150.0,3443.4934,N,08633.1240,W,1,,,219.2,M,,M,,*7A
$GPRMC,182150.0,A,3443.4934,N,08633.1240,W,,,230119,,*15
$GPGGA,182220.0,3443.4933,N,08633.1240,W,1,,,221.6,M,,M,,*76
$GPRMC,182220.0,A,3443.4933,N,08633.1240,W,,,230119,,*16
$GPGGA,182250.0,3443.4932,N,08633.1240,W,1,,,223.1,M,,M,,*75
$GPRMC,182250.0,A,3443.4932,N,08633.1240,W,,,230119,,*10
$GPGGA,182320.0,3443.4931,N,08633.1240,W,1,,,223.1,M,,M,,*70
$GPRMC,182320.0,A,3443.4931,N,08633.1240,W,,,230119,,*15
$GPGGA,182350.0,3443.4929,N,08633.1240,W,1,,,223.0,M,,M,,*7F
$GPRMC,182350.0,A,3443.4929,N,08633.1240,W,,,230119,,*1B
$GPGGA,182420.0,3443.4929,N,08633.1237,W,1,,,221.8,M,,M,,*75
$GPRMC,182420.0,A,3443.4929,N,08633.1237,W,,,230119,,*1B
$GPGGA,182450.0,3443.4930,N,08633.1236,W,1,,,221.6,M,,M,,*75
$GPRMC,182450.0,A,3443.4930,N,08633.1236,W,,,230119,,*15
$GPGGA,182520.0,3443.4930,N,08633.1235,W,1,,,222.0,M,,M,,*75
$GPRMC,182520.0,A,3443.4930,N,08633.1235,W,,,230119,,*10
$GPGGA,182550.0,3443.4929,N,08633.1236,W,1,,,222.4,M,,M,,*7D
$GPRMC,182550.0,A,3443.4929,N,08633.1236,W,,,230119,,*1C
$GPGGA,182620.0,3443.4937,N,08633.1235,W,1,,,221.3,M,,M,,*71
$GPRMC,182620.0,A,3443.4937,N,08633.1235,W,,,230119,,*14
$GPGGA,182650.0,3443.4937,N,08633.1236,W,1,,,221.6,M,,M,,*70
$GPRMC,182650.0,A,3443.4937,N,08633.1236,W,,,230119,,*10
$GPGGA,182720.0,3443.4932,N,08633.1239,W,1,,,223.2,M,,M,,*7A
$GPRMC,182720.0,A,3443.4932,N,08633.1239,W,,,230119,,*1C
$GPGGA,182750.0,3443.4931,N,08633.1240,W,1,,,223.9,M,,M,,*7B
$GPRMC,182750.0,A,3443.4931,N,08633.1240,W,,,230119,,*16
$GPGGA,182820.0,3443.4934,N,08633.1245,W,1,,,222.9,M,,M,,*72
$GPRMC,182820.0,A,3443.4934,N,08633.1245,W,,,230119,,*1E
$GPGGA,182850.0,3443.4934,N,08633.1245,W,1,,,222.9,M,,M,,*75
$GPRMC,182850.0,A,3443.4934,N,08633.1245,W,,,230119,,*19
$GPGGA,182920.0,3443.4934,N,08633.1244,W,1,,,223.1,M,,M,,*7B
$GPRMC,182920.0,A,3443.4934,N,08633.1244,W,,,230119,,*1E
$GPGGA,182950.0,3443.4929,N,08633.1243,W,1,,,224.1,M,,M,,*70
$GPRMC,182950.0,A,3443.4929,N,08633.1243,W,,,230119,,*12
$GPGGA,183020.0,3443.4928,N,08633.1243,W,1,,,224.5,M,,M,,*7A
$GPRMC,183020.0,A,3443.4928,N,08633.1243,W,,,230119,,*1C
$GPGGA,183050.0,3443.4928,N,08633.1243,W,1,,,224.6,M,,M,,*7E
$GPRMC,183050.0,A,3443.4928,N,08633.1243,W,,,230119,,*1B
$GPGGA,183120.0,3443.4920,N,08633.1230,W,1,,,225.2,M,,M,,*71
$GPRMC,183120.0,A,3443.4920,N,08633.1230,W,,,230119,,*11
$GPGGA,183150.0,3443.4920,N,08633.1231,W,1,,,225.5,M,,M,,*70
$GPRMC,183150.0,A,3443.4920,N,08633.1231,W,,,230119,,*17
$GPGGA,183220.0,3443.4920,N,08633.1231,W,1,,,226.0,M,,M,,*72
$GPRMC,183220.0,A,3443.4920,N,08633.1231,W,,,230119,,*13
$GPGGA,183250.0,3443.4920,N,08633.1233,W,1,,,226.7,M,,M,,*70
$GPRMC,183250.0,A,3443.4920,N,08633.1233,W,,,230119,,*16
$GPGGA,183320.0,3443.4913,N,08633.1234,W,1,,,228.5,M,,M,,*7D
$GPRMC,183320.0,A,3443.4913,N,08633.1234,W,,,230119,,*17
$GPGGA,183350.0,3443.4912,N,08633.1235,W,1,,,229.3,M,,M,,*7D
$GPRMC,183350.0,A,3443.4912,N,08633.1235,W,,,230119,,*10
$GPGGA,183420.0,3443.4912,N,08633.1236,W,1,,,229.7,M,,M,,*7A
$GPRMC,183420.0,A,3443.4912,N,08633.1236,W,,,230119,,*13
$GPGGA,183450.0,3443.4909,N,08633.1245,W,1,,,230.6,M,,M,,*7A
$GPRMC,183450.0,A,3443.4909,N,08633.1245,W,,,230119,,*1A
$GPGGA,183520.0,3443.4911,N,08633.1239,W,1,,,229.2,M,,M,,*72
$GPRMC,183520.0,A,3443.4911,N,08633.1239,W,,,230119,,*1E
$GPGGA,183550.0,3443.4912,N,08633.1243,W,1,,,231.6,M,,M,,*76
$GPRMC,183550.0,A,3443.4912,N,08633.1243,W,,,230119,,*17
$GPGGA,183620.0,3443.4912,N,08633.1243,W,1,,,231.3,M,,M,,*77
$GPRMC,183620.0,A,3443.4912,N,08633.1243,W,,,230119,,*13
$GPGGA,183650.0,3443.4907,N,08633.1248,W,1,,,233.4,M,,M,,*7A
$GPRMC,183650.0,A,3443.4907,N,08633.1248,W,,,230119,,*1B
$GPGGA,183720.0,3443.4916,N,08633.1242,W,1,,,229.5,M,,M,,*7C
$GPRMC,183720.0,A,3443.4916,N,08633.1242,W,,,230119,,*17
$GPGGA,183750.6,3443.4911,N,08633.1234,W,1,,,221.1,M,,M,,*77
$GPRMC,183750.6,A,3443.4911,N,08633.1234,W,,,230119,,*10
$GPGGA,183820.0,3443.4912,N,08633.1233,W,1,,,221.1,M,,M,,*7D
$GPRMC,183820.0,A,3443.4912,N,08633.1233,W,,,230119,,*1A
$GPGGA,183850.0,3443.4930,N,08633.1228,W,1,,,221.3,M,,M,,*72
$GPRMC,183850.0,A,3443.4930,N,08633.1228,W,,,230119,,*17
$GPGGA,183920.0,3443.4930,N,08633.1227,W,1,,,221.1,M,,M,,*79
$GPRMC,183920.0,A,3443.4930,N,08633.1227,W,,,230119,,*1E
$GPGGA,183950.0,3443.4930,N,08633.1227,W,1,,,220.9,M,,M,,*77
$GPRMC,183950.0,A,3443.4930,N,08633.1227,W,,,230119,,*19
$GPGGA,184020.0,3443.4930,N,08633.1228,W,1,,,220.8,M,,M,,*70
$GPRMC,184020.0,A,3443.4930,N,08633.1228,W,,,230119,,*1F
$GPGGA,184050.0,3443.4936,N,08633.1228,W,1,,,217.2,M,,M,,*7F
$GPRMC,184050.0,A,3443.4936,N,08633.1228,W,,,230119,,*1E
$GPGGA,184120.0,3443.4935,N,08633.1228,W,1,,,217.1,M,,M,,*79
$GPRMC,184120.0,A,3443.4935,N,08633.1228,W,,,230119,,*1B
$GPGGA,184150.0,3443.4935,N,08633.1229,W,1,,,216.5,M,,M,,*7A
$GPRMC,184150.0,A,3443.4935,N,08633.1229,W,,,230119,,*1D
$GPGGA,184220.0,3443.4933,N,08633.1232,W,1,,,214.5,M,,M,,*70
$GPRMC,184220.0,A,3443.4933,N,08633.1232,W,,,230119,,*15
$GPGGA,184250.0,3443.4932,N,08633.1234,W,1,,,214.1,M,,M,,*74
$GPRMC,184250.0,A,3443.4932,N,08633.1234,W,,,230119,,*15
$GPGGA,184320.0,3443.4931,N,08633.1235,W,1,,,214.8,M,,M,,*79
$GPRMC,184320.0,A,3443.4931,N,08633.1235,W,,,230119,,*11
$GPGGA,184350.0,3443.4930,N,08633.1235,W,1,,,215.7,M,,M,,*71
$GPRMC,184350.0,A,3443.4930,N,08633.1235,W,,,230119,,*17
$GPGGA,184420.0,3443.4929,N,08633.1236,W,1,,,216.8,M,,M,,*76
$GPRMC,184420.0,A,3443.4929,N,08633.1236,W,,,230119,,*1C
$GPGGA,184450.0,3443.4929,N,08633.1236,W,1,,,217.2,M,,M,,*7A
$GPRMC,184450.0,A,3443.4929,N,08633.1236,W,,,230119,,*1B
$GPGGA,184520.1,3443.4928,N,08633.1236,W,1,,,217.2,M,,M,,*7C
$GPRMC,184520.1,A,3443.4928,N,08633.1236,W,,,230119,,*1D
$GPGGA,184550.0,3443.4928,N,08633.1236,W,1,,,217.1,M,,M,,*79
$GPRMC,184550.0,A,3443.4928,N,08633.1236,W,,,230119,,*1B
$GPGGA,184620.0,3443.4928,N,08633.1236,W,1,,,217.0,M,,M,,*7C
$GPRMC,184620.0,A,3443.4928,N,08633.1236,W,,,230119,,*1F
$GPGGA,184650.0,3443.4928,N,08633.1235,W,1,,,217.0,M,,M,,*78
$GPRMC,184650.0,A,3443.4928,N,08633.1235,W,,,230119,,*1B
$GPGGA,184720.0,3443.4923,N,08633.1234,W,1,,,216.2,M,,M,,*77
$GPRMC,184720.0,A,3443.4923,N,08633.1234,W,,,230119,,*17
$GPGGA,184750.0,3443.4925,N,08633.1229,W,1,,,218.5,M,,M,,*73
$GPRMC,184750.0,A,3443.4925,N,08633.1229,W,,,230119,,*1A
$GPGGA,184820.0,3443.4925,N,08633.1229,W,1,,,218.6,M,,M,,*78
$GPRMC,184820.0,A,3443.4925,N,08633.1229,W,,,230119,,*12
$GPGGA,184850.0,3443.4925,N,08633.1229,W,1,,,218.7,M,,M,,*7E
$GPRMC,184850.0,A,3443.4925,N,08633.1229,W,,,230119,,*15
$GPGGA,184920.1,3443.4925,N,08633.1230,W,1,,,218.8,M,,M,,*7E
$GPRMC,184920.1,A,3443.4925,N,08633.1230,W,,,230119,,*1A
$GPGGA,184950.0,3443.4925,N,08633.1230,W,1,,,218.9,M,,M,,*79
$GPRMC,184950.0,A,3443.4925,N,08633.1230,W,,,230119,,*1C
$GPGGA,185020.2,3443.4925,N,08633.1230,W,1,,,219.0,M,,M,,*7C
$GPRMC,185020.2,A,3443.4925,N,08633.1230,W,,,230119,,*11
$GPGGA,185050.1,3443.4925,N,08633.1231,W,1,,,219.0,M,,M,,*79
$GPRMC,185050.1,A,3443.4925,N,08633.1231,W,,,230119,,*14
$GPGGA,185120.2,3443.4925,N,08633.1231,W,1,,,219.0,M,,M,,*7C
$GPRMC,185120.2,A,3443.4925,N,08633.1231,W,,,230119,,*11
$GPGGA,185150.0,3443.4923,N,08633.1231,W,1,,,217.1,M,,M,,*70
$GPRMC,185150.0,A,3443.4923,N,08633.1231,W,,,230119,,*12
$GPGGA,185220.0,3443.4924,N,08633.1231,W,1,,,217.3,M,,M,,*71
$GPRMC,185220.0,A,3443.4924,N,08633.1231,W,,,230119,,*11
$GPGGA,185250.0,3443.4920,N,08633.1234,W,1,,,216.3,M,,M,,*76
$GPRMC,185250.0,A,3443.4920,N,08633.1234,W,,,230119,,*17
$GPGGA,185320.1,3443.4920,N,08633.1227,W,1,,,212.0,M,,M,,*74
$GPRMC,185320.1,A,3443.4920,N,08633.1227,W,,,230119,,*12
$GPGGA,185350.0,3443.4920,N,08633.1236,W,1,,,217.3,M,,M,,*74
$GPRMC,185350.0,A,3443.4920,N,08633.1236,W,,,230119,,*14
$GPGGA,185420.0,3443.4920,N,08633.1236,W,1,,,217.3,M,,M,,*74
$GPRMC,185420.0,A,3443.4920,N,08633.1236,W,,,230119,,*14
$GPGGA,185450.0,3443.4920,N,08633.1236,W,1,,,217.3,M,,M,,*73
$GPRMC,185450.0,A,3443.4920,N,08633.1236,W,,,230119,,*13
$GPGGA,185520.0,3443.4920,N,08633.1236,W,1,,,217.3,M,,M,,*75
$GPRMC,185520.0,A,3443.4920,N,08633.1236,W,,,230119,,*15
$GPGGA,185550.0,3443.4920,N,08633.1236,W,1,,,217.4,M,,M,,*75
$GPRMC,185550.0,A,3443.4920,N,08633.1236,W,,,230119,,*12
$GPGGA,185620.0,3443.4920,N,08633.1236,W,1,,,217.4,M,,M,,*71
$GPRMC,185620.0,A,3443.4920,N,08633.1236,W,,,230119,,*16
$GPGGA,185650.0,3443.4920,N,08633.1237,W,1,,,217.2,M,,M,,*71
$GPRMC,185650.0,A,3443.4920,N,08633.1237,W,,,230119,,*10
$GPGGA,185720.0,3443.4920,N,08633.1237,W,1,,,217.2,M,,M,,*77
$GPRMC,185720.0,A,3443.4920,N,08633.1237,W,,,230119,,*16
$GPGGA,185750.0,3443.4913,N,08633.1242,W,1,,,214.7,M,,M,,*74
$GPRMC,185750.0,A,3443.4913,N,08633.1242,W,,,230119,,*13
$GPGGA,185820.0,3443.4913,N,08633.1242,W,1,,,214.6,M,,M,,*7D
$GPRMC,185820.0,A,3443.4913,N,08633.1242,W,,,230119,,*1B
$GPGGA,185850.0,3443.4913,N,08633.1242,W,1,,,214.7,M,,M,,*7B
$GPRMC,185850.0,A,3443.4913,N,08633.1242,W,,,230119,,*1C
$GPGGA,185920.0,3443.4913,N,08633.1243,W,1,,,214.8,M,,M,,*73
$GPRMC,185920.0,A,3443.4913,N,08633.1243,W,,,230119,,*1B
$GPGGA,185950.0,3443.4913,N,08633.1243,W,1,,,215.0,M,,M,,*7D
$GPRMC,185950.0,A,3443.4913,N,08633.1243,W,,,230119,,*1C
$GPGGA,190020.0,3443.4897,N,08633.1292,W,1,,,217.8,M,,M,,*7C
$GPRMC,190020.0,A,3443.4897,N,08633.1292,W,,,230119,,*17
$GPGGA,190050.0,3443.4902,N,08633.1281,W,1,,,220.3,M,,M,,*7B
$GPRMC,190050.0,A,3443.4902,N,08633.1281,W,,,230119,,*1F
$GPGGA,190120.0,3443.4902,N,08633.1280,W,1,,,220.8,M,,M,,*77
$GPRMC,190120.0,A,3443.4902,N,08633.1280,W,,,230119,,*18
$GPGGA,190150.0,3443.4903,N,08633.1278,W,1,,,222.3,M,,M,,*7F
$GPRMC,190150.0,A,3443.4903,N,08633.1278,W,,,230119,,*19
$GPGGA,190220.0,3443.4905,N,08633.1275,W,1,,,225.2,M,,M,,*76
$GPRMC,190220.0,A,3443.4905,N,08633.1275,W,,,230119,,*16
$GPGGA,190250.0,3443.4905,N,08633.1273,W,1,,,225.8,M,,M,,*7D
$GPRMC,190250.0,A,3443.4905,N,08633.1273,W,,,230119,,*17
$GPGGA,190320.0,3443.4905,N,08633.1272,W,1,,,226.8,M,,M,,*79
$GPRMC,190320.0,A,3443.4905,N,08633.1272,W,,,230119,,*10
$GPGGA,190350.0,3443.4905,N,08633.1272,W,1,,,227.9,M,,M,,*7E
$GPRMC,190350.0,A,3443.4905,N,08633.1272,W,,,230119,,*17
$GPGGA,190420.0,3443.4906,N,08633.1271,W,1,,,228.1,M,,M,,*79
$GPRMC,190420.0,A,3443.4906,N,08633.1271,W,,,230119,,*17
$GPGGA,190450.0,3443.4907,N,08633.1271,W,1,,,228.1,M,,M,,*7F
$GPRMC,190450.0,A,3443.4907,N,08633.1271,W,,,230119,,*11
$GPGGA,190520.0,3443.4908,N,08633.1278,W,1,,,230.4,M,,M,,*73
$GPRMC,190520.0,A,3443.4908,N,08633.1278,W,,,230119,,*11
$GPGGA,190550.0,3443.4894,N,08633.1283,W,1,,,231.2,M,,M,,*73
$GPRMC,190550.0,A,3443.4894,N,08633.1283,W,,,230119,,*16
$GPGGA,190620.0,3443.4895,N,08633.1283,W,1,,,230.9,M,,M,,*7C
$GPRMC,190620.0,A,3443.4895,N,08633.1283,W,,,230119,,*13
$GPGGA,190650.0,3443.4895,N,08633.1283,W,1,,,230.4,M,,M,,*76
$GPRMC,190650.0,A,3443.4895,N,08633.1283,W,,,230119,,*14
$GPGGA,190720.0,3443.4896,N,08633.1283,W,1,,,229.7,M,,M,,*78
$GPRMC,190720.0,A,3443.4896,N,08633.1283,W,,,230119,,*11
$GPGGA,190750.0,3443.4898,N,08633.1280,W,1,,,227.5,M,,M,,*7E
$GPRMC,190750.0,A,3443.4898,N,08633.1280,W,,,230119,,*1B
$GPGGA,190820.0,3443.4900,N,08633.1278,W,1,,,225.6,M,,M,,*70
$GPRMC,190820.0,A,3443.4900,N,08633.1278,W,,,230119,,*14
$GPGGA,190850.0,3443.4900,N,08633.1277,W,1,,,225.2,M,,M,,*7C
$GPRMC,190850.0,A,3443.4900,N,08633.1277,W,,,230119,,*1C
$GPGGA,190920.0,3443.4901,N,08633.1277,W,1,,,225.0,M,,M,,*79
$GPRMC,190920.0,A,3443.4901,N,08633.1277,W,,,230119,,*1B
$GPGGA,190950.0,3443.4901,N,08633.1276,W,1,,,224.9,M,,M,,*77
$GPRMC,190950.0,A,3443.4901,N,08633.1276,W,,,230119,,*1D
$GPGGA,191020.0,3443.4901,N,08633.1275,W,1,,,224.6,M,,M,,*74
$GPRMC,191020.0,A,3443.4901,N,08633.1275,W,,,230119,,*11
$GPGGA,191050.0,3443.4901,N,08633.1273,W,1,,,224.1,M,,M,,*72
$GPRMC,191050.0,A,3443.4901,N,08633.1273,W,,,230119,,*10
$GPGGA,191120.0,3443.4901,N,08633.1273,W,1,,,223.4,M,,M,,*76
$GPRMC,191120.0,A,3443.4901,N,08633.1273,W,,,230119,,*16
$GPGGA,191150.0,3443.4900,N,08633.1273,W,1,,,224.7,M,,M,,*74
$GPRMC,191150.0,A,3443.4900,N,08633.1273,W,,,230119,,*10
$GPGGA,191220.0,3443.4900,N,08633.1273,W,1,,,224.7,M,,M,,*70
$GPRMC,191220.0,A,3443.4900,N,08633.1273,W,,,230119,,*14
$GPGGA,191250.0,3443.4895,N,08633.1274,W,1,,,222.5,M,,M,,*79
$GPRMC,191250.0,A,3443.4895,N,08633.1274,W,,,230119,,*19
$GPGGA,191320.0,3443.4895,N,08633.1274,W,1,,,221.9,M,,M,,*70
$GPRMC,191320.0,A,3443.4895,N,08633.1274,W,,,230119,,*1F
$GPGGA,191350.0,3443.4895,N,08633.1274,W,1,,,221.6,M,,M,,*78
$GPRMC,191350.0,A,3443.4895,N,08633.1274,W,,,230119,,*18
