@Olympus/+0900/+0900
$GPGGA,150013.0,3443.4927,N,08633.1268,W,1,,,219.0,M,,M,,*79
$GPRMC,150013.0,A,3443.4927,N,08633.1268,W,,,210119,,*16
$GPGGA,150043.0,3443.4928,N,08633.1268,W,1,,,219.5,M,,M,,*76
$GPRMC,150043.0,A,3443.4928,N,08633.1268,W,,,210119,,*1C
$GPGGA,150113.0,3443.4934,N,08633.1269,W,1,,,207.3,M,,M,,*77
$GPRMC,150113.0,A,3443.4934,N,08633.1269,W,,,210119,,*14
$GPGGA,150143.0,3443.4935,N,08633.1265,W,1,,,199.7,M,,M,,*7F
$GPRMC,150143.0,A,3443.4935,N,08633.1265,W,,,210119,,*1C
$GPGGA,150213.0,3443.4935,N,08633.1266,W,1,,,188.4,M,,M,,*79
$GPRMC,150213.0,A,3443.4935,N,08633.1266,W,,,210119,,*19
$GPGGA,150243.0,3443.4931,N,08633.1266,W,1,,,180.0,M,,M,,*74
$GPRMC,150243.0,A,3443.4931,N,08633.1266,W,,,210119,,*18
$GPGGA,150313.0,3443.4929,N,08633.1266,W,1,,,174.3,M,,M,,*71
$GPRMC,150313.0,A,3443.4929,N,08633.1266,W,,,210119,,*15
$GPGGA,150343.0,3443.4925,N,08633.1264,W,1,,,193.4,M,,M,,*74
$GPRMC,150343.0,A,3443.4925,N,08633.1264,W,,,210119,,*1E
$GPGGA,150413.0,3443.4921,N,08633.1259,W,1,,,202.9,M,,M,,*7A
$GPRMC,150413.0,A,3443.4921,N,08633.1259,W,,,210119,,*16
$GPGGA,150443.0,3443.4924,N,08633.1259,W,1,,,213.5,M,,M,,*76
$GPRMC,150443.0,A,3443.4924,N,08633.1259,W,,,210119,,*16
$GPGGA,150513.0,3443.4926,N,08633.1259,W,1,,,216.9,M,,M,,*79
$GPRMC,150513.0,A,3443.4926,N,08633.1259,W,,,210119,,*10
$GPGGA,150543.0,3443.4927,N,08633.1259,W,1,,,218.1,M,,M,,*7B
$GPRMC,150543.0,A,3443.4927,N,08633.1259,W,,,210119,,*14
$GPGGA,150613.0,3443.4930,N,08633.1260,W,1,,,226.2,M,,M,,*7F
$GPRMC,150613.0,A,3443.4930,N,08633.1260,W,,,210119,,*1E
$GPGGA,150643.0,3443.4929,N,08633.1258,W,1,,,226.7,M,,M,,*7C
$GPRMC,150643.0,A,3443.4929,N,08633.1258,W,,,210119,,*18
$GPGGA,150713.0,3443.4928,N,08633.1257,W,1,,,222.0,M,,M,,*75
$GPRMC,150713.0,A,3443.4928,N,08633.1257,W,,,210119,,*12
$GPGGA,150743.0,3443.4928,N,08633.1258,W,1,,,218.9,M,,M,,*7F
$GPRMC,150743.0,A,3443.4928,N,08633.1258,W,,,210119,,*18
$GPGGA,150813.0,3443.4927,N,08633.1258,W,1,,,217.7,M,,M,,*7B
$GPRMC,150813.0,A,3443.4927,N,08633.1258,W,,,210119,,*1D
$GPGGA,150843.0,3443.4927,N,08633.1258,W,1,,,214.6,M,,M,,*7C
$GPRMC,150843.0,A,3443.4927,N,08633.1258,W,,,210119,,*18
$GPGGA,150913.0,3443.4926,N,08633.1256,W,1,,,218.0,M,,M,,*7D
$GPRMC,150913.0,A,3443.4926,N,08633.1256,W,,,210119,,*13
$GPGGA,150943.0,3443.4917,N,08633.1249,W,1,,,215.1,M,,M,,*78
$GPRMC,150943.0,A,3443.4917,N,08633.1249,W,,,210119,,*1A
$GPGGA,151013.0,3443.4917,N,08633.1248,W,1,,,210.4,M,,M,,*74
$GPRMC,151013.0,A,3443.4917,N,08633.1248,W,,,210119,,*16
$GPGGA,151043.0,3443.4918,N,08633.1247,W,1,,,199.1,M,,M,,*76
$GPRMC,151043.0,A,3443.4918,N,08633.1247,W,,,210119,,*13
$GPGGA,151113.0,3443.4920,N,08633.1251,W,1,,,202.2,M,,M,,*7C
$GPRMC,151113.0,A,3443.4920,N,08633.1251,W,,,210119,,*1B
$GPGGA,151143.0,3443.4920,N,08633.1252,W,1,,,220.4,M,,M,,*7C
$GPRMC,151143.0,A,3443.4920,N,08633.1252,W,,,210119,,*1D
$GPGGA,151213.0,3443.4920,N,08633.1252,W,1,,,229.1,M,,M,,*76
$GPRMC,151213.0,A,3443.4920,N,08633.1252,W,,,210119,,*1B
$GPGGA,151243.0,3443.4921,N,08633.1253,W,1,,,233.4,M,,M,,*7D
$GPRMC,151243.0,A,3443.4921,N,08633.1253,W,,,210119,,*1E
$GPGGA,151313.0,3443.4921,N,08633.1253,W,1,,,235.4,M,,M,,*7F
$GPRMC,151313.0,A,3443.4921,N,08633.1253,W,,,210119,,*1A
$GPGGA,151343.0,3443.4920,N,08633.1253,W,1,,,238.9,M,,M,,*7B
$GPRMC,151343.0,A,3443.4920,N,08633.1253,W,,,210119,,*1E
$GPGGA,151413.0,3443.4921,N,08633.1253,W,1,,,234.3,M,,M,,*7E
$GPRMC,151413.0,A,3443.4921,N,08633.1253,W,,,210119,,*1D
$GPGGA,151443.0,3443.4920,N,08633.1253,W,1,,,232.4,M,,M,,*7B
$GPRMC,151443.0,A,3443.4920,N,08633.1253,W,,,210119,,*19
$GPGGA,151513.0,3443.4921,N,08633.1253,W,1,,,228.8,M,,M,,*79
$GPRMC,151513.0,A,3443.4921,N,08633.1253,W,,,210119,,*1C
$GPGGA,151543.0,3443.4922,N,08633.1254,W,1,,,224.5,M,,M,,*79
$GPRMC,151543.0,A,3443.4922,N,08633.1254,W,,,210119,,*1D
$GPGGA,151613.0,3443.4922,N,08633.1255,W,1,,,227.6,M,,M,,*7E
$GPRMC,151613.0,A,3443.4922,N,08633.1255,W,,,210119,,*1A
$GPGGA,151643.0,3443.4921,N,08633.1256,W,1,,,232.7,M,,M,,*7E
$GPRMC,151643.0,A,3443.4921,N,08633.1256,W,,,210119,,*1F
$GPGGA,151713.2,3443.4920,N,08633.1259,W,1,,,238.5,M,,M,,*7E
$GPRMC,151713.2,A,3443.4920,N,08633.1259,W,,,210119,,*17
$GPGGA,151743.0,3443.4919,N,08633.1260,W,1,,,241.7,M,,M,,*75
$GPRMC,151743.0,A,3443.4919,N,08633.1260,W,,,210119,,*10
$GPGGA,151813.0,3443.4919,N,08633.1261,W,1,,,238.7,M,,M,,*70
$GPRMC,151813.0,A,3443.4919,N,08633.1261,W,,,210119,,*1B
$GPGGA,151843.0,3443.4919,N,08633.1262,W,1,,,233.2,M,,M,,*78
$GPRMC,151843.0,A,3443.4919,N,08633.1262,W,,,210119,,*1D
$GPGGA,151913.0,3443.4919,N,08633.1263,W,1,,,231.4,M,,M,,*79
$GPRMC,151913.0,A,3443.4919,N,08633.1263,W,,,210119,,*18
$GPGGA,151943.0,3443.4919,N,08633.1264,W,1,,,227.1,M,,M,,*79
$GPRMC,151943.0,A,3443.4919,N,08633.1264,W,,,210119,,*1A
$GPGGA,152013.0,3443.4919,N,08633.1265,W,1,,,223.8,M,,M,,*7A
$GPRMC,152013.0,A,3443.4919,N,08633.1265,W,,,210119,,*14
$GPGGA,152043.0,3443.4919,N,08633.1265,W,1,,,230.2,M,,M,,*77
$GPRMC,152043.0,A,3443.4919,N,08633.1265,W,,,210119,,*11
$GPGGA,152113.0,3443.4920,N,08633.1266,W,1,,,230.4,M,,M,,*7C
$GPRMC,152113.0,A,3443.4920,N,08633.1266,W,,,210119,,*1C
$GPGGA,152143.0,3443.4922,N,08633.1267,W,1,,,230.0,M,,M,,*7E
$GPRMC,152143.0,A,3443.4922,N,08633.1267,W,,,210119,,*1A
$GPGGA,152213.0,3443.4924,N,08633.1269,W,1,,,233.0,M,,M,,*73
$GPRMC,152213.0,A,3443.4924,N,08633.1269,W,,,210119,,*14
$GPGGA,152243.0,3443.4921,N,08633.1269,W,1,,,225.4,M,,M,,*70
$GPRMC,152243.0,A,3443.4921,N,08633.1269,W,,,210119,,*14
$GPGGA,152313.0,3443.4916,N,08633.1268,W,1,,,218.4,M,,M,,*7F
$GPRMC,152313.0,A,3443.4916,N,08633.1268,W,,,210119,,*15
$GPGGA,152343.0,3443.4913,N,08633.1269,W,1,,,219.0,M,,M,,*7B
$GPRMC,152343.0,A,3443.4913,N,08633.1269,W,,,210119,,*14
$GPGGA,152413.0,3443.4911,N,08633.1273,W,1,,,221.8,M,,M,,*73
$GPRMC,152413.0,A,3443.4911,N,08633.1273,W,,,210119,,*1F
$GPGGA,152443.0,3443.4901,N,08633.1273,W,1,,,219.9,M,,M,,*7D
$GPRMC,152443.0,A,3443.4901,N,08633.1273,W,,,210119,,*1B
$GPGGA,152513.0,3443.4893,N,08633.1277,W,1,,,222.9,M,,M,,*7F
$GPRMC,152513.0,A,3443.4893,N,08633.1277,W,,,210119,,*11
$GPGGA,152543.0,3443.4887,N,08633.1276,W,1,,,224.4,M,,M,,*75
$GPRMC,152543.0,A,3443.4887,N,08633.1276,W,,,210119,,*10
$GPGGA,152613.0,3443.4886,N,08633.1275,W,1,,,222.3,M,,M,,*70
$GPRMC,152613.0,A,3443.4886,N,08633.1275,W,,,210119,,*14
$GPGGA,152643.0,3443.4884,N,08633.1274,W,1,,,217.9,M,,M,,*7A
$GPRMC,152643.0,A,3443.4884,N,08633.1274,W,,,210119,,*12
$GPGGA,152713.0,3443.4882,N,08633.1273,W,1,,,220.2,M,,M,,*70
$GPRMC,152713.0,A,3443.4882,N,08633.1273,W,,,210119,,*17
$GPGGA,152743.0,3443.4880,N,08633.1274,W,1,,,221.0,M,,M,,*73
$GPRMC,152743.0,A,3443.4880,N,08633.1274,W,,,210119,,*17
$GPGGA,152813.0,3443.4877,N,08633.1275,W,1,,,224.7,M,,M,,*72
$GPRMC,152813.0,A,3443.4877,N,08633.1275,W,,,210119,,*14
$GPGGA,152843.0,3443.4874,N,08633.1274,W,1,,,225.0,M,,M,,*73
$GPRMC,152843.0,A,3443.4874,N,08633.1274,W,,,210119,,*13
$GPGGA,152913.0,3443.4875,N,08633.1272,W,1,,,224.4,M,,M,,*75
$GPRMC,152913.0,A,3443.4875,N,08633.1272,W,,,210119,,*10
$GPGGA,152943.0,3443.4875,N,08633.1270,W,1,,,222.0,M,,M,,*70
$GPRMC,152943.0,A,3443.4875,N,08633.1270,W,,,210119,,*17
$GPGGA,153013.0,3443.4875,N,08633.1268,W,1,,,215.3,M,,M,,*73
$GPRMC,153013.0,A,3443.4875,N,08633.1268,W,,,210119,,*13
$GPGGA,153043.0,3443.4875,N,08633.1267,W,1,,,211.0,M,,M,,*7E
$GPRMC,153043.0,A,3443.4875,N,08633.1267,W,,,210119,,*19
$GPGGA,153113.0,3443.4874,N,08633.1267,W,1,,,213.1,M,,M,,*78
$GPRMC,153113.0,A,3443.4874,N,08633.1267,W,,,210119,,*1C
$GPGGA,153143.0,3443.4874,N,08633.1267,W,1,,,215.8,M,,M,,*72
$GPRMC,153143.0,A,3443.4874,N,08633.1267,W,,,210119,,*19
$GPGGA,153213.0,3443.4876,N,08633.1267,W,1,,,214.9,M,,M,,*76
$GPRMC,153213.0,A,3443.4876,N,08633.1267,W,,,210119,,*1D
$GPGGA,153243.0,3443.4877,N,08633.1267,W,1,,,215.8,M,,M,,*72
$GPRMC,153243.0,A,3443.4877,N,08633.1267,W,,,210119,,*19
$GPGGA,153313.0,3443.4879,N,08633.1267,W,1,,,213.1,M,,M,,*77
$GPRMC,153313.0,A,3443.4879,N,08633.1267,W,,,210119,,*13
$GPGGA,153343.0,3443.4884,N,08633.1265,W,1,,,211.0,M,,M,,*71
$GPRMC,153343.0,A,3443.4884,N,08633.1265,W,,,210119,,*16
$GPGGA,153413.0,3443.4888,N,08633.1262,W,1,,,209.0,M,,M,,*71
$GPRMC,153413.0,A,3443.4888,N,08633.1262,W,,,210119,,*1F
$GPGGA,153443.0,3443.4889,N,08633.1264,W,1,,,213.9,M,,M,,*71
$GPRMC,153443.0,A,3443.4889,N,08633.1264,W,,,210119,,*1D
$GPGGA,153513.0,3443.4883,N,08633.1284,W,1,,,218.4,M,,M,,*77
$GPRMC,153513.0,A,3443.4883,N,08633.1284,W,,,210119,,*1D
$GPGGA,153543.0,3443.4884,N,08633.1285,W,1,,,218.9,M,,M,,*79
$GPRMC,153543.0,A,3443.4884,N,08633.1285,W,,,210119,,*1E
$GPGGA,153613.0,3443.4884,N,08633.1286,W,1,,,221.7,M,,M,,*78
$GPRMC,153613.0,A,3443.4884,N,08633.1286,W,,,210119,,*1B
$GPGGA,153643.0,3443.4882,N,08633.1286,W,1,,,224.2,M,,M,,*7B
$GPRMC,153643.0,A,3443.4882,N,08633.1286,W,,,210119,,*18
$GPGGA,153713.0,3443.4881,N,08633.1288,W,1,,,221.9,M,,M,,*7C
$GPRMC,153713.0,A,3443.4881,N,08633.1288,W,,,210119,,*11
$GPGGA,153743.0,3443.4881,N,08633.1289,W,1,,,220.1,M,,M,,*71
$GPRMC,153743.0,A,3443.4881,N,08633.1289,W,,,210119,,*15
$GPGGA,153813.0,3443.4881,N,08633.1289,W,1,,,220.1,M,,M,,*7B
$GPRMC,153813.0,A,3443.4881,N,08633.1289,W,,,210119,,*1F
$GPGGA,153843.0,3443.4881,N,08633.1289,W,1,,,221.6,M,,M,,*78
$GPRMC,153843.0,A,3443.4881,N,08633.1289,W,,,210119,,*1A
$GPGGA,153913.0,3443.4881,N,08633.1288,W,1,,,225.0,M,,M,,*7F
$GPRMC,153913.0,A,3443.4881,N,08633.1288,W,,,210119,,*1F
$GPGGA,153943.0,3443.4877,N,08633.1289,W,1,,,232.0,M,,M,,*74
$GPRMC,153943.0,A,3443.4877,N,08633.1289,W,,,210119,,*12
$GPGGA,154013.0,3443.4870,N,08633.1290,W,1,,,233.9,M,,M,,*78
$GPRMC,154013.0,A,3443.4870,N,08633.1290,W,,,210119,,*16
$GPGGA,154043.0,3443.4871,N,08633.1287,W,1,,,234.1,M,,M,,*75
$GPRMC,154043.0,A,3443.4871,N,08633.1287,W,,,210119,,*14
$GPGGA,154113.0,3443.4875,N,08633.1280,W,1,,,235.7,M,,M,,*75
$GPRMC,154113.0,A,3443.4875,N,08633.1280,W,,,210119,,*13
$GPGGA,154143.1,3443.4889,N,08633.1274,W,1,,,234.1,M,,M,,*7E
$GPRMC,154143.1,A,3443.4889,N,08633.1274,W,,,210119,,*1F
$GPGGA,154213.0,3443.4892,N,08633.1269,W,1,,,225.8,M,,M,,*76
$GPRMC,154213.0,A,3443.4892,N,08633.1269,W,,,210119,,*1E
$GPGGA,154243.0,3443.4896,N,08633.1269,W,1,,,222.2,M,,M,,*7A
$GPRMC,154243.0,A,3443.4896,N,08633.1269,W,,,210119,,*1F
$GPGGA,154313.0,3443.4876,N,08633.1287,W,1,,,218.9,M,,M,,*72
$GPRMC,154313.0,A,3443.4876,N,08633.1287,W,,,210119,,*15
$GPGGA,154343.0,3443.4870,N,08633.1291,W,1,,,215.9,M,,M,,*7B
$GPRMC,154343.0,A,3443.4870,N,08633.1291,W,,,210119,,*11
$GPGGA,154413.0,3443.4872,N,08633.1292,W,1,,,220.4,M,,M,,*73
$GPRMC,154413.0,A,3443.4872,N,08633.1292,W,,,210119,,*12
$GPGGA,154443.0,3443.4873,N,08633.1291,W,1,,,219.9,M,,M,,*73
$GPRMC,154443.0,A,3443.4873,N,08633.1291,W,,,210119,,*15
$GPGGA,154513.0,3443.4873,N,08633.1291,W,1,,,214.4,M,,M,,*77
$GPRMC,154513.0,A,3443.4873,N,08633.1291,W,,,210119,,*11
$GPGGA,154543.0,3443.4874,N,08633.1291,W,1,,,212.5,M,,M,,*72
$GPRMC,154543.0,A,3443.4874,N,08633.1291,W,,,210119,,*13
$GPGGA,154613.0,3443.4907,N,08633.1274,W,1,,,217.9,M,,M,,*73
$GPRMC,154613.0,A,3443.4907,N,08633.1274,W,,,210119,,*1B
$GPGGA,154643.0,3443.4908,N,08633.1274,W,1,,,216.9,M,,M,,*78
$GPRMC,154643.0,A,3443.4908,N,08633.1274,W,,,210119,,*11
$GPGGA,154713.0,3443.4908,N,08633.1274,W,1,,,216.1,M,,M,,*74
$GPRMC,154713.0,A,3443.4908,N,08633.1274,W,,,210119,,*15
$GPGGA,154743.0,3443.4909,N,08633.1273,W,1,,,215.4,M,,M,,*71
$GPRMC,154743.0,A,3443.4909,N,08633.1273,W,,,210119,,*16
$GPGGA,154813.0,3443.4915,N,08633.1278,W,1,,,216.3,M,,M,,*79
$GPRMC,154813.0,A,3443.4915,N,08633.1278,W,,,210119,,*1A
$GPGGA,154843.0,3443.4915,N,08633.1277,W,1,,,220.8,M,,M,,*7D
$GPRMC,154843.0,A,3443.4915,N,08633.1277,W,,,210119,,*10
$GPGGA,154913.0,3443.4914,N,08633.1277,W,1,,,225.3,M,,M,,*76
$GPRMC,154913.0,A,3443.4914,N,08633.1277,W,,,210119,,*15
$GPGGA,154943.0,3443.4915,N,08633.1275,W,1,,,218.1,M,,M,,*7C
$GPRMC,154943.0,A,3443.4915,N,08633.1275,W,,,210119,,*13
$GPGGA,155013.0,3443.4893,N,08633.1279,W,1,,,217.5,M,,M,,*79
$GPRMC,155013.0,A,3443.4893,N,08633.1279,W,,,210119,,*1D
$GPGGA,155043.0,3443.4892,N,08633.1278,W,1,,,216.6,M,,M,,*7E
$GPRMC,155043.0,A,3443.4892,N,08633.1278,W,,,210119,,*18
$GPGGA,155113.0,3443.4893,N,08633.1274,W,1,,,223.3,M,,M,,*74
$GPRMC,155113.0,A,3443.4893,N,08633.1274,W,,,210119,,*11
$GPGGA,155143.0,3443.4894,N,08633.1268,W,1,,,227.8,M,,M,,*74
$GPRMC,155143.0,A,3443.4894,N,08633.1268,W,,,210119,,*1E
$GPGGA,155213.0,3443.4894,N,08633.1267,W,1,,,224.1,M,,M,,*77
$GPRMC,155213.0,A,3443.4894,N,08633.1267,W,,,210119,,*17
$GPGGA,155243.0,3443.4903,N,08633.1261,W,1,,,210.4,M,,M,,*79
$GPRMC,155243.0,A,3443.4903,N,08633.1261,W,,,210119,,*1B
$GPGGA,155313.0,3443.4903,N,08633.1260,W,1,,,209.8,M,,M,,*78
$GPRMC,155313.0,A,3443.4903,N,08633.1260,W,,,210119,,*1E
$GPGGA,155343.0,3443.4921,N,08633.1275,W,1,,,223.1,M,,M,,*78
$GPRMC,155343.0,A,3443.4921,N,08633.1275,W,,,210119,,*1F
$GPGGA,155413.0,3443.4918,N,08633.1276,W,1,,,230.5,M,,M,,*75
$GPRMC,155413.0,A,3443.4918,N,08633.1276,W,,,210119,,*14
$GPGGA,155443.0,3443.4916,N,08633.1273,W,1,,,227.4,M,,M,,*7C
$GPRMC,155443.0,A,3443.4916,N,08633.1273,W,,,210119,,*1A
$GPGGA,155513.0,3443.4913,N,08633.1269,W,1,,,228.7,M,,M,,*7A
$GPRMC,155513.0,A,3443.4913,N,08633.1269,W,,,210119,,*10
$GPGGA,155543.0,3443.4912,N,08633.1268,W,1,,,228.4,M,,M,,*7C
$GPRMC,155543.0,A,3443.4912,N,08633.1268,W,,,210119,,*15
$GPGGA,155613.0,3443.4910,N,08633.1265,W,1,,,227.5,M,,M,,*7B
$GPRMC,155613.0,A,3443.4910,N,08633.1265,W,,,210119,,*1C
$GPGGA,155643.0,3443.4911,N,08633.1257,W,1,,,223.8,M,,M,,*77
$GPRMC,155643.0,A,3443.4911,N,08633.1257,W,,,210119,,*19
$GPGGA,155713.0,3443.4911,N,08633.1253,W,1,,,228.5,M,,M,,*71
$GPRMC,155713.0,A,3443.4911,N,08633.1253,W,,,210119,,*19
$GPGGA,155743.3,3443.4913,N,08633.1250,W,1,,,228.8,M,,M,,*7B
$GPRMC,155743.3,A,3443.4913,N,08633.1250,W,,,210119,,*1E
$GPGGA,155813.0,3443.4914,N,08633.1249,W,1,,,221.2,M,,M,,*7E
$GPRMC,155813.0,A,3443.4914,N,08633.1249,W,,,210119,,*18
$GPGGA,155843.0,3443.4914,N,08633.1249,W,1,,,227.7,M,,M,,*78
$GPRMC,155843.0,A,3443.4914,N,08633.1249,W,,,210119,,*1D
$GPGGA,155913.0,3443.4913,N,08633.1248,W,1,,,233.0,M,,M,,*78
$GPRMC,155913.0,A,3443.4913,N,08633.1248,W,,,210119,,*1F
$GPGGA,155943.0,3443.4912,N,08633.1246,W,1,,,239.3,M,,M,,*7B
$GPRMC,155943.0,A,3443.4912,N,08633.1246,W,,,210119,,*15
$GPGGA,160013.0,3443.4910,N,08633.1245,W,1,,,242.6,M,,M,,*79
$GPRMC,160013.0,A,3443.4910,N,08633.1245,W,,,210119,,*1E
$GPGGA,160043.0,3443.4907,N,08633.1243,W,1,,,241.4,M,,M,,*7D
$GPRMC,160043.0,A,3443.4907,N,08633.1243,W,,,210119,,*1B
$GPGGA,160113.0,3443.4904,N,08633.1240,W,1,,,233.1,M,,M,,*79
$GPRMC,160113.0,A,3443.4904,N,08633.1240,W,,,210119,,*1F
$GPGGA,160143.0,3443.4906,N,08633.1234,W,1,,,223.6,M,,M,,*7B
$GPRMC,160143.0,A,3443.4906,N,08633.1234,W,,,210119,,*1B
$GPGGA,160213.1,3443.4909,N,08633.1231,W,1,,,215.4,M,,M,,*71
$GPRMC,160213.1,A,3443.4909,N,08633.1231,W,,,210119,,*16
$GPGGA,160243.0,3443.4912,N,08633.1232,W,1,,,217.8,M,,M,,*72
$GPRMC,160243.0,A,3443.4912,N,08633.1232,W,,,210119,,*1B
$GPGGA,160313.0,3443.4916,N,08633.1231,W,1,,,218.8,M,,M,,*7E
$GPRMC,160313.0,A,3443.4916,N,08633.1231,W,,,210119,,*18
$GPGGA,160343.0,3443.4910,N,08633.1234,W,1,,,214.4,M,,M,,*78
$GPRMC,160343.0,A,3443.4910,N,08633.1234,W,,,210119,,*1E
$GPGGA,160413.0,3443.4913,N,08633.1234,W,1,,,216.8,M,,M,,*77
$GPRMC,160413.0,A,3443.4913,N,08633.1234,W,,,210119,,*1F
$GPGGA,160443.0,3443.4918,N,08633.1232,W,1,,,218.4,M,,M,,*7D
$GPRMC,160443.0,A,3443.4918,N,08633.1232,W,,,210119,,*17
$GPGGA,160513.0,3443.4919,N,08633.1232,W,1,,,213.5,M,,M,,*72
$GPRMC,160513.0,A,3443.4919,N,08633.1232,W,,,210119,,*12
$GPGGA,160543.0,3443.4919,N,08633.1233,W,1,,,207.0,M,,M,,*76
$GPRMC,160543.0,A,3443.4919,N,08633.1233,W,,,210119,,*16
$GPGGA,160613.0,3443.4887,N,08633.1256,W,1,,,205.9,M,,M,,*7E
$GPRMC,160613.0,A,3443.4887,N,08633.1256,W,,,210119,,*15
$GPGGA,160643.0,3443.4894,N,08633.1249,W,1,,,196.6,M,,M,,*71
$GPRMC,160643.0,A,3443.4894,N,08633.1249,W,,,210119,,*1C
$GPGGA,160713.0,3443.4895,N,08633.1246,W,1,,,203.8,M,,M,,*7A
$GPRMC,160713.0,A,3443.4895,N,08633.1246,W,,,210119,,*16
$GPGGA,160743.0,3443.4896,N,08633.1242,W,1,,,210.8,M,,M,,*7A
$GPRMC,160743.0,A,3443.4896,N,08633.1242,W,,,210119,,*14
$GPGGA,160813.0,3443.4897,N,08633.1237,W,1,,,209.0,M,,M,,*73
$GPRMC,160813.0,A,3443.4897,N,08633.1237,W,,,210119,,*1D
$GPGGA,160843.0,3443.4897,N,08633.1231,W,1,,,204.9,M,,M,,*74
$GPRMC,160843.0,A,3443.4897,N,08633.1231,W,,,210119,,*1E
$GPGGA,160913.0,3443.4897,N,08633.1228,W,1,,,207.5,M,,M,,*77
$GPRMC,160913.0,A,3443.4897,N,08633.1228,W,,,210119,,*12
$GPGGA,160943.0,3443.4898,N,08633.1226,W,1,,,205.3,M,,M,,*77
$GPRMC,160943.0,A,3443.4898,N,08633.1226,W,,,210119,,*16
$GPGGA,161013.0,3443.4904,N,08633.1226,W,1,,,215.3,M,,M,,*7F
$GPRMC,161013.0,A,3443.4904,N,08633.1226,W,,,210119,,*1F
$GPGGA,161043.0,3443.4911,N,08633.1229,W,1,,,221.8,M,,M,,*7D
$GPRMC,161043.0,A,3443.4911,N,08633.1229,W,,,210119,,*11
$GPGGA,161113.0,3443.4912,N,08633.1232,W,1,,,224.9,M,,M,,*74
$GPRMC,161113.0,A,3443.4912,N,08633.1232,W,,,210119,,*1C
$GPGGA,161143.0,3443.4915,N,08633.1235,W,1,,,224.2,M,,M,,*7A
$GPRMC,161143.0,A,3443.4915,N,08633.1235,W,,,210119,,*19
$GPGGA,161213.0,3443.4916,N,08633.1237,W,1,,,220.2,M,,M,,*79
$GPRMC,161213.0,A,3443.4916,N,08633.1237,W,,,210119,,*1E
$GPGGA,161243.0,3443.4918,N,08633.1238,W,1,,,223.0,M,,M,,*7C
$GPRMC,161243.0,A,3443.4918,N,08633.1238,W,,,210119,,*1A
$GPGGA,161313.0,3443.4917,N,08633.1238,W,1,,,226.2,M,,M,,*70
$GPRMC,161313.0,A,3443.4917,N,08633.1238,W,,,210119,,*11
$GPGGA,161343.0,3443.4917,N,08633.1239,W,1,,,221.5,M,,M,,*74
$GPRMC,161343.0,A,3443.4917,N,08633.1239,W,,,210119,,*15
$GPGGA,161413.0,3443.4928,N,08633.1238,W,1,,,206.0,M,,M,,*7B
$GPRMC,161413.0,A,3443.4928,N,08633.1238,W,,,210119,,*1A
$GPGGA,161443.0,3443.4929,N,08633.1241,W,1,,,210.5,M,,M,,*73
$GPRMC,161443.0,A,3443.4929,N,08633.1241,W,,,210119,,*10
$GPGGA,161513.0,3443.4927,N,08633.1243,W,1,,,217.0,M,,M,,*79
$GPRMC,161513.0,A,3443.4927,N,08633.1243,W,,,210119,,*18
$GPGGA,161543.0,3443.4932,N,08633.1239,W,1,,,223.4,M,,M,,*76
$GPRMC,161543.0,A,3443.4932,N,08633.1239,W,,,210119,,*14
$GPGGA,161613.0,3443.4931,N,08633.1241,W,1,,,225.6,M,,M,,*78
$GPRMC,161613.0,A,3443.4931,N,08633.1241,W,,,210119,,*1E
$GPGGA,161643.0,3443.4929,N,08633.1242,W,1,,,229.6,M,,M,,*7B
$GPRMC,161643.0,A,3443.4929,N,08633.1242,W,,,210119,,*11
$GPGGA,161713.0,3443.4925,N,08633.1218,W,1,,,233.2,M,,M,,*73
$GPRMC,161713.0,A,3443.4925,N,08633.1218,W,,,210119,,*16
$GPGGA,161743.1,3443.4921,N,08633.1220,W,1,,,228.0,M,,M,,*70
$GPRMC,161743.1,A,3443.4921,N,08633.1220,W,,,210119,,*1D
$GPGGA,161813.0,3443.4917,N,08633.1228,W,1,,,213.0,M,,M,,*7E
$GPRMC,161813.0,A,3443.4917,N,08633.1228,W,,,210119,,*1B
$GPGGA,161843.0,3443.4920,N,08633.1229,W,1,,,216.3,M,,M,,*78
$GPRMC,161843.0,A,3443.4920,N,08633.1229,W,,,210119,,*1B
$GPGGA,161913.0,3443.4921,N,08633.1230,W,1,,,215.5,M,,M,,*70
$GPRMC,161913.0,A,3443.4921,N,08633.1230,W,,,210119,,*16
$GPGGA,161943.0,3443.4923,N,08633.1227,W,1,,,215.8,M,,M,,*7C
$GPRMC,161943.0,A,3443.4923,N,08633.1227,W,,,210119,,*17
$GPGGA,162013.0,3443.4922,N,08633.1228,W,1,,,215.4,M,,M,,*71
$GPRMC,162013.0,A,3443.4922,N,08633.1228,W,,,210119,,*16
$GPGGA,162043.0,3443.4920,N,08633.1227,W,1,,,207.8,M,,M,,*76
$GPRMC,162043.0,A,3443.4920,N,08633.1227,W,,,210119,,*1E
$GPGGA,162113.0,3443.4923,N,08633.1215,W,1,,,210.3,M,,M,,*7D
$GPRMC,162113.0,A,3443.4923,N,08633.1215,W,,,210119,,*18
$GPGGA,162143.0,3443.4921,N,08633.1215,W,1,,,215.7,M,,M,,*7B
$GPRMC,162143.0,A,3443.4921,N,08633.1215,W,,,210119,,*1F
$GPGGA,162213.0,3443.4921,N,08633.1217,W,1,,,220.1,M,,M,,*7F
$GPRMC,162213.0,A,3443.4921,N,08633.1217,W,,,210119,,*1B
$GPGGA,162243.0,3443.4923,N,08633.1215,W,1,,,210.7,M,,M,,*7F
$GPRMC,162243.0,A,3443.4923,N,08633.1215,W,,,210119,,*1E
$GPGGA,162313.0,3443.4918,N,08633.1221,W,1,,,215.1,M,,M,,*77
$GPRMC,162313.0,A,3443.4918,N,08633.1221,W,,,210119,,*15
$GPGGA,162343.0,3443.4916,N,08633.1226,W,1,,,219.1,M,,M,,*77
$GPRMC,162343.0,A,3443.4916,N,08633.1226,W,,,210119,,*19
$GPGGA,162413.0,3443.4915,N,08633.1236,W,1,,,224.0,M,,M,,*78
$GPRMC,162413.0,A,3443.4915,N,08633.1236,W,,,210119,,*19
$GPGGA,162443.0,3443.4924,N,08633.1234,W,1,,,220.9,M,,M,,*70
$GPRMC,162443.0,A,3443.4924,N,08633.1234,W,,,210119,,*1C
$GPGGA,162513.0,3443.4926,N,08633.1236,W,1,,,223.6,M,,M,,*78
$GPRMC,162513.0,A,3443.4926,N,08633.1236,W,,,210119,,*18
$GPGGA,162543.0,3443.4907,N,08633.1256,W,1,,,235.4,M,,M,,*7D
$GPRMC,162543.0,A,3443.4907,N,08633.1256,W,,,210119,,*18
$GPGGA,162613.0,3443.4907,N,08633.1255,W,1,,,224.6,M,,M,,*7A
$GPRMC,162613.0,A,3443.4907,N,08633.1255,W,,,210119,,*1D
$GPGGA,162643.0,3443.4907,N,08633.1256,W,1,,,226.4,M,,M,,*7C
$GPRMC,162643.0,A,3443.4907,N,08633.1256,W,,,210119,,*1B
$GPGGA,162713.0,3443.4908,N,08633.1257,W,1,,,230.0,M,,M,,*75
$GPRMC,162713.0,A,3443.4908,N,08633.1257,W,,,210119,,*11
$GPGGA,162743.0,3443.4908,N,08633.1257,W,1,,,231.9,M,,M,,*78
$GPRMC,162743.0,A,3443.4908,N,08633.1257,W,,,210119,,*14
$GPGGA,162813.0,3443.4908,N,08633.1256,W,1,,,234.2,M,,M,,*7D
$GPRMC,162813.0,A,3443.4908,N,08633.1256,W,,,210119,,*1F
$GPGGA,162843.0,3443.4907,N,08633.1257,W,1,,,227.5,M,,M,,*73
$GPRMC,162843.0,A,3443.4907,N,08633.1257,W,,,210119,,*14
$GPGGA,162913.0,3443.4906,N,08633.1255,W,1,,,218.7,M,,M,,*7A
$GPRMC,162913.0,A,3443.4906,N,08633.1255,W,,,210119,,*13
$GPGGA,162943.0,3443.4906,N,08633.1256,W,1,,,224.0,M,,M,,*74
$GPRMC,162943.0,A,3443.4906,N,08633.1256,W,,,210119,,*15
$GPGGA,163013.0,3443.4904,N,08633.1258,W,1,,,223.5,M,,M,,*77
$GPRMC,163013.0,A,3443.4904,N,08633.1258,W,,,210119,,*14
$GPGGA,163043.0,3443.4903,N,08633.1257,W,1,,,221.8,M,,M,,*75
$GPRMC,163043.0,A,3443.4903,N,08633.1257,W,,,210119,,*19
$GPGGA,163113.0,3443.4903,N,08633.1248,W,1,,,226.3,M,,M,,*73
$GPRMC,163113.0,A,3443.4903,N,08633.1248,W,,,210119,,*13
$GPGGA,163143.0,3443.4904,N,08633.1246,W,1,,,222.4,M,,M,,*7C
$GPRMC,163143.0,A,3443.4904,N,08633.1246,W,,,210119,,*1F
$GPGGA,163213.0,3443.4905,N,08633.1246,W,1,,,222.4,M,,M,,*7B
$GPRMC,163213.0,A,3443.4905,N,08633.1246,W,,,210119,,*18
$GPGGA,163243.0,3443.4915,N,08633.1254,W,1,,,231.3,M,,M,,*79
$GPRMC,163243.0,A,3443.4915,N,08633.1254,W,,,210119,,*1F
$GPGGA,163313.0,3443.4915,N,08633.1252,W,1,,,224.3,M,,M,,*7F
$GPRMC,163313.0,A,3443.4915,N,08633.1252,W,,,210119,,*1D
$GPGGA,163343.0,3443.4914,N,08633.1248,W,1,,,225.8,M,,M,,*7A
$GPRMC,163343.0,A,3443.4914,N,08633.1248,W,,,210119,,*12
$GPGGA,163413.0,3443.4912,N,08633.1247,W,1,,,223.3,M,,M,,*7C
$GPRMC,163413.0,A,3443.4912,N,08633.1247,W,,,210119,,*19
$GPGGA,163443.0,3443.4907,N,08633.1250,W,1,,,225.2,M,,M,,*7C
$GPRMC,163443.0,A,3443.4907,N,08633.1250,W,,,210119,,*1E
$GPGGA,163513.0,3443.4894,N,08633.1252,W,1,,,223.1,M,,M,,*74
$GPRMC,163513.0,A,3443.4894,N,08633.1252,W,,,210119,,*13
$GPGGA,163543.0,3443.4894,N,08633.1257,W,1,,,220.0,M,,M,,*76
$GPRMC,163543.0,A,3443.4894,N,08633.1257,W,,,210119,,*13
$GPGGA,163613.0,3443.4894,N,08633.1260,W,1,,,230.3,M,,M,,*76
$GPRMC,163613.0,A,3443.4894,N,08633.1260,W,,,210119,,*11
$GPGGA,163643.0,3443.4893,N,08633.1261,W,1,,,227.0,M,,M,,*70
$GPRMC,163643.0,A,3443.4893,N,08633.1261,W,,,210119,,*12
$GPGGA,163713.0,3443.4894,N,08633.1262,W,1,,,228.4,M,,M,,*7B
$GPRMC,163713.0,A,3443.4894,N,08633.1262,W,,,210119,,*12
$GPGGA,163743.0,3443.4891,N,08633.1264,W,1,,,232.1,M,,M,,*73
$GPRMC,163743.0,A,3443.4891,N,08633.1264,W,,,210119,,*14
$GPGGA,163813.0,3443.4890,N,08633.1267,W,1,,,218.8,M,,M,,*7A
$GPRMC,163813.0,A,3443.4890,N,08633.1267,W,,,210119,,*1C
$GPGGA,163843.0,3443.4891,N,08633.1271,W,1,,,212.5,M,,M,,*7E
$GPRMC,163843.0,A,3443.4891,N,08633.1271,W,,,210119,,*1F
$GPGGA,163913.0,3443.4890,N,08633.1271,W,1,,,216.1,M,,M,,*7B
$GPRMC,163913.0,A,3443.4890,N,08633.1271,W,,,210119,,*1A
$GPGGA,163943.0,3443.4890,N,08633.1269,W,1,,,218.5,M,,M,,*7D
$GPRMC,163943.0,A,3443.4890,N,08633.1269,W,,,210119,,*16
$GPGGA,164013.0,3443.4893,N,08633.1270,W,1,,,220.7,M,,M,,*74
$GPRMC,164013.0,A,3443.4893,N,08633.1270,W,,,210119,,*16
$GPGGA,164043.0,3443.4892,N,08633.1271,W,1,,,220.5,M,,M,,*73
$GPRMC,164043.0,A,3443.4892,N,08633.1271,W,,,210119,,*13
$GPGGA,164113.0,3443.4893,N,08633.1271,W,1,,,221.7,M,,M,,*75
$GPRMC,164113.0,A,3443.4893,N,08633.1271,W,,,210119,,*16
$GPGGA,164143.0,3443.4883,N,08633.1268,W,1,,,225.3,M,,M,,*79
$GPRMC,164143.0,A,3443.4883,N,08633.1268,W,,,210119,,*1A
$GPGGA,164213.0,3443.4886,N,08633.1268,W,1,,,223.8,M,,M,,*77
$GPRMC,164213.0,A,3443.4886,N,08633.1268,W,,,210119,,*19
$GPGGA,164243.0,3443.4889,N,08633.1267,W,1,,,224.8,M,,M,,*75
$GPRMC,164243.0,A,3443.4889,N,08633.1267,W,,,210119,,*1C
$GPGGA,164313.0,3443.4890,N,08633.1264,W,1,,,218.8,M,,M,,*75
$GPRMC,164313.0,A,3443.4890,N,08633.1264,W,,,210119,,*13
$GPGGA,164343.0,3443.4888,N,08633.1264,W,1,,,224.0,M,,M,,*7E
$GPRMC,164343.0,A,3443.4888,N,08633.1264,W,,,210119,,*1F
$GPGGA,164413.0,3443.4888,N,08633.1263,W,1,,,218.9,M,,M,,*7D
$GPRMC,164413.0,A,3443.4888,N,08633.1263,W,,,210119,,*1A
$GPGGA,164443.0,3443.4895,N,08633.1264,W,1,,,206.8,M,,M,,*7D
$GPRMC,164443.0,A,3443.4895,N,08633.1264,W,,,210119,,*14
$GPGGA,164513.0,3443.4899,N,08633.1270,W,1,,,197.3,M,,M,,*70
$GPRMC,164513.0,A,3443.4899,N,08633.1270,W,,,210119,,*19
$GPGGA,164543.0,3443.4902,N,08633.1276,W,1,,,189.5,M,,M,,*79
$GPRMC,164543.0,A,3443.4902,N,08633.1276,W,,,210119,,*19
$GPGGA,164613.0,3443.4903,N,08633.1278,W,1,,,194.1,M,,M,,*78
$GPRMC,164613.0,A,3443.4903,N,08633.1278,W,,,210119,,*10
$GPGGA,164643.0,3443.4905,N,08633.1280,W,1,,,185.3,M,,M,,*7E
$GPRMC,164643.0,A,3443.4905,N,08633.1280,W,,,210119,,*14
$GPGGA,164713.0,3443.4905,N,08633.1281,W,1,,,193.2,M,,M,,*7D
$GPRMC,164713.0,A,3443.4905,N,08633.1281,W,,,210119,,*11
$GPGGA,164743.0,3443.4904,N,08633.1282,W,1,,,201.7,M,,M,,*77
$GPRMC,164743.0,A,3443.4904,N,08633.1282,W,,,210119,,*16
$GPGGA,164813.0,3443.4901,N,08633.1277,W,1,,,222.7,M,,M,,*73
$GPRMC,164813.0,A,3443.4901,N,08633.1277,W,,,210119,,*13
$GPGGA,164843.0,3443.4907,N,08633.1277,W,1,,,227.6,M,,M,,*74
$GPRMC,164843.0,A,3443.4907,N,08633.1277,W,,,210119,,*10
$GPGGA,164913.0,3443.4912,N,08633.1269,W,1,,,228.4,M,,M,,*76
$GPRMC,164913.0,A,3443.4912,N,08633.1269,W,,,210119,,*1F
$GPGGA,164943.0,3443.4904,N,08633.1256,W,1,,,233.8,M,,M,,*7E
$GPRMC,164943.0,A,3443.4904,N,08633.1256,W,,,210119,,*11
$GPGGA,165013.0,3443.4906,N,08633.1251,W,1,,,240.0,M,,M,,*7A
$GPRMC,165013.0,A,3443.4906,N,08633.1251,W,,,210119,,*19
$GPGGA,165043.0,3443.4905,N,08633.1253,W,1,,,234.0,M,,M,,*7D
$GPRMC,165043.0,A,3443.4905,N,08633.1253,W,,,210119,,*1D
$GPGGA,165113.0,3443.4899,N,08633.1254,W,1,,,229.0,M,,M,,*76
$GPRMC,165113.0,A,3443.4899,N,08633.1254,W,,,210119,,*1A
$GPGGA,165143.0,3443.4889,N,08633.1267,W,1,,,221.5,M,,M,,*7F
$GPRMC,165143.0,A,3443.4889,N,08633.1267,W,,,210119,,*1E
$GPGGA,165213.0,3443.4892,N,08633.1269,W,1,,,225.2,M,,M,,*7E
$GPRMC,165213.0,A,3443.4892,N,08633.1269,W,,,210119,,*1C
$GPGGA,165243.0,3443.4892,N,08633.1270,W,1,,,225.1,M,,M,,*70
$GPRMC,165243.0,A,3443.4892,N,08633.1270,W,,,210119,,*11
$GPGGA,165313.0,3443.4889,N,08633.1270,W,1,,,214.6,M,,M,,*7B
$GPRMC,165313.0,A,3443.4889,N,08633.1270,W,,,210119,,*1F
$GPGGA,165343.0,3443.4883,N,08633.1268,W,1,,,217.0,M,,M,,*78
$GPRMC,165343.0,A,3443.4883,N,08633.1268,W,,,210119,,*19
$GPGGA,165413.0,3443.4882,N,08633.1267,W,1,,,224.8,M,,M,,*7C
$GPRMC,165413.0,A,3443.4882,N,08633.1267,W,,,210119,,*15
$GPGGA,165443.0,3443.4884,N,08633.1266,W,1,,,229.3,M,,M,,*78
$GPRMC,165443.0,A,3443.4884,N,08633.1266,W,,,210119,,*17
$GPGGA,165513.0,3443.4879,N,08633.1267,W,1,,,237.5,M,,M,,*76
$GPRMC,165513.0,A,3443.4879,N,08633.1267,W,,,210119,,*10
$GPGGA,165543.0,3443.4885,N,08633.1272,W,1,,,230.5,M,,M,,*73
$GPRMC,165543.0,A,3443.4885,N,08633.1272,W,,,210119,,*12
$GPGGA,165613.0,3443.4886,N,08633.1275,W,1,,,228.7,M,,M,,*7A
$GPRMC,165613.0,A,3443.4886,N,08633.1275,W,,,210119,,*10
$GPGGA,165643.0,3443.4886,N,08633.1276,W,1,,,228.8,M,,M,,*73
$GPRMC,165643.0,A,3443.4886,N,08633.1276,W,,,210119,,*16
$GPGGA,165713.0,3443.4886,N,08633.1273,W,1,,,225.4,M,,M,,*73
$GPRMC,165713.0,A,3443.4886,N,08633.1273,W,,,210119,,*17
$GPGGA,165743.0,3443.4885,N,08633.1273,W,1,,,218.2,M,,M,,*7D
$GPRMC,165743.0,A,3443.4885,N,08633.1273,W,,,210119,,*11
$GPGGA,165813.0,3443.4891,N,08633.1264,W,1,,,221.0,M,,M,,*7C
$GPRMC,165813.0,A,3443.4891,N,08633.1264,W,,,210119,,*18
$GPGGA,165843.0,3443.4891,N,08633.1264,W,1,,,224.3,M,,M,,*7F
$GPRMC,165843.0,A,3443.4891,N,08633.1264,W,,,210119,,*1D
$GPGGA,165913.0,3443.4890,N,08633.1266,W,1,,,218.0,M,,M,,*74
$GPRMC,165913.0,A,3443.4890,N,08633.1266,W,,,210119,,*1A
$GPGGA,165943.0,3443.4886,N,08633.1268,W,1,,,219.4,M,,M,,*7D
$GPRMC,165943.0,A,3443.4886,N,08633.1268,W,,,210119,,*16
$GPGGA,170013.0,3443.4881,N,08633.1272,W,1,,,212.6,M,,M,,*70
$GPRMC,170013.0,A,3443.4881,N,08633.1272,W,,,210119,,*12
$GPGGA,170043.0,3443.4870,N,08633.1275,W,1,,,214.5,M,,M,,*79
$GPRMC,170043.0,A,3443.4870,N,08633.1275,W,,,210119,,*1E
$GPGGA,170113.0,3443.4875,N,08633.1269,W,1,,,225.2,M,,M,,*70
$GPRMC,170113.0,A,3443.4875,N,08633.1269,W,,,210119,,*12
$GPGGA,170143.0,3443.4880,N,08633.1265,W,1,,,221.2,M,,M,,*77
$GPRMC,170143.0,A,3443.4880,N,08633.1265,W,,,210119,,*11
$GPGGA,170213.0,3443.4890,N,08633.1259,W,1,,,228.1,M,,M,,*75
$GPRMC,170213.0,A,3443.4890,N,08633.1259,W,,,210119,,*19
$GPGGA,170243.0,3443.4894,N,08633.1256,W,1,,,228.1,M,,M,,*7B
$GPRMC,170243.0,A,3443.4894,N,08633.1256,W,,,210119,,*17
$GPGGA,170313.0,3443.4896,N,08633.1253,W,1,,,224.6,M,,M,,*73
$GPRMC,170313.0,A,3443.4896,N,08633.1253,W,,,210119,,*14
$GPGGA,170343.0,3443.4895,N,08633.1253,W,1,,,213.6,M,,M,,*71
$GPRMC,170343.0,A,3443.4895,N,08633.1253,W,,,210119,,*12
$GPGGA,170413.0,3443.4906,N,08633.1256,W,1,,,212.3,M,,M,,*79
$GPRMC,170413.0,A,3443.4906,N,08633.1256,W,,,210119,,*1E
$GPGGA,170443.0,3443.4906,N,08633.1254,W,1,,,216.6,M,,M,,*7F
$GPRMC,170443.0,A,3443.4906,N,08633.1254,W,,,210119,,*19
$GPGGA,170513.0,3443.4907,N,08633.1254,W,1,,,221.3,M,,M,,*7B
$GPRMC,170513.0,A,3443.4907,N,08633.1254,W,,,210119,,*1C
$GPGGA,170543.0,3443.4908,N,08633.1255,W,1,,,220.0,M,,M,,*72
$GPRMC,170543.0,A,3443.4908,N,08633.1255,W,,,210119,,*17
$GPGGA,170613.0,3443.4907,N,08633.1256,W,1,,,213.7,M,,M,,*7F
$GPRMC,170613.0,A,3443.4907,N,08633.1256,W,,,210119,,*1D
$GPGGA,170643.0,3443.4906,N,08633.1257,W,1,,,212.8,M,,M,,*74
$GPRMC,170643.0,A,3443.4906,N,08633.1257,W,,,210119,,*18
$GPGGA,170713.0,3443.4895,N,08633.1263,W,1,,,212.7,M,,M,,*73
$GPRMC,170713.0,A,3443.4895,N,08633.1263,W,,,210119,,*10
$GPGGA,170743.0,3443.4892,N,08633.1267,W,1,,,222.7,M,,M,,*76
$GPRMC,170743.0,A,3443.4892,N,08633.1267,W,,,210119,,*16
$GPGGA,170813.0,3443.4889,N,08633.1267,W,1,,,221.1,M,,M,,*73
$GPRMC,170813.0,A,3443.4889,N,08633.1267,W,,,210119,,*16
$GPGGA,170843.0,3443.4891,N,08633.1260,W,1,,,216.2,M,,M,,*7F
$GPRMC,170843.0,A,3443.4891,N,08633.1260,W,,,210119,,*1D
$GPGGA,170913.0,3443.4892,N,08633.1255,W,1,,,213.4,M,,M,,*7D
$GPRMC,170913.0,A,3443.4892,N,08633.1255,W,,,210119,,*1C
$GPGGA,170943.0,3443.4892,N,08633.1250,W,1,,,211.1,M,,M,,*7A
$GPRMC,170943.0,A,3443.4892,N,08633.1250,W,,,210119,,*1C
$GPGGA,171013.0,3443.4889,N,08633.1246,W,1,,,215.5,M,,M,,*7A
$GPRMC,171013.0,A,3443.4889,N,08633.1246,W,,,210119,,*1C
$GPGGA,171043.0,3443.4889,N,08633.1245,W,1,,,219.9,M,,M,,*7C
$GPRMC,171043.0,A,3443.4889,N,08633.1245,W,,,210119,,*1A
$GPGGA,171113.0,3443.4882,N,08633.1245,W,1,,,218.9,M,,M,,*72
$GPRMC,171113.0,A,3443.4882,N,08633.1245,W,,,210119,,*15
$GPGGA,171143.0,3443.4879,N,08633.1234,W,1,,,221.1,M,,M,,*77
$GPRMC,171143.0,A,3443.4879,N,08633.1234,W,,,210119,,*12
$GPGGA,171213.0,3443.4879,N,08633.1238,W,1,,,229.4,M,,M,,*70
$GPRMC,171213.0,A,3443.4879,N,08633.1238,W,,,210119,,*18
$GPGGA,171243.0,3443.4880,N,08633.1239,W,1,,,227.7,M,,M,,*7F
$GPRMC,171243.0,A,3443.4880,N,08633.1239,W,,,210119,,*1A
$GPGGA,171313.0,3443.4887,N,08633.1243,W,1,,,238.9,M,,M,,*71
$GPRMC,171313.0,A,3443.4887,N,08633.1243,W,,,210119,,*14
$GPGGA,171343.0,3443.4894,N,08633.1246,W,1,,,240.8,M,,M,,*7D
$GPRMC,171343.0,A,3443.4894,N,08633.1246,W,,,210119,,*16
$GPGGA,171413.0,3443.4896,N,08633.1249,W,1,,,240.7,M,,M,,*7D
$GPRMC,171413.0,A,3443.4896,N,08633.1249,W,,,210119,,*19
$GPGGA,171443.0,3443.4901,N,08633.1251,W,1,,,235.9,M,,M,,*72
$GPRMC,171443.0,A,3443.4901,N,08633.1251,W,,,210119,,*1A
$GPGGA,171513.0,3443.4904,N,08633.1250,W,1,,,225.2,M,,M,,*78
$GPRMC,171513.0,A,3443.4904,N,08633.1250,W,,,210119,,*1A
$GPGGA,171543.0,3443.4924,N,08633.1262,W,1,,,217.2,M,,M,,*7F
$GPRMC,171543.0,A,3443.4924,N,08633.1262,W,,,210119,,*1C
$GPGGA,171613.0,3443.4915,N,08633.1262,W,1,,,226.1,M,,M,,*7A
$GPRMC,171613.0,A,3443.4915,N,08633.1262,W,,,210119,,*18
$GPGGA,171643.0,3443.4915,N,08633.1260,W,1,,,225.0,M,,M,,*7F
$GPRMC,171643.0,A,3443.4915,N,08633.1260,W,,,210119,,*1F
$GPGGA,171713.0,3443.4915,N,08633.1262,W,1,,,228.7,M,,M,,*73
$GPRMC,171713.0,A,3443.4915,N,08633.1262,W,,,210119,,*19
$GPGGA,171743.0,3443.4912,N,08633.1266,W,1,,,232.3,M,,M,,*7A
$GPRMC,171743.0,A,3443.4912,N,08633.1266,W,,,210119,,*1F
$GPGGA,171813.0,3443.4902,N,08633.1266,W,1,,,228.8,M,,M,,*71
$GPRMC,171813.0,A,3443.4902,N,08633.1266,W,,,210119,,*14
$GPGGA,171843.0,3443.4900,N,08633.1264,W,1,,,221.2,M,,M,,*77
$GPRMC,171843.0,A,3443.4900,N,08633.1264,W,,,210119,,*11
$GPGGA,171913.0,3443.4899,N,08633.1262,W,1,,,218.6,M,,M,,*7A
$GPRMC,171913.0,A,3443.4899,N,08633.1262,W,,,210119,,*12
$GPGGA,171943.0,3443.4897,N,08633.1262,W,1,,,222.3,M,,M,,*7D
$GPRMC,171943.0,A,3443.4897,N,08633.1262,W,,,210119,,*19
$GPGGA,172013.0,3443.4890,N,08633.1265,W,1,,,224.5,M,,M,,*72
$GPRMC,172013.0,A,3443.4890,N,08633.1265,W,,,210119,,*16
$GPGGA,172043.0,3443.4889,N,08633.1266,W,1,,,232.9,M,,M,,*77
$GPRMC,172043.0,A,3443.4889,N,08633.1266,W,,,210119,,*18
$GPGGA,172113.0,3443.4889,N,08633.1268,W,1,,,240.7,M,,M,,*76
$GPRMC,172113.0,A,3443.4889,N,08633.1268,W,,,210119,,*12
$GPGGA,172143.0,3443.4893,N,08633.1274,W,1,,,235.7,M,,M,,*77
$GPRMC,172143.0,A,3443.4893,N,08633.1274,W,,,210119,,*11
$GPGGA,172213.0,3443.4894,N,08633.1275,W,1,,,229.0,M,,M,,*7D
$GPRMC,172213.0,A,3443.4894,N,08633.1275,W,,,210119,,*11
$GPGGA,172243.0,3443.4897,N,08633.1279,W,1,,,224.4,M,,M,,*7E
$GPRMC,172243.0,A,3443.4897,N,08633.1279,W,,,210119,,*1B
$GPGGA,172313.0,3443.4896,N,08633.1274,W,1,,,221.7,M,,M,,*70
$GPRMC,172313.0,A,3443.4896,N,08633.1274,W,,,210119,,*13
$GPGGA,172343.0,3443.4899,N,08633.1273,W,1,,,214.6,M,,M,,*7A
$GPRMC,172343.0,A,3443.4899,N,08633.1273,W,,,210119,,*1E
$GPGGA,172413.0,3443.4900,N,08633.1270,W,1,,,212.4,M,,M,,*7E
$GPRMC,172413.0,A,3443.4900,N,08633.1270,W,,,210119,,*1E
$GPGGA,172443.0,3443.4901,N,08633.1268,W,1,,,201.1,M,,M,,*74
$GPRMC,172443.0,A,3443.4901,N,08633.1268,W,,,210119,,*13
$GPGGA,172513.0,3443.4907,N,08633.1272,W,1,,,225.8,M,,M,,*72
$GPRMC,172513.0,A,3443.4907,N,08633.1272,W,,,210119,,*1A
$GPGGA,172543.0,3443.4910,N,08633.1269,W,1,,,222.7,M,,M,,*73
$GPRMC,172543.0,A,3443.4910,N,08633.1269,W,,,210119,,*13
$GPGGA,172613.0,3443.4913,N,08633.1259,W,1,,,208.0,M,,M,,*7A
$GPRMC,172613.0,A,3443.4913,N,08633.1259,W,,,210119,,*15
$GPGGA,172643.0,3443.4916,N,08633.1245,W,1,,,208.2,M,,M,,*75
$GPRMC,172643.0,A,3443.4916,N,08633.1245,W,,,210119,,*18
$GPGGA,172713.0,3443.4918,N,08633.1232,W,1,,,199.7,M,,M,,*71
$GPRMC,172713.0,A,3443.4918,N,08633.1232,W,,,210119,,*12
$GPGGA,172743.0,3443.4925,N,08633.1223,W,1,,,191.7,M,,M,,*72
$GPRMC,172743.0,A,3443.4925,N,08633.1223,W,,,210119,,*19
$GPGGA,172813.0,3443.4934,N,08633.1219,W,1,,,199.2,M,,M,,*7C
$GPRMC,172813.0,A,3443.4934,N,08633.1219,W,,,210119,,*1A
$GPGGA,172843.0,3443.4936,N,08633.1219,W,1,,,211.3,M,,M,,*79
$GPRMC,172843.0,A,3443.4936,N,08633.1219,W,,,210119,,*1D
$GPGGA,172913.0,3443.4920,N,08633.1231,W,1,,,215.4,M,,M,,*73
$GPRMC,172913.0,A,3443.4920,N,08633.1231,W,,,210119,,*14
$GPGGA,172943.0,3443.4919,N,08633.1232,W,1,,,227.2,M,,M,,*78
$GPRMC,172943.0,A,3443.4919,N,08633.1232,W,,,210119,,*18
$GPGGA,173013.0,3443.4919,N,08633.1235,W,1,,,228.0,M,,M,,*7F
$GPRMC,173013.0,A,3443.4919,N,08633.1235,W,,,210119,,*12
$GPGGA,173043.0,3443.4918,N,08633.1237,W,1,,,229.6,M,,M,,*7E
$GPRMC,173043.0,A,3443.4918,N,08633.1237,W,,,210119,,*14
$GPGGA,173113.0,3443.4916,N,08633.1228,W,1,,,218.6,M,,M,,*78
$GPRMC,173113.0,A,3443.4916,N,08633.1228,W,,,210119,,*10
$GPGGA,173143.0,3443.4916,N,08633.1229,W,1,,,215.3,M,,M,,*74
$GPRMC,173143.0,A,3443.4916,N,08633.1229,W,,,210119,,*14
$GPGGA,173213.0,3443.4916,N,08633.1230,W,1,,,213.0,M,,M,,*7F
$GPRMC,173213.0,A,3443.4916,N,08633.1230,W,,,210119,,*1A
$GPGGA,173243.0,3443.4918,N,08633.1235,W,1,,,217.8,M,,M,,*7D
$GPRMC,173243.0,A,3443.4918,N,08633.1235,W,,,210119,,*14
$GPGGA,173313.0,3443.4918,N,08633.1237,W,1,,,215.9,M,,M,,*78
$GPRMC,173313.0,A,3443.4918,N,08633.1237,W,,,210119,,*12
$GPGGA,173343.0,3443.4918,N,08633.1239,W,1,,,216.0,M,,M,,*79
$GPRMC,173343.0,A,3443.4918,N,08633.1239,W,,,210119,,*19
$GPGGA,173413.0,3443.4917,N,08633.1240,W,1,,,220.7,M,,M,,*78
$GPRMC,173413.0,A,3443.4917,N,08633.1240,W,,,210119,,*1A
$GPGGA,173443.0,3443.4909,N,08633.1247,W,1,,,228.7,M,,M,,*7D
$GPRMC,173443.0,A,3443.4909,N,08633.1247,W,,,210119,,*17
$GPGGA,173513.0,3443.4915,N,08633.1261,W,1,,,222.0,M,,M,,*7D
$GPRMC,173513.0,A,3443.4915,N,08633.1261,W,,,210119,,*1A
$GPGGA,173543.0,3443.4917,N,08633.1264,W,1,,,225.4,M,,M,,*7C
$GPRMC,173543.0,A,3443.4917,N,08633.1264,W,,,210119,,*18
$GPGGA,173613.0,3443.4916,N,08633.1265,W,1,,,224.5,M,,M,,*7A
$GPRMC,173613.0,A,3443.4916,N,08633.1265,W,,,210119,,*1E
$GPGGA,173643.0,3443.4916,N,08633.1266,W,1,,,225.5,M,,M,,*7D
$GPRMC,173643.0,A,3443.4916,N,08633.1266,W,,,210119,,*18
$GPGGA,173713.0,3443.4916,N,08633.1264,W,1,,,216.7,M,,M,,*79
$GPRMC,173713.0,A,3443.4916,N,08633.1264,W,,,210119,,*1E
$GPGGA,173743.0,3443.4915,N,08633.1258,W,1,,,211.9,M,,M,,*79
$GPRMC,173743.0,A,3443.4915,N,08633.1258,W,,,210119,,*17
$GPGGA,173813.0,3443.4910,N,08633.1251,W,1,,,217.0,M,,M,,*70
$GPRMC,173813.0,A,3443.4910,N,08633.1251,W,,,210119,,*11
$GPGGA,173843.0,3443.4907,N,08633.1247,W,1,,,215.3,M,,M,,*75
$GPRMC,173843.0,A,3443.4907,N,08633.1247,W,,,210119,,*15
$GPGGA,173913.2,3443.4906,N,08633.1246,W,1,,,221.9,M,,M,,*7E
$GPRMC,173913.2,A,3443.4906,N,08633.1246,W,,,210119,,*13
$GPGGA,173943.0,3443.4904,N,08633.1244,W,1,,,218.0,M,,M,,*7A
$GPRMC,173943.0,A,3443.4904,N,08633.1244,W,,,210119,,*14
$GPGGA,174013.0,3443.4904,N,08633.1244,W,1,,,219.1,M,,M,,*71
$GPRMC,174013.0,A,3443.4904,N,08633.1244,W,,,210119,,*1F
$GPGGA,174043.0,3443.4905,N,08633.1245,W,1,,,221.5,M,,M,,*7B
$GPRMC,174043.0,A,3443.4905,N,08633.1245,W,,,210119,,*1A
$GPGGA,174113.0,3443.4904,N,08633.1251,W,1,,,219.9,M,,M,,*7C
$GPRMC,174113.0,A,3443.4904,N,08633.1251,W,,,210119,,*1A
$GPGGA,174143.0,3443.4905,N,08633.1252,W,1,,,218.3,M,,M,,*70
$GPRMC,174143.0,A,3443.4905,N,08633.1252,W,,,210119,,*1D
$GPGGA,174213.0,3443.4905,N,08633.1247,W,1,,,215.9,M,,M,,*75
$GPRMC,174213.0,A,3443.4905,N,08633.1247,W,,,210119,,*1F
$GPGGA,174243.0,3443.4903,N,08633.1244,W,1,,,215.3,M,,M,,*7F
$GPRMC,174243.0,A,3443.4903,N,08633.1244,W,,,210119,,*1F
$GPGGA,174313.4,3443.4903,N,08633.1244,W,1,,,222.7,M,,M,,*7F
$GPRMC,174313.4,A,3443.4903,N,08633.1244,W,,,210119,,*1F
$GPGGA,174343.0,3443.4902,N,08633.1246,W,1,,,228.7,M,,M,,*77
$GPRMC,174343.0,A,3443.4902,N,08633.1246,W,,,210119,,*1D
$GPGGA,174413.0,3443.4901,N,08633.1247,W,1,,,230.8,M,,M,,*71
$GPRMC,174413.0,A,3443.4901,N,08633.1247,W,,,210119,,*1D
$GPGGA,174443.0,3443.4901,N,08633.1250,W,1,,,237.3,M,,M,,*7E
$GPRMC,174443.0,A,3443.4901,N,08633.1250,W,,,210119,,*1E
$GPGGA,174513.0,3443.4903,N,08633.1246,W,1,,,232.7,M,,M,,*7E
$GPRMC,174513.0,A,3443.4903,N,08633.1246,W,,,210119,,*1F
$GPGGA,174543.0,3443.4904,N,08633.1247,W,1,,,229.1,M,,M,,*71
$GPRMC,174543.0,A,3443.4904,N,08633.1247,W,,,210119,,*1C
$GPGGA,174613.0,3443.4907,N,08633.1247,W,1,,,230.3,M,,M,,*7E
$GPRMC,174613.0,A,3443.4907,N,08633.1247,W,,,210119,,*19
$GPGGA,174643.0,3443.4918,N,08633.1243,W,1,,,223.0,M,,M,,*70
$GPRMC,174643.0,A,3443.4918,N,08633.1243,W,,,210119,,*16
$GPGGA,174713.0,3443.4919,N,08633.1242,W,1,,,220.2,M,,M,,*75
$GPRMC,174713.0,A,3443.4919,N,08633.1242,W,,,210119,,*12
$GPGGA,174743.0,3443.4920,N,08633.1241,W,1,,,222.5,M,,M,,*7C
$GPRMC,174743.0,A,3443.4920,N,08633.1241,W,,,210119,,*1E
$GPGGA,174813.0,3443.4868,N,08633.1273,W,1,,,219.6,M,,M,,*71
$GPRMC,174813.0,A,3443.4868,N,08633.1273,W,,,210119,,*18
$GPGGA,174843.0,3443.4922,N,08633.1255,W,1,,,221.6,M,,M,,*74
$GPRMC,174843.0,A,3443.4922,N,08633.1255,W,,,210119,,*16
$GPGGA,174913.0,3443.4922,N,08633.1249,W,1,,,225.4,M,,M,,*7B
$GPRMC,174913.0,A,3443.4922,N,08633.1249,W,,,210119,,*1F
$GPGGA,174943.0,3443.4923,N,08633.1250,W,1,,,230.0,M,,M,,*77
$GPRMC,174943.0,A,3443.4923,N,08633.1250,W,,,210119,,*13
$GPGGA,175013.0,3443.4923,N,08633.1244,W,1,,,230.4,M,,M,,*7B
$GPRMC,175013.0,A,3443.4923,N,08633.1244,W,,,210119,,*1B
$GPGGA,175043.0,3443.4923,N,08633.1243,W,1,,,222.6,M,,M,,*78
$GPRMC,175043.0,A,3443.4923,N,08633.1243,W,,,210119,,*19
$GPGGA,175113.0,3443.4922,N,08633.1243,W,1,,,220.4,M,,M,,*7D
$GPRMC,175113.0,A,3443.4922,N,08633.1243,W,,,210119,,*1C
$GPGGA,175143.0,3443.4922,N,08633.1245,W,1,,,222.4,M,,M,,*7C
$GPRMC,175143.0,A,3443.4922,N,08633.1245,W,,,210119,,*1F
$GPGGA,175213.0,3443.4916,N,08633.1233,W,1,,,212.8,M,,M,,*73
$GPRMC,175213.0,A,3443.4916,N,08633.1233,W,,,210119,,*1F
$GPGGA,175243.0,3443.4916,N,08633.1236,W,1,,,219.6,M,,M,,*76
$GPRMC,175243.0,A,3443.4916,N,08633.1236,W,,,210119,,*1F
$GPGGA,175313.0,3443.4917,N,08633.1240,W,1,,,222.2,M,,M,,*7E
$GPRMC,175313.0,A,3443.4917,N,08633.1240,W,,,210119,,*1B
$GPGGA,175343.0,3443.4918,N,08633.1243,W,1,,,214.7,M,,M,,*77
$GPRMC,175343.0,A,3443.4918,N,08633.1243,W,,,210119,,*12
$GPGGA,175413.0,3443.4919,N,08633.1248,W,1,,,214.6,M,,M,,*7E
$GPRMC,175413.0,A,3443.4919,N,08633.1248,W,,,210119,,*1A
$GPGGA,175443.0,3443.4919,N,08633.1248,W,1,,,213.9,M,,M,,*73
$GPRMC,175443.0,A,3443.4919,N,08633.1248,W,,,210119,,*1F
$GPGGA,175513.0,3443.4919,N,08633.1248,W,1,,,217.2,M,,M,,*78
$GPRMC,175513.0,A,3443.4919,N,08633.1248,W,,,210119,,*1B
$GPGGA,175543.0,3443.4919,N,08633.1249,W,1,,,223.6,M,,M,,*7F
$GPRMC,175543.0,A,3443.4919,N,08633.1249,W,,,210119,,*1F
$GPGGA,175613.0,3443.4919,N,08633.1251,W,1,,,229.3,M,,M,,*7F
$GPRMC,175613.0,A,3443.4919,N,08633.1251,W,,,210119,,*10
$GPGGA,175643.0,3443.4919,N,08633.1251,W,1,,,226.3,M,,M,,*75
$GPRMC,175643.0,A,3443.4919,N,08633.1251,W,,,210119,,*15
$GPGGA,175713.0,3443.4909,N,08633.1259,W,1,,,227.0,M,,M,,*7A
$GPRMC,175713.0,A,3443.4909,N,08633.1259,W,,,210119,,*18
$GPGGA,175743.0,3443.4908,N,08633.1259,W,1,,,229.1,M,,M,,*71
$GPRMC,175743.0,A,3443.4908,N,08633.1259,W,,,210119,,*1C
$GPGGA,175813.0,3443.4906,N,08633.1260,W,1,,,233.8,M,,M,,*7D
$GPRMC,175813.0,A,3443.4906,N,08633.1260,W,,,210119,,*12
$GPGGA,175843.0,3443.4906,N,08633.1262,W,1,,,225.6,M,,M,,*73
$GPRMC,175843.0,A,3443.4906,N,08633.1262,W,,,210119,,*15
$GPGGA,175913.0,3443.4902,N,08633.1260,W,1,,,225.6,M,,M,,*71
$GPRMC,175913.0,A,3443.4902,N,08633.1260,W,,,210119,,*17
$GPGGA,180042.0,3443.4925,N,08633.1285,W,1,,,227.0,M,,M,,*7C
$GPRMC,180042.0,A,3443.4925,N,08633.1285,W,,,210119,,*1E
$GPGGA,180112.0,3443.4957,N,08633.1247,W,1,,,227.0,M,,M,,*73
$GPRMC,180112.0,A,3443.4957,N,08633.1247,W,,,210119,,*11
$GPGGA,180142.0,3443.4915,N,08633.1266,W,1,,,226.9,M,,M,,*7B
$GPRMC,180142.0,A,3443.4915,N,08633.1266,W,,,210119,,*11
$GPGGA,180212.0,3443.4922,N,08633.1271,W,1,,,223.7,M,,M,,*74
$GPRMC,180212.0,A,3443.4922,N,08633.1271,W,,,210119,,*15
$GPGGA,180242.0,3443.4923,N,08633.1271,W,1,,,224.9,M,,M,,*79
$GPRMC,180242.0,A,3443.4923,N,08633.1271,W,,,210119,,*11
$GPGGA,180442.0,3443.4900,N,08633.1271,W,1,,,224.8,M,,M,,*7F
$GPRMC,180442.0,A,3443.4900,N,08633.1271,W,,,210119,,*16
$GPGGA,180512.1,3443.4923,N,08633.1261,W,1,,,223.8,M,,M,,*7D
$GPRMC,180512.1,A,3443.4923,N,08633.1261,W,,,210119,,*13
$GPGGA,180542.0,3443.4930,N,08633.1235,W,1,,,220.4,M,,M,,*75
$GPRMC,180542.0,A,3443.4930,N,08633.1235,W,,,210119,,*14
$GPGGA,180612.0,3443.4928,N,08633.1235,W,1,,,220.2,M,,M,,*7C
$GPRMC,180612.0,A,3443.4928,N,08633.1235,W,,,210119,,*1B
$GPGGA,180642.0,3443.4929,N,08633.1222,W,1,,,217.6,M,,M,,*7E
$GPRMC,180642.0,A,3443.4929,N,08633.1222,W,,,210119,,*19
$GPGGA,180712.0,3443.4925,N,08633.1243,W,1,,,220.9,M,,M,,*7A
$GPRMC,180712.0,A,3443.4925,N,08633.1243,W,,,210119,,*16
$GPGGA,180729.1,3443.4925,N,08633.1244,W,1,,,221.2,M,,M,,*7E
$GPRMC,180729.1,A,3443.4925,N,08633.1244,W,,,210119,,*18
$GPGGA,180759.0,3443.4951,N,08633.1237,W,1,,,215.3,M,,M,,*79
$GPRMC,180759.0,A,3443.4951,N,08633.1237,W,,,210119,,*19
$GPGGA,180829.2,3443.4951,N,08633.1236,W,1,,,213.7,M,,M,,*70
$GPRMC,180829.2,A,3443.4951,N,08633.1236,W,,,210119,,*12
$GPGGA,180859.0,3443.4950,N,08633.1236,W,1,,,214.9,M,,M,,*7D
$GPRMC,180859.0,A,3443.4950,N,08633.1236,W,,,210119,,*16
$GPGGA,180929.0,3443.4947,N,08633.1236,W,1,,,216.7,M,,M,,*71
$GPRMC,180929.0,A,3443.4947,N,08633.1236,W,,,210119,,*16
$GPGGA,180959.2,3443.4947,N,08633.1235,W,1,,,216.1,M,,M,,*71
$GPRMC,180959.2,A,3443.4947,N,08633.1235,W,,,210119,,*10
$GPGGA,181029.2,3443.4941,N,08633.1238,W,1,,,219.0,M,,M,,*7B
$GPRMC,181029.2,A,3443.4941,N,08633.1238,W,,,210119,,*14
$GPGGA,181059.2,3443.4934,N,08633.1242,W,1,,,220.5,M,,M,,*7C
$GPRMC,181059.2,A,3443.4934,N,08633.1242,W,,,210119,,*1C
$GPGGA,181129.2,3443.4985,N,08633.1220,W,1,,,243.5,M,,M,,*71
$GPRMC,181129.2,A,3443.4985,N,08633.1220,W,,,210119,,*14
$GPGGA,181159.2,3443.4983,N,08633.1221,W,1,,,239.6,M,,M,,*7F
$GPRMC,181159.2,A,3443.4983,N,08633.1221,W,,,210119,,*14
$GPGGA,181229.2,3443.4981,N,08633.1222,W,1,,,229.1,M,,M,,*7C
$GPRMC,181229.2,A,3443.4981,N,08633.1222,W,,,210119,,*11
$GPGGA,181259.2,3443.4976,N,08633.1224,W,1,,,221.8,M,,M,,*74
$GPRMC,181259.2,A,3443.4976,N,08633.1224,W,,,210119,,*18
$GPGGA,181329.2,3443.4967,N,08633.1226,W,1,,,219.9,M,,M,,*7A
$GPRMC,181329.2,A,3443.4967,N,08633.1226,W,,,210119,,*1C
$GPGGA,181359.2,3443.4958,N,08633.1202,W,1,,,217.6,M,,M,,*76
$GPRMC,181359.2,A,3443.4958,N,08633.1202,W,,,210119,,*11
$GPGGA,181429.2,3443.4955,N,08633.1202,W,1,,,218.2,M,,M,,*70
$GPRMC,181429.2,A,3443.4955,N,08633.1202,W,,,210119,,*1C
$GPGGA,181459.2,3443.4952,N,08633.1203,W,1,,,219.0,M,,M,,*72
$GPRMC,181459.2,A,3443.4952,N,08633.1203,W,,,210119,,*1D
$GPGGA,181529.2,3443.4958,N,08633.1191,W,1,,,215.4,M,,M,,*7E
$GPRMC,181529.2,A,3443.4958,N,08633.1191,W,,,210119,,*19
$GPGGA,181559.2,3443.4957,N,08633.1191,W,1,,,214.8,M,,M,,*7B
$GPRMC,181559.2,A,3443.4957,N,08633.1191,W,,,210119,,*11
$GPGGA,181629.2,3443.4951,N,08633.1192,W,1,,,215.5,M,,M,,*76
$GPRMC,181629.2,A,3443.4951,N,08633.1192,W,,,210119,,*10
$GPGGA,181659.2,3443.4948,N,08633.1193,W,1,,,215.9,M,,M,,*74
$GPRMC,181659.2,A,3443.4948,N,08633.1193,W,,,210119,,*1E
$GPGGA,181729.2,3443.4926,N,08633.1227,W,1,,,216.9,M,,M,,*75
$GPRMC,181729.2,A,3443.4926,N,08633.1227,W,,,210119,,*1C
$GPGGA,181759.2,3443.4925,N,08633.1228,W,1,,,217.5,M,,M,,*73
$GPRMC,181759.2,A,3443.4925,N,08633.1228,W,,,210119,,*17
$GPGGA,181829.2,3443.4926,N,08633.1235,W,1,,,218.4,M,,M,,*7A
$GPRMC,181829.2,A,3443.4926,N,08633.1235,W,,,210119,,*10
$GPGGA,181859.2,3443.4923,N,08633.1241,W,1,,,217.5,M,,M,,*75
$GPRMC,181859.2,A,3443.4923,N,08633.1241,W,,,210119,,*11
$GPGGA,181929.2,3443.4923,N,08633.1242,W,1,,,218.4,M,,M,,*7E
$GPRMC,181929.2,A,3443.4923,N,08633.1242,W,,,210119,,*14
$GPGGA,181959.2,3443.4923,N,08633.1243,W,1,,,219.6,M,,M,,*7B
$GPRMC,181959.2,A,3443.4923,N,08633.1243,W,,,210119,,*12
$GPGGA,182029.2,3443.4917,N,08633.1244,W,1,,,219.5,M,,M,,*75
$GPRMC,182029.2,A,3443.4917,N,08633.1244,W,,,210119,,*1F
$GPGGA,182059.2,3443.4917,N,08633.1244,W,1,,,219.4,M,,M,,*73
$GPRMC,182059.2,A,3443.4917,N,08633.1244,W,,,210119,,*18
$GPGGA,182129.2,3443.4917,N,08633.1245,W,1,,,220.1,M,,M,,*7B
$GPRMC,182129.2,A,3443.4917,N,08633.1245,W,,,210119,,*1F
$GPGGA,182159.2,3443.4918,N,08633.1245,W,1,,,220.1,M,,M,,*73
$GPRMC,182159.2,A,3443.4918,N,08633.1245,W,,,210119,,*17
$GPGGA,182229.2,3443.4918,N,08633.1245,W,1,,,219.7,M,,M,,*7B
$GPRMC,182229.2,A,3443.4918,N,08633.1245,W,,,210119,,*13
$GPGGA,182259.2,3443.4918,N,08633.1244,W,1,,,220.2,M,,M,,*72
$GPRMC,182259.2,A,3443.4918,N,08633.1244,W,,,210119,,*15
$GPGGA,182329.2,3443.4918,N,08633.1245,W,1,,,221.0,M,,M,,*76
$GPRMC,182329.2,A,3443.4918,N,08633.1245,W,,,210119,,*12
$GPGGA,182359.2,3443.4919,N,08633.1246,W,1,,,221.7,M,,M,,*74
$GPRMC,182359.2,A,3443.4919,N,08633.1246,W,,,210119,,*17
$GPGGA,182429.2,3443.4919,N,08633.1246,W,1,,,222.3,M,,M,,*73
$GPRMC,182429.2,A,3443.4919,N,08633.1246,W,,,210119,,*17
$GPGGA,182459.2,3443.4921,N,08633.1247,W,1,,,222.2,M,,M,,*7F
$GPRMC,182459.2,A,3443.4921,N,08633.1247,W,,,210119,,*1A
$GPGGA,182529.2,3443.4922,N,08633.1248,W,1,,,222.6,M,,M,,*71
$GPRMC,182529.2,A,3443.4922,N,08633.1248,W,,,210119,,*10
$GPGGA,182559.2,3443.4924,N,08633.1241,W,1,,,223.0,M,,M,,*7E
$GPRMC,182559.2,A,3443.4924,N,08633.1241,W,,,210119,,*18
$GPGGA,182629.2,3443.4922,N,08633.1237,W,1,,,223.5,M,,M,,*78
$GPRMC,182629.2,A,3443.4922,N,08633.1237,W,,,210119,,*1B
$GPGGA,182659.2,3443.4918,N,08633.1238,W,1,,,223.5,M,,M,,*79
$GPRMC,182659.2,A,3443.4918,N,08633.1238,W,,,210119,,*1A
$GPGGA,182729.2,3443.4915,N,08633.1240,W,1,,,223.5,M,,M,,*7D
$GPRMC,182729.2,A,3443.4915,N,08633.1240,W,,,210119,,*1E
$GPGGA,182759.2,3443.4918,N,08633.1237,W,1,,,221.9,M,,M,,*79
$GPRMC,182759.2,A,3443.4918,N,08633.1237,W,,,210119,,*14
$GPGGA,182829.2,3443.4916,N,08633.1233,W,1,,,223.6,M,,M,,*76
$GPRMC,182829.2,A,3443.4916,N,08633.1233,W,,,210119,,*16
$GPGGA,182859.2,3443.4917,N,08633.1234,W,1,,,224.0,M,,M,,*76
$GPRMC,182859.2,A,3443.4917,N,08633.1234,W,,,210119,,*17
$GPGGA,182929.2,3443.4918,N,08633.1234,W,1,,,224.1,M,,M,,*7E
$GPRMC,182929.2,A,3443.4918,N,08633.1234,W,,,210119,,*1E
$GPGGA,182959.0,3443.4918,N,08633.1234,W,1,,,224.1,M,,M,,*7B
$GPRMC,182959.0,A,3443.4918,N,08633.1234,W,,,210119,,*1B
$GPGGA,183029.2,3443.4918,N,08633.1234,W,1,,,223.9,M,,M,,*79
$GPRMC,183029.2,A,3443.4918,N,08633.1234,W,,,210119,,*16
$GPGGA,183059.2,3443.4918,N,08633.1235,W,1,,,223.9,M,,M,,*7F
$GPRMC,183059.2,A,3443.4918,N,08633.1235,W,,,210119,,*10
$GPGGA,183129.2,3443.4918,N,08633.1236,W,1,,,225.4,M,,M,,*71
$GPRMC,183129.2,A,3443.4918,N,08633.1236,W,,,210119,,*15
$GPGGA,183159.4,3443.4918,N,08633.1236,W,1,,,225.6,M,,M,,*72
$GPRMC,183159.4,A,3443.4918,N,08633.1236,W,,,210119,,*14
$GPGGA,183229.2,3443.4918,N,08633.1236,W,1,,,225.7,M,,M,,*71
$GPRMC,183229.2,A,3443.4918,N,08633.1236,W,,,210119,,*16
$GPGGA,183259.0,3443.4918,N,08633.1236,W,1,,,225.7,M,,M,,*74
$GPRMC,183259.0,A,3443.4918,N,08633.1236,W,,,210119,,*13
$GPGGA,183329.2,3443.4918,N,08633.1236,W,1,,,225.3,M,,M,,*74
$GPRMC,183329.2,A,3443.4918,N,08633.1236,W,,,210119,,*17
$GPGGA,183359.2,3443.4918,N,08633.1237,W,1,,,225.2,M,,M,,*73
$GPRMC,183359.2,A,3443.4918,N,08633.1237,W,,,210119,,*11
$GPGGA,183429.0,3443.4918,N,08633.1237,W,1,,,225.0,M,,M,,*73
$GPRMC,183429.0,A,3443.4918,N,08633.1237,W,,,210119,,*13
$GPGGA,183459.0,3443.4918,N,08633.1237,W,1,,,225.0,M,,M,,*74
$GPRMC,183459.0,A,3443.4918,N,08633.1237,W,,,210119,,*14
$GPGGA,183529.0,3443.4919,N,08633.1238,W,1,,,225.0,M,,M,,*7C
$GPRMC,183529.0,A,3443.4919,N,08633.1238,W,,,210119,,*1C
$GPGGA,183559.0,3443.4945,N,08633.1238,W,1,,,228.7,M,,M,,*78
$GPRMC,183559.0,A,3443.4945,N,08633.1238,W,,,210119,,*12
$GPGGA,183629.0,3443.4932,N,08633.1253,W,1,,,224.9,M,,M,,*73
$GPRMC,183629.0,A,3443.4932,N,08633.1253,W,,,210119,,*1B
$GPGGA,183659.0,3443.4931,N,08633.1253,W,1,,,222.3,M,,M,,*7B
$GPRMC,183659.0,A,3443.4931,N,08633.1253,W,,,210119,,*1F
$GPGGA,183729.0,3443.4934,N,08633.1249,W,1,,,223.5,M,,M,,*74
$GPRMC,183729.0,A,3443.4934,N,08633.1249,W,,,210119,,*17
$GPGGA,183759.0,3443.4934,N,08633.1249,W,1,,,223.9,M,,M,,*7F
$GPRMC,183759.0,A,3443.4934,N,08633.1249,W,,,210119,,*10
$GPGGA,183829.2,3443.4934,N,08633.1249,W,1,,,225.1,M,,M,,*7B
$GPRMC,183829.2,A,3443.4934,N,08633.1249,W,,,210119,,*1A
$GPGGA,183859.2,3443.4933,N,08633.1250,W,1,,,224.3,M,,M,,*70
$GPRMC,183859.2,A,3443.4933,N,08633.1250,W,,,210119,,*12
$GPGGA,183929.0,3443.4932,N,08633.1251,W,1,,,223.0,M,,M,,*70
$GPRMC,183929.0,A,3443.4932,N,08633.1251,W,,,210119,,*16
$GPGGA,183959.0,3443.4931,N,08633.1250,W,1,,,221.3,M,,M,,*74
$GPRMC,183959.0,A,3443.4931,N,08633.1250,W,,,210119,,*13
$GPGGA,184029.0,3443.4931,N,08633.1250,W,1,,,220.4,M,,M,,*7B
$GPRMC,184029.0,A,3443.4931,N,08633.1250,W,,,210119,,*1A
$GPGGA,184059.0,3443.4930,N,08633.1250,W,1,,,220.5,M,,M,,*7C
$GPRMC,184059.0,A,3443.4930,N,08633.1250,W,,,210119,,*1C
$GPGGA,184129.0,3443.4931,N,08633.1250,W,1,,,220.6,M,,M,,*78
$GPRMC,184129.0,A,3443.4931,N,08633.1250,W,,,210119,,*1B
$GPGGA,184159.0,3443.4932,N,08633.1250,W,1,,,218.9,M,,M,,*78
$GPRMC,184159.0,A,3443.4932,N,08633.1250,W,,,210119,,*1F
$GPGGA,184229.0,3443.4938,N,08633.1241,W,1,,,214.6,M,,M,,*75
$GPRMC,184229.0,A,3443.4938,N,08633.1241,W,,,210119,,*11
$GPGGA,184259.0,3443.4939,N,08633.1241,W,1,,,214.7,M,,M,,*72
$GPRMC,184259.0,A,3443.4939,N,08633.1241,W,,,210119,,*17
$GPGGA,184329.2,3443.4938,N,08633.1240,W,1,,,213.9,M,,M,,*7F
$GPRMC,184329.2,A,3443.4938,N,08633.1240,W,,,210119,,*13
$GPGGA,184359.2,3443.4938,N,08633.1240,W,1,,,213.2,M,,M,,*73
$GPRMC,184359.2,A,3443.4938,N,08633.1240,W,,,210119,,*14
$GPGGA,184429.0,3443.4938,N,08633.1240,W,1,,,213.1,M,,M,,*72
$GPRMC,184429.0,A,3443.4938,N,08633.1240,W,,,210119,,*16
$GPGGA,184459.2,3443.4932,N,08633.1240,W,1,,,216.4,M,,M,,*7D
$GPRMC,184459.2,A,3443.4932,N,08633.1240,W,,,210119,,*19
$GPGGA,184529.0,3443.4933,N,08633.1240,W,1,,,216.2,M,,M,,*7E
$GPRMC,184529.0,A,3443.4933,N,08633.1240,W,,,210119,,*1C
$GPGGA,184559.0,3443.4933,N,08633.1240,W,1,,,216.2,M,,M,,*79
$GPRMC,184559.0,A,3443.4933,N,08633.1240,W,,,210119,,*1B
$GPGGA,184629.0,3443.4933,N,08633.1240,W,1,,,216.3,M,,M,,*7C
$GPRMC,184629.0,A,3443.4933,N,08633.1240,W,,,210119,,*1F
$GPGGA,184659.2,3443.4933,N,08633.1240,W,1,,,216.9,M,,M,,*73
$GPRMC,184659.2,A,3443.4933,N,08633.1240,W,,,210119,,*1A
$GPGGA,184729.0,3443.4933,N,08633.1241,W,1,,,217.0,M,,M,,*7E
$GPRMC,184729.0,A,3443.4933,N,08633.1241,W,,,210119,,*1F
$GPGGA,184759.0,3443.4932,N,08633.1242,W,1,,,217.2,M,,M,,*79
$GPRMC,184759.0,A,3443.4932,N,08633.1242,W,,,210119,,*1A
$GPGGA,184829.0,3443.4932,N,08633.1244,W,1,,,217.6,M,,M,,*73
$GPRMC,184829.0,A,3443.4932,N,08633.1244,W,,,210119,,*14
$GPGGA,184859.0,3443.4931,N,08633.1246,W,1,,,218.2,M,,M,,*7E
$GPRMC,184859.0,A,3443.4931,N,08633.1246,W,,,210119,,*12
$GPGGA,184929.2,3443.4930,N,08633.1247,W,1,,,218.6,M,,M,,*7E
$GPRMC,184929.2,A,3443.4930,N,08633.1247,W,,,210119,,*16
$GPGGA,184959.2,3443.4929,N,08633.1248,W,1,,,219.5,M,,M,,*7C
$GPRMC,184959.2,A,3443.4929,N,08633.1248,W,,,210119,,*16
$GPGGA,185029.0,3443.4927,N,08633.1249,W,1,,,220.8,M,,M,,*79
$GPRMC,185029.0,A,3443.4927,N,08633.1249,W,,,210119,,*14
$GPGGA,185059.0,3443.4928,N,08633.1251,W,1,,,222.0,M,,M,,*72
$GPRMC,185059.0,A,3443.4928,N,08633.1251,W,,,210119,,*15
$GPGGA,185129.0,3443.4926,N,08633.1251,W,1,,,222.1,M,,M,,*7B
$GPRMC,185129.0,A,3443.4926,N,08633.1251,W,,,210119,,*1D
$GPGGA,185159.0,3443.4925,N,08633.1251,W,1,,,222.0,M,,M,,*7E
$GPRMC,185159.0,A,3443.4925,N,08633.1251,W,,,210119,,*19
$GPGGA,185229.0,3443.4924,N,08633.1251,W,1,,,222.3,M,,M,,*78
$GPRMC,185229.0,A,3443.4924,N,08633.1251,W,,,210119,,*1C
$GPGGA,185259.0,3443.4922,N,08633.1256,W,1,,,222.0,M,,M,,*7D
$GPRMC,185259.0,A,3443.4922,N,08633.1256,W,,,210119,,*1A
$GPGGA,185329.0,3443.4922,N,08633.1255,W,1,,,222.0,M,,M,,*78
$GPRMC,185329.0,A,3443.4922,N,08633.1255,W,,,210119,,*1F
$GPGGA,185359.0,3443.4916,N,08633.1254,W,1,,,219.5,M,,M,,*74
$GPRMC,185359.0,A,3443.4916,N,08633.1254,W,,,210119,,*1E
$GPGGA,185429.0,3443.4917,N,08633.1254,W,1,,,219.3,M,,M,,*73
$GPRMC,185429.0,A,3443.4917,N,08633.1254,W,,,210119,,*1F
$GPGGA,185459.0,3443.4917,N,08633.1248,W,1,,,217.0,M,,M,,*74
$GPRMC,185459.0,A,3443.4917,N,08633.1248,W,,,210119,,*15
$GPGGA,185529.3,3443.4917,N,08633.1248,W,1,,,216.9,M,,M,,*79
$GPRMC,185529.3,A,3443.4917,N,08633.1248,W,,,210119,,*10
$GPGGA,185559.0,3443.4917,N,08633.1247,W,1,,,217.0,M,,M,,*7A
$GPRMC,185559.0,A,3443.4917,N,08633.1247,W,,,210119,,*1B
$GPGGA,185629.0,3443.4906,N,08633.1253,W,1,,,220.4,M,,M,,*7B
$GPRMC,185629.0,A,3443.4906,N,08633.1253,W,,,210119,,*1A
$GPGGA,185659.0,3443.4907,N,08633.1253,W,1,,,221.2,M,,M,,*7A
$GPRMC,185659.0,A,3443.4907,N,08633.1253,W,,,210119,,*1C
$GPGGA,185729.0,3443.4909,N,08633.1253,W,1,,,221.7,M,,M,,*77
$GPRMC,185729.0,A,3443.4909,N,08633.1253,W,,,210119,,*14
$GPGGA,185759.0,3443.4910,N,08633.1253,W,1,,,222.2,M,,M,,*7E
$GPRMC,185759.0,A,3443.4910,N,08633.1253,W,,,210119,,*1B
$GPGGA,185829.0,3443.4910,N,08633.1252,W,1,,,222.4,M,,M,,*71
$GPRMC,185829.0,A,3443.4910,N,08633.1252,W,,,210119,,*12
$GPGGA,185859.0,3443.4911,N,08633.1251,W,1,,,222.2,M,,M,,*72
$GPRMC,185859.0,A,3443.4911,N,08633.1251,W,,,210119,,*17
$GPGGA,185929.0,3443.4912,N,08633.1250,W,1,,,221.9,M,,M,,*7E
$GPRMC,185929.0,A,3443.4912,N,08633.1250,W,,,210119,,*13
$GPGGA,185959.0,3443.4913,N,08633.1249,W,1,,,221.4,M,,M,,*7D
$GPRMC,185959.0,A,3443.4913,N,08633.1249,W,,,210119,,*1D
$GPGGA,190029.1,3443.4913,N,08633.1249,W,1,,,221.0,M,,M,,*72
$GPRMC,190029.1,A,3443.4913,N,08633.1249,W,,,210119,,*16
$GPGGA,190059.0,3443.4913,N,08633.1249,W,1,,,221.0,M,,M,,*74
$GPRMC,190059.0,A,3443.4913,N,08633.1249,W,,,210119,,*10
$GPGGA,190129.0,3443.4913,N,08633.1249,W,1,,,221.1,M,,M,,*73
$GPRMC,190129.0,A,3443.4913,N,08633.1249,W,,,210119,,*16
$GPGGA,190159.0,3443.4913,N,08633.1249,W,1,,,221.1,M,,M,,*74
$GPRMC,190159.0,A,3443.4913,N,08633.1249,W,,,210119,,*11
$GPGGA,190229.0,3443.4913,N,08633.1249,W,1,,,221.2,M,,M,,*73
$GPRMC,190229.0,A,3443.4913,N,08633.1249,W,,,210119,,*15
$GPGGA,190259.0,3443.4913,N,08633.1249,W,1,,,221.4,M,,M,,*72
$GPRMC,190259.0,A,3443.4913,N,08633.1249,W,,,210119,,*12
$GPGGA,190329.0,3443.4914,N,08633.1249,W,1,,,221.4,M,,M,,*73
$GPRMC,190329.0,A,3443.4914,N,08633.1249,W,,,210119,,*13
$GPGGA,190359.0,3443.4914,N,08633.1249,W,1,,,221.6,M,,M,,*76
$GPRMC,190359.0,A,3443.4914,N,08633.1249,W,,,210119,,*14
$GPGGA,190429.0,3443.4914,N,08633.1249,W,1,,,221.7,M,,M,,*77
$GPRMC,190429.0,A,3443.4914,N,08633.1249,W,,,210119,,*14
$GPGGA,190459.0,3443.4914,N,08633.1249,W,1,,,221.7,M,,M,,*70
$GPRMC,190459.0,A,3443.4914,N,08633.1249,W,,,210119,,*13
$GPGGA,190529.0,3443.4914,N,08633.1248,W,1,,,221.7,M,,M,,*77
$GPRMC,190529.0,A,3443.4914,N,08633.1248,W,,,210119,,*14
$GPGGA,190559.0,3443.4923,N,08633.1247,W,1,,,221.9,M,,M,,*75
$GPRMC,190559.0,A,3443.4923,N,08633.1247,W,,,210119,,*18
$GPGGA,190629.0,3443.4923,N,08633.1246,W,1,,,222.0,M,,M,,*7A
$GPRMC,190629.0,A,3443.4923,N,08633.1246,W,,,210119,,*1D
$GPGGA,190659.2,3443.4923,N,08633.1246,W,1,,,222.0,M,,M,,*7F
$GPRMC,190659.2,A,3443.4923,N,08633.1246,W,,,210119,,*18
$GPGGA,190729.0,3443.4923,N,08633.1246,W,1,,,222.2,M,,M,,*79
$GPRMC,190729.0,A,3443.4923,N,08633.1246,W,,,210119,,*1C
$GPGGA,190759.0,3443.4923,N,08633.1246,W,1,,,222.3,M,,M,,*7F
$GPRMC,190759.0,A,3443.4923,N,08633.1246,W,,,210119,,*1B
$GPGGA,190829.0,3443.4922,N,08633.1246,W,1,,,222.5,M,,M,,*70
$GPRMC,190829.0,A,3443.4922,N,08633.1246,W,,,210119,,*12
$GPGGA,190859.0,3443.4922,N,08633.1246,W,1,,,222.9,M,,M,,*7B
$GPRMC,190859.0,A,3443.4922,N,08633.1246,W,,,210119,,*15
$GPGGA,190929.0,3443.4912,N,08633.1245,W,1,,,223.8,M,,M,,*7D
$GPRMC,190929.0,A,3443.4912,N,08633.1245,W,,,210119,,*13
$GPGGA,190959.0,3443.4912,N,08633.1246,W,1,,,223.9,M,,M,,*78
$GPRMC,190959.0,A,3443.4912,N,08633.1246,W,,,210119,,*17
$GPGGA,191029.0,3443.4913,N,08633.1248,W,1,,,223.2,M,,M,,*73
$GPRMC,191029.0,A,3443.4913,N,08633.1248,W,,,210119,,*17
$GPGGA,191059.0,3443.4912,N,08633.1248,W,1,,,223.4,M,,M,,*73
$GPRMC,191059.0,A,3443.4912,N,08633.1248,W,,,210119,,*11
$GPGGA,191129.0,3443.4901,N,08633.1254,W,1,,,222.6,M,,M,,*79
$GPRMC,191129.0,A,3443.4901,N,08633.1254,W,,,210119,,*18
$GPGGA,191159.0,3443.4901,N,08633.1254,W,1,,,222.8,M,,M,,*70
$GPRMC,191159.0,A,3443.4901,N,08633.1254,W,,,210119,,*1F
$GPGGA,191229.0,3443.4899,N,08633.1262,W,1,,,222.8,M,,M,,*71
$GPRMC,191229.0,A,3443.4899,N,08633.1262,W,,,210119,,*1E
$GPGGA,191259.0,3443.4899,N,08633.1262,W,1,,,222.3,M,,M,,*7D
$GPRMC,191259.0,A,3443.4899,N,08633.1262,W,,,210119,,*19
$GPGGA,191329.0,3443.4896,N,08633.1263,W,1,,,221.5,M,,M,,*70
$GPRMC,191329.0,A,3443.4896,N,08633.1263,W,,,210119,,*11
$GPGGA,191359.0,3443.4896,N,08633.1263,W,1,,,221.2,M,,M,,*70
$GPRMC,191359.0,A,3443.4896,N,08633.1263,W,,,210119,,*16
$GPGGA,191429.0,3443.4877,N,08633.1268,W,1,,,215.2,M,,M,,*73
$GPRMC,191429.0,A,3443.4877,N,08633.1268,W,,,210119,,*12
$GPGGA,191459.0,3443.4877,N,08633.1267,W,1,,,218.0,M,,M,,*74
$GPRMC,191459.0,A,3443.4877,N,08633.1267,W,,,210119,,*1A
$GPGGA,191529.0,3443.4877,N,08633.1266,W,1,,,218.4,M,,M,,*77
$GPRMC,191529.0,A,3443.4877,N,08633.1266,W,,,210119,,*1D
$GPGGA,191559.0,3443.4876,N,08633.1266,W,1,,,217.5,M,,M,,*7F
$GPRMC,191559.0,A,3443.4876,N,08633.1266,W,,,210119,,*1B
