@Olympus/+0900/+0900
$GPGGA,020216.6,3443.5012,N,08633.1328,W,1,,,218.0,M,,M,,*74
$GPRMC,020216.6,A,3443.5012,N,08633.1328,W,,,210119,,*1A
$GPGGA,020224.7,3443.4936,N,08633.1254,W,1,,,227.2,M,,M,,*7E
$GPRMC,020224.7,A,3443.4936,N,08633.1254,W,,,210119,,*1E
$GPGGA,020250.0,3443.4917,N,08633.1252,W,1,,,224.6,M,,M,,*78
$GPRMC,020250.0,A,3443.4917,N,08633.1252,W,,,210119,,*1F
$GPGGA,020320.0,3443.4897,N,08633.1254,W,1,,,228.8,M,,M,,*73
$GPRMC,020320.0,A,3443.4897,N,08633.1254,W,,,210119,,*16
$GPGGA,020350.0,3443.4892,N,08633.1254,W,1,,,227.9,M,,M,,*7F
$GPRMC,020350.0,A,3443.4892,N,08633.1254,W,,,210119,,*14
$GPGGA,020420.0,3443.4893,N,08633.1255,W,1,,,225.8,M,,M,,*7C
$GPRMC,020420.0,A,3443.4893,N,08633.1255,W,,,210119,,*14
$GPGGA,020450.0,3443.4896,N,08633.1255,W,1,,,227.3,M,,M,,*77
$GPRMC,020450.0,A,3443.4896,N,08633.1255,W,,,210119,,*16
$GPGGA,020520.0,3443.4923,N,08633.1260,W,1,,,225.3,M,,M,,*7A
$GPRMC,020520.0,A,3443.4923,N,08633.1260,W,,,210119,,*19
$GPGGA,020550.0,3443.4914,N,08633.1266,W,1,,,226.3,M,,M,,*7C
$GPRMC,020550.0,A,3443.4914,N,08633.1266,W,,,210119,,*1C
$GPGGA,020620.1,3443.4915,N,08633.1265,W,1,,,222.3,M,,M,,*7F
$GPRMC,020620.1,A,3443.4915,N,08633.1265,W,,,210119,,*1B
$GPGGA,020650.0,3443.4914,N,08633.1262,W,1,,,221.2,M,,M,,*7D
$GPRMC,020650.0,A,3443.4914,N,08633.1262,W,,,210119,,*1B
$GPGGA,020720.0,3443.4914,N,08633.1261,W,1,,,220.8,M,,M,,*73
$GPRMC,020720.0,A,3443.4914,N,08633.1261,W,,,210119,,*1E
$GPGGA,020750.0,3443.4913,N,08633.1260,W,1,,,221.2,M,,M,,*79
$GPRMC,020750.0,A,3443.4913,N,08633.1260,W,,,210119,,*1F
$GPGGA,020820.0,3443.4913,N,08633.1258,W,1,,,222.0,M,,M,,*7B
$GPRMC,020820.0,A,3443.4913,N,08633.1258,W,,,210119,,*1C
$GPGGA,020850.0,3443.4912,N,08633.1256,W,1,,,222.4,M,,M,,*77
$GPRMC,020850.0,A,3443.4912,N,08633.1256,W,,,210119,,*14
$GPGGA,020920.0,3443.4912,N,08633.1255,W,1,,,221.9,M,,M,,*7C
$GPRMC,020920.0,A,3443.4912,N,08633.1255,W,,,210119,,*11
$GPGGA,020950.0,3443.4910,N,08633.1255,W,1,,,220.5,M,,M,,*74
$GPRMC,020950.0,A,3443.4910,N,08633.1255,W,,,210119,,*14
$GPGGA,021020.0,3443.4911,N,08633.1253,W,1,,,219.7,M,,M,,*74
$GPRMC,021020.0,A,3443.4911,N,08633.1253,W,,,210119,,*1C
$GPGGA,021050.0,3443.4911,N,08633.1251,W,1,,,218.7,M,,M,,*70
$GPRMC,021050.0,A,3443.4911,N,08633.1251,W,,,210119,,*19
$GPGGA,021120.0,3443.4909,N,08633.1249,W,1,,,218.2,M,,M,,*73
$GPRMC,021120.0,A,3443.4909,N,08633.1249,W,,,210119,,*1F
$GPGGA,021150.0,3443.4908,N,08633.1249,W,1,,,218.4,M,,M,,*73
$GPRMC,021150.0,A,3443.4908,N,08633.1249,W,,,210119,,*19
$GPGGA,021220.0,3443.4907,N,08633.1249,W,1,,,218.2,M,,M,,*7E
$GPRMC,021220.0,A,3443.4907,N,08633.1249,W,,,210119,,*12
$GPGGA,021250.0,3443.4908,N,08633.1254,W,1,,,218.8,M,,M,,*70
$GPRMC,021250.0,A,3443.4908,N,08633.1254,W,,,210119,,*16
$GPGGA,021320.0,3443.4907,N,08633.1254,W,1,,,218.7,M,,M,,*76
$GPRMC,021320.0,A,3443.4907,N,08633.1254,W,,,210119,,*1F
$GPGGA,021350.0,3443.4907,N,08633.1254,W,1,,,218.7,M,,M,,*71
$GPRMC,021350.0,A,3443.4907,N,08633.1254,W,,,210119,,*18
$GPGGA,021420.0,3443.4908,N,08633.1253,W,1,,,218.5,M,,M,,*7B
$GPRMC,021420.0,A,3443.4908,N,08633.1253,W,,,210119,,*10
$GPGGA,021450.0,3443.4910,N,08633.1247,W,1,,,216.8,M,,M,,*73
$GPRMC,021450.0,A,3443.4910,N,08633.1247,W,,,210119,,*1B
$GPGGA,021520.0,3443.4911,N,08633.1247,W,1,,,216.7,M,,M,,*7B
$GPRMC,021520.0,A,3443.4911,N,08633.1247,W,,,210119,,*1C
$GPGGA,021550.0,3443.4911,N,08633.1247,W,1,,,216.6,M,,M,,*7D
$GPRMC,021550.0,A,3443.4911,N,08633.1247,W,,,210119,,*1B
$GPGGA,021620.0,3443.4912,N,08633.1247,W,1,,,216.4,M,,M,,*78
$GPRMC,021620.0,A,3443.4912,N,08633.1247,W,,,210119,,*1C
$GPGGA,021650.0,3443.4912,N,08633.1246,W,1,,,216.1,M,,M,,*7B
$GPRMC,021650.0,A,3443.4912,N,08633.1246,W,,,210119,,*1A
$GPGGA,021720.0,3443.4912,N,08633.1245,W,1,,,216.2,M,,M,,*7D
$GPRMC,021720.0,A,3443.4912,N,08633.1245,W,,,210119,,*1F
$GPGGA,021750.0,3443.4912,N,08633.1245,W,1,,,216.0,M,,M,,*78
$GPRMC,021750.0,A,3443.4912,N,08633.1245,W,,,210119,,*18
$GPGGA,021820.0,3443.4912,N,08633.1244,W,1,,,215.9,M,,M,,*7B
$GPRMC,021820.0,A,3443.4912,N,08633.1244,W,,,210119,,*11
$GPGGA,021850.1,3443.4911,N,08633.1243,W,1,,,215.8,M,,M,,*78
$GPRMC,021850.1,A,3443.4911,N,08633.1243,W,,,210119,,*13
$GPGGA,021920.0,3443.4910,N,08633.1243,W,1,,,215.8,M,,M,,*7E
$GPRMC,021920.0,A,3443.4910,N,08633.1243,W,,,210119,,*15
$GPGGA,021950.0,3443.4909,N,08633.1242,W,1,,,215.6,M,,M,,*7E
$GPRMC,021950.0,A,3443.4909,N,08633.1242,W,,,210119,,*1B
$GPGGA,022020.0,3443.4908,N,08633.1242,W,1,,,215.3,M,,M,,*77
$GPRMC,022020.0,A,3443.4908,N,08633.1242,W,,,210119,,*17
$GPGGA,022050.0,3443.4907,N,08633.1242,W,1,,,215.0,M,,M,,*7C
$GPRMC,022050.0,A,3443.4907,N,08633.1242,W,,,210119,,*1F
$GPGGA,022120.0,3443.4906,N,08633.1242,W,1,,,214.9,M,,M,,*73
$GPRMC,022120.0,A,3443.4906,N,08633.1242,W,,,210119,,*18
$GPGGA,022150.0,3443.4905,N,08633.1243,W,1,,,215.1,M,,M,,*7F
$GPRMC,022150.0,A,3443.4905,N,08633.1243,W,,,210119,,*1D
$GPGGA,022220.0,3443.4904,N,08633.1243,W,1,,,215.7,M,,M,,*7C
$GPRMC,022220.0,A,3443.4904,N,08633.1243,W,,,210119,,*18
$GPGGA,022250.0,3443.4904,N,08633.1243,W,1,,,216.1,M,,M,,*7E
$GPRMC,022250.0,A,3443.4904,N,08633.1243,W,,,210119,,*1F
$GPGGA,022320.0,3443.4904,N,08633.1243,W,1,,,216.6,M,,M,,*7F
$GPRMC,022320.0,A,3443.4904,N,08633.1243,W,,,210119,,*19
$GPGGA,022350.0,3443.4903,N,08633.1243,W,1,,,216.9,M,,M,,*70
$GPRMC,022350.0,A,3443.4903,N,08633.1243,W,,,210119,,*19
$GPGGA,022420.0,3443.4903,N,08633.1244,W,1,,,217.2,M,,M,,*7D
$GPRMC,022420.0,A,3443.4903,N,08633.1244,W,,,210119,,*1E
$GPGGA,022450.0,3443.4902,N,08633.1244,W,1,,,217.6,M,,M,,*7F
$GPRMC,022450.0,A,3443.4902,N,08633.1244,W,,,210119,,*18
$GPGGA,022520.0,3443.4902,N,08633.1244,W,1,,,217.9,M,,M,,*76
$GPRMC,022520.0,A,3443.4902,N,08633.1244,W,,,210119,,*1E
$GPGGA,022550.0,3443.4903,N,08633.1244,W,1,,,218.0,M,,M,,*76
$GPRMC,022550.0,A,3443.4903,N,08633.1244,W,,,210119,,*18
$GPGGA,022620.0,3443.4903,N,08633.1244,W,1,,,218.5,M,,M,,*77
$GPRMC,022620.0,A,3443.4903,N,08633.1244,W,,,210119,,*1C
$GPGGA,022650.0,3443.4904,N,08633.1244,W,1,,,218.8,M,,M,,*7A
$GPRMC,022650.0,A,3443.4904,N,08633.1244,W,,,210119,,*1C
$GPGGA,022720.0,3443.4904,N,08633.1244,W,1,,,219.1,M,,M,,*74
$GPRMC,022720.0,A,3443.4904,N,08633.1244,W,,,210119,,*1A
$GPGGA,022750.0,3443.4905,N,08633.1244,W,1,,,219.2,M,,M,,*71
$GPRMC,022750.0,A,3443.4905,N,08633.1244,W,,,210119,,*1C
$GPGGA,022820.0,3443.4905,N,08633.1244,W,1,,,219.3,M,,M,,*78
$GPRMC,022820.0,A,3443.4905,N,08633.1244,W,,,210119,,*14
$GPGGA,022850.0,3443.4905,N,08633.1245,W,1,,,219.3,M,,M,,*7E
$GPRMC,022850.0,A,3443.4905,N,08633.1245,W,,,210119,,*12
$GPGGA,022920.1,3443.4905,N,08633.1245,W,1,,,219.4,M,,M,,*7E
$GPRMC,022920.1,A,3443.4905,N,08633.1245,W,,,210119,,*15
$GPGGA,022950.0,3443.4905,N,08633.1245,W,1,,,219.5,M,,M,,*79
$GPRMC,022950.0,A,3443.4905,N,08633.1245,W,,,210119,,*13
$GPGGA,023020.0,3443.4905,N,08633.1245,W,1,,,219.6,M,,M,,*75
$GPRMC,023020.0,A,3443.4905,N,08633.1245,W,,,210119,,*1C
$GPGGA,023050.0,3443.4905,N,08633.1245,W,1,,,219.6,M,,M,,*72
$GPRMC,023050.0,A,3443.4905,N,08633.1245,W,,,210119,,*1B
$GPGGA,023120.0,3443.4905,N,08633.1245,W,1,,,219.6,M,,M,,*74
$GPRMC,023120.0,A,3443.4905,N,08633.1245,W,,,210119,,*1D
$GPGGA,023150.0,3443.4905,N,08633.1245,W,1,,,219.6,M,,M,,*73
$GPRMC,023150.0,A,3443.4905,N,08633.1245,W,,,210119,,*1A
$GPGGA,023220.2,3443.4905,N,08633.1245,W,1,,,219.5,M,,M,,*76
$GPRMC,023220.2,A,3443.4905,N,08633.1245,W,,,210119,,*1C
$GPGGA,023250.0,3443.4905,N,08633.1245,W,1,,,219.5,M,,M,,*73
$GPRMC,023250.0,A,3443.4905,N,08633.1245,W,,,210119,,*19
$GPGGA,023320.0,3443.4905,N,08633.1245,W,1,,,219.5,M,,M,,*75
$GPRMC,023320.0,A,3443.4905,N,08633.1245,W,,,210119,,*1F
$GPGGA,023350.0,3443.4905,N,08633.1245,W,1,,,219.5,M,,M,,*72
$GPRMC,023350.0,A,3443.4905,N,08633.1245,W,,,210119,,*18
$GPGGA,023420.0,3443.4905,N,08633.1245,W,1,,,219.5,M,,M,,*72
$GPRMC,023420.0,A,3443.4905,N,08633.1245,W,,,210119,,*18
$GPGGA,023450.0,3443.4905,N,08633.1246,W,1,,,219.6,M,,M,,*75
$GPRMC,023450.0,A,3443.4905,N,08633.1246,W,,,210119,,*1C
$GPGGA,023520.0,3443.4906,N,08633.1246,W,1,,,219.5,M,,M,,*73
$GPRMC,023520.0,A,3443.4906,N,08633.1246,W,,,210119,,*19
$GPGGA,023550.0,3443.4906,N,08633.1246,W,1,,,219.4,M,,M,,*75
$GPRMC,023550.0,A,3443.4906,N,08633.1246,W,,,210119,,*1E
$GPGGA,023620.0,3443.4906,N,08633.1246,W,1,,,219.2,M,,M,,*77
$GPRMC,023620.0,A,3443.4906,N,08633.1246,W,,,210119,,*1A
$GPGGA,023650.0,3443.4906,N,08633.1246,W,1,,,219.1,M,,M,,*73
$GPRMC,023650.0,A,3443.4906,N,08633.1246,W,,,210119,,*1D
$GPGGA,023720.0,3443.4906,N,08633.1246,W,1,,,219.0,M,,M,,*74
$GPRMC,023720.0,A,3443.4906,N,08633.1246,W,,,210119,,*1B
$GPGGA,023750.0,3443.4907,N,08633.1246,W,1,,,219.0,M,,M,,*72
$GPRMC,023750.0,A,3443.4907,N,08633.1246,W,,,210119,,*1D
$GPGGA,023820.0,3443.4907,N,08633.1246,W,1,,,219.0,M,,M,,*7A
$GPRMC,023820.0,A,3443.4907,N,08633.1246,W,,,210119,,*15
$GPGGA,023850.0,3443.4907,N,08633.1246,W,1,,,219.0,M,,M,,*7D
$GPRMC,023850.0,A,3443.4907,N,08633.1246,W,,,210119,,*12
$GPGGA,023920.0,3443.4907,N,08633.1246,W,1,,,219.0,M,,M,,*7B
$GPRMC,023920.0,A,3443.4907,N,08633.1246,W,,,210119,,*14
$GPGGA,023950.0,3443.4907,N,08633.1246,W,1,,,219.0,M,,M,,*7C
$GPRMC,023950.0,A,3443.4907,N,08633.1246,W,,,210119,,*13
$GPGGA,024020.0,3443.4907,N,08633.1246,W,1,,,219.0,M,,M,,*75
$GPRMC,024020.0,A,3443.4907,N,08633.1246,W,,,210119,,*1A
$GPGGA,024050.0,3443.4907,N,08633.1246,W,1,,,219.2,M,,M,,*70
$GPRMC,024050.0,A,3443.4907,N,08633.1246,W,,,210119,,*1D
$GPGGA,024120.0,3443.4907,N,08633.1246,W,1,,,219.3,M,,M,,*77
$GPRMC,024120.0,A,3443.4907,N,08633.1246,W,,,210119,,*1B
$GPGGA,024150.0,3443.4907,N,08633.1246,W,1,,,219.3,M,,M,,*70
$GPRMC,024150.0,A,3443.4907,N,08633.1246,W,,,210119,,*1C
$GPGGA,024220.0,3443.4907,N,08633.1246,W,1,,,219.3,M,,M,,*74
$GPRMC,024220.0,A,3443.4907,N,08633.1246,W,,,210119,,*18
$GPGGA,024250.0,3443.4907,N,08633.1246,W,1,,,219.3,M,,M,,*73
$GPRMC,024250.0,A,3443.4907,N,08633.1246,W,,,210119,,*1F
$GPGGA,024320.0,3443.4897,N,08633.1271,W,1,,,221.3,M,,M,,*72
$GPRMC,024320.0,A,3443.4897,N,08633.1271,W,,,210119,,*15
$GPGGA,024350.2,3443.4902,N,08633.1262,W,1,,,2.8,M,,M,,*70
$GPRMC,024350.2,A,3443.4902,N,08633.1262,W,,,210119,,*1F
$GPGGA,024420.1,3443.4903,N,08633.1264,W,1,,,246.0,M,,M,,*7E
$GPRMC,024420.1,A,3443.4903,N,08633.1264,W,,,210119,,*1B
$GPGGA,024450.0,3443.4903,N,08633.1263,W,1,,,239.8,M,,M,,*7F
$GPRMC,024450.0,A,3443.4903,N,08633.1263,W,,,210119,,*1A
$GPGGA,024520.2,3443.4902,N,08633.1264,W,1,,,236.7,M,,M,,*7D
$GPRMC,024520.2,A,3443.4902,N,08633.1264,W,,,210119,,*18
$GPGGA,024550.0,3443.4899,N,08633.1263,W,1,,,229.7,M,,M,,*72
$GPRMC,024550.0,A,3443.4899,N,08633.1263,W,,,210119,,*19
$GPGGA,024620.0,3443.4897,N,08633.1265,W,1,,,220.1,M,,M,,*71
$GPRMC,024620.0,A,3443.4897,N,08633.1265,W,,,210119,,*15
$GPGGA,024650.0,3443.4897,N,08633.1265,W,1,,,222.4,M,,M,,*71
$GPRMC,024650.0,A,3443.4897,N,08633.1265,W,,,210119,,*12
$GPGGA,024720.0,3443.4905,N,08633.1259,W,1,,,218.0,M,,M,,*7F
$GPRMC,024720.0,A,3443.4905,N,08633.1259,W,,,210119,,*11
$GPGGA,024750.0,3443.4906,N,08633.1259,W,1,,,215.9,M,,M,,*7F
$GPRMC,024750.0,A,3443.4906,N,08633.1259,W,,,210119,,*15
$GPGGA,024820.0,3443.4908,N,08633.1259,W,1,,,215.6,M,,M,,*76
$GPRMC,024820.0,A,3443.4908,N,08633.1259,W,,,210119,,*13
$GPGGA,024850.0,3443.4909,N,08633.1259,W,1,,,220.1,M,,M,,*71
$GPRMC,024850.0,A,3443.4909,N,08633.1259,W,,,210119,,*15
$GPGGA,024920.0,3443.4908,N,08633.1259,W,1,,,222.6,M,,M,,*73
$GPRMC,024920.0,A,3443.4908,N,08633.1259,W,,,210119,,*12
$GPGGA,024950.0,3443.4909,N,08633.1259,W,1,,,224.6,M,,M,,*73
$GPRMC,024950.0,A,3443.4909,N,08633.1259,W,,,210119,,*14
$GPGGA,025020.0,3443.4909,N,08633.1259,W,1,,,224.7,M,,M,,*7D
$GPRMC,025020.0,A,3443.4909,N,08633.1259,W,,,210119,,*1B
$GPGGA,025050.0,3443.4909,N,08633.1260,W,1,,,223.8,M,,M,,*78
$GPRMC,025050.0,A,3443.4909,N,08633.1260,W,,,210119,,*16
$GPGGA,025120.0,3443.4906,N,08633.1261,W,1,,,222.7,M,,M,,*7E
$GPRMC,025120.0,A,3443.4906,N,08633.1261,W,,,210119,,*1E
$GPGGA,025150.0,3443.4905,N,08633.1262,W,1,,,222.6,M,,M,,*78
$GPRMC,025150.0,A,3443.4905,N,08633.1262,W,,,210119,,*19
$GPGGA,025220.0,3443.4905,N,08633.1262,W,1,,,222.4,M,,M,,*7E
$GPRMC,025220.0,A,3443.4905,N,08633.1262,W,,,210119,,*1D
$GPGGA,025250.0,3443.4907,N,08633.1262,W,1,,,222.3,M,,M,,*7C
$GPRMC,025250.0,A,3443.4907,N,08633.1262,W,,,210119,,*18
$GPGGA,025320.0,3443.4908,N,08633.1261,W,1,,,221.8,M,,M,,*7E
$GPRMC,025320.0,A,3443.4908,N,08633.1261,W,,,210119,,*12
$GPGGA,025350.1,3443.4908,N,08633.1259,W,1,,,222.5,M,,M,,*7D
$GPRMC,025350.1,A,3443.4908,N,08633.1259,W,,,210119,,*1F
$GPGGA,025420.0,3443.4911,N,08633.1257,W,1,,,223.0,M,,M,,*7E
$GPRMC,025420.0,A,3443.4911,N,08633.1257,W,,,210119,,*18
$GPGGA,025450.0,3443.4912,N,08633.1257,W,1,,,223.1,M,,M,,*7B
$GPRMC,025450.0,A,3443.4912,N,08633.1257,W,,,210119,,*1C
$GPGGA,025520.0,3443.4911,N,08633.1256,W,1,,,222.0,M,,M,,*7F
$GPRMC,025520.0,A,3443.4911,N,08633.1256,W,,,210119,,*18
$GPGGA,025550.0,3443.4910,N,08633.1253,W,1,,,220.3,M,,M,,*7D
$GPRMC,025550.0,A,3443.4910,N,08633.1253,W,,,210119,,*1B
$GPGGA,025620.0,3443.4909,N,08633.1252,W,1,,,219.0,M,,M,,*79
$GPRMC,025620.0,A,3443.4909,N,08633.1252,W,,,210119,,*16
$GPGGA,025650.0,3443.4910,N,08633.1252,W,1,,,218.5,M,,M,,*72
$GPRMC,025650.0,A,3443.4910,N,08633.1252,W,,,210119,,*19
$GPGGA,025720.0,3443.4910,N,08633.1252,W,1,,,218.0,M,,M,,*71
$GPRMC,025720.0,A,3443.4910,N,08633.1252,W,,,210119,,*1F
$GPGGA,025750.0,3443.4912,N,08633.1254,W,1,,,217.7,M,,M,,*7A
$GPRMC,025750.0,A,3443.4912,N,08633.1254,W,,,210119,,*1C
$GPGGA,025820.0,3443.4913,N,08633.1255,W,1,,,218.1,M,,M,,*7B
$GPRMC,025820.0,A,3443.4913,N,08633.1255,W,,,210119,,*14
$GPGGA,025850.0,3443.4914,N,08633.1256,W,1,,,218.7,M,,M,,*7E
$GPRMC,025850.0,A,3443.4914,N,08633.1256,W,,,210119,,*17
$GPGGA,025920.0,3443.4915,N,08633.1256,W,1,,,218.8,M,,M,,*76
$GPRMC,025920.0,A,3443.4915,N,08633.1256,W,,,210119,,*10
$GPGGA,025950.0,3443.4915,N,08633.1255,W,1,,,219.0,M,,M,,*7B
$GPRMC,025950.0,A,3443.4915,N,08633.1255,W,,,210119,,*14
$GPGGA,030020.0,3443.4915,N,08633.1255,W,1,,,219.5,M,,M,,*74
$GPRMC,030020.0,A,3443.4915,N,08633.1255,W,,,210119,,*1E
$GPGGA,030050.0,3443.4916,N,08633.1256,W,1,,,220.2,M,,M,,*7E
$GPRMC,030050.0,A,3443.4916,N,08633.1256,W,,,210119,,*19
$GPGGA,030120.0,3443.4917,N,08633.1256,W,1,,,220.9,M,,M,,*72
$GPRMC,030120.0,A,3443.4917,N,08633.1256,W,,,210119,,*1E
$GPGGA,030150.0,3443.4917,N,08633.1257,W,1,,,221.2,M,,M,,*7E
$GPRMC,030150.0,A,3443.4917,N,08633.1257,W,,,210119,,*18
$GPGGA,030220.0,3443.4917,N,08633.1258,W,1,,,221.4,M,,M,,*73
$GPRMC,030220.0,A,3443.4917,N,08633.1258,W,,,210119,,*13
$GPGGA,030250.0,3443.4918,N,08633.1259,W,1,,,221.7,M,,M,,*79
$GPRMC,030250.0,A,3443.4918,N,08633.1259,W,,,210119,,*1A
$GPGGA,030320.0,3443.4918,N,08633.1259,W,1,,,221.8,M,,M,,*70
$GPRMC,030320.0,A,3443.4918,N,08633.1259,W,,,210119,,*1C
$GPGGA,030350.0,3443.4918,N,08633.1259,W,1,,,221.8,M,,M,,*77
$GPRMC,030350.0,A,3443.4918,N,08633.1259,W,,,210119,,*1B
$GPGGA,030420.0,3443.4918,N,08633.1259,W,1,,,221.6,M,,M,,*79
$GPRMC,030420.0,A,3443.4918,N,08633.1259,W,,,210119,,*1B
$GPGGA,030450.0,3443.4919,N,08633.1260,W,1,,,221.5,M,,M,,*76
$GPRMC,030450.0,A,3443.4919,N,08633.1260,W,,,210119,,*17
$GPGGA,030520.0,3443.4919,N,08633.1260,W,1,,,221.5,M,,M,,*70
$GPRMC,030520.0,A,3443.4919,N,08633.1260,W,,,210119,,*11
$GPGGA,030550.0,3443.4919,N,08633.1260,W,1,,,221.5,M,,M,,*77
$GPRMC,030550.0,A,3443.4919,N,08633.1260,W,,,210119,,*16
$GPGGA,030620.0,3443.4926,N,08633.1273,W,1,,,216.1,M,,M,,*7D
$GPRMC,030620.0,A,3443.4926,N,08633.1273,W,,,210119,,*1C
$GPGGA,030650.0,3443.4925,N,08633.1273,W,1,,,216.1,M,,M,,*79
$GPRMC,030650.0,A,3443.4925,N,08633.1273,W,,,210119,,*18
$GPGGA,030720.0,3443.4925,N,08633.1274,W,1,,,216.2,M,,M,,*7B
$GPRMC,030720.0,A,3443.4925,N,08633.1274,W,,,210119,,*19
$GPGGA,030750.0,3443.4925,N,08633.1274,W,1,,,216.4,M,,M,,*7A
$GPRMC,030750.0,A,3443.4925,N,08633.1274,W,,,210119,,*1E
$GPGGA,030820.0,3443.4925,N,08633.1274,W,1,,,216.5,M,,M,,*73
$GPRMC,030820.0,A,3443.4925,N,08633.1274,W,,,210119,,*16
$GPGGA,030850.0,3443.4925,N,08633.1274,W,1,,,216.7,M,,M,,*76
$GPRMC,030850.0,A,3443.4925,N,08633.1274,W,,,210119,,*11
$GPGGA,030920.0,3443.4923,N,08633.1274,W,1,,,217.0,M,,M,,*70
$GPRMC,030920.0,A,3443.4923,N,08633.1274,W,,,210119,,*11
$GPGGA,030950.0,3443.4922,N,08633.1274,W,1,,,217.5,M,,M,,*73
$GPRMC,030950.0,A,3443.4922,N,08633.1274,W,,,210119,,*17
$GPGGA,031020.0,3443.4920,N,08633.1273,W,1,,,217.9,M,,M,,*75
$GPRMC,031020.0,A,3443.4920,N,08633.1273,W,,,210119,,*1D
$GPGGA,031050.0,3443.4919,N,08633.1272,W,1,,,218.4,M,,M,,*7B
$GPRMC,031050.0,A,3443.4919,N,08633.1272,W,,,210119,,*11
$GPGGA,031120.0,3443.4919,N,08633.1271,W,1,,,218.8,M,,M,,*72
$GPRMC,031120.0,A,3443.4919,N,08633.1271,W,,,210119,,*14
$GPGGA,031150.0,3443.4919,N,08633.1270,W,1,,,219.0,M,,M,,*7D
$GPRMC,031150.0,A,3443.4919,N,08633.1270,W,,,210119,,*12
$GPGGA,031220.0,3443.4918,N,08633.1270,W,1,,,219.0,M,,M,,*78
$GPRMC,031220.0,A,3443.4918,N,08633.1270,W,,,210119,,*17
$GPGGA,031250.0,3443.4918,N,08633.1269,W,1,,,219.1,M,,M,,*76
$GPRMC,031250.0,A,3443.4918,N,08633.1269,W,,,210119,,*18
$GPGGA,031320.0,3443.4918,N,08633.1269,W,1,,,219.5,M,,M,,*74
$GPRMC,031320.0,A,3443.4918,N,08633.1269,W,,,210119,,*1E
$GPGGA,031350.0,3443.4918,N,08633.1268,W,1,,,219.5,M,,M,,*72
$GPRMC,031350.0,A,3443.4918,N,08633.1268,W,,,210119,,*18
$GPGGA,031420.0,3443.4917,N,08633.1268,W,1,,,219.4,M,,M,,*7C
$GPRMC,031420.0,A,3443.4917,N,08633.1268,W,,,210119,,*17
$GPGGA,031450.0,3443.4917,N,08633.1268,W,1,,,219.4,M,,M,,*7B
$GPRMC,031450.0,A,3443.4917,N,08633.1268,W,,,210119,,*10
$GPGGA,031520.0,3443.4917,N,08633.1267,W,1,,,219.5,M,,M,,*73
$GPRMC,031520.0,A,3443.4917,N,08633.1267,W,,,210119,,*19
$GPGGA,031550.0,3443.4916,N,08633.1267,W,1,,,219.5,M,,M,,*75
$GPRMC,031550.0,A,3443.4916,N,08633.1267,W,,,210119,,*1F
$GPGGA,031620.0,3443.4916,N,08633.1267,W,1,,,219.6,M,,M,,*72
$GPRMC,031620.0,A,3443.4916,N,08633.1267,W,,,210119,,*1B
$GPGGA,031650.0,3443.4916,N,08633.1267,W,1,,,219.6,M,,M,,*75
$GPRMC,031650.0,A,3443.4916,N,08633.1267,W,,,210119,,*1C
$GPGGA,031720.0,3443.4916,N,08633.1266,W,1,,,219.7,M,,M,,*73
$GPRMC,031720.0,A,3443.4916,N,08633.1266,W,,,210119,,*1B
$GPGGA,031750.0,3443.4915,N,08633.1266,W,1,,,219.7,M,,M,,*77
$GPRMC,031750.0,A,3443.4915,N,08633.1266,W,,,210119,,*1F
$GPGGA,031820.0,3443.4915,N,08633.1266,W,1,,,219.5,M,,M,,*7D
$GPRMC,031820.0,A,3443.4915,N,08633.1266,W,,,210119,,*17
$GPGGA,031850.0,3443.4915,N,08633.1265,W,1,,,219.4,M,,M,,*78
$GPRMC,031850.0,A,3443.4915,N,08633.1265,W,,,210119,,*13
$GPGGA,031920.0,3443.4915,N,08633.1265,W,1,,,219.4,M,,M,,*7E
$GPRMC,031920.0,A,3443.4915,N,08633.1265,W,,,210119,,*15
$GPGGA,031950.0,3443.4915,N,08633.1265,W,1,,,219.3,M,,M,,*7E
$GPRMC,031950.0,A,3443.4915,N,08633.1265,W,,,210119,,*12
$GPGGA,032020.0,3443.4915,N,08633.1265,W,1,,,219.1,M,,M,,*71
$GPRMC,032020.0,A,3443.4915,N,08633.1265,W,,,210119,,*1F
$GPGGA,032050.0,3443.4915,N,08633.1266,W,1,,,219.0,M,,M,,*74
$GPRMC,032050.0,A,3443.4915,N,08633.1266,W,,,210119,,*1B
$GPGGA,032120.0,3443.4915,N,08633.1266,W,1,,,219.0,M,,M,,*72
$GPRMC,032120.0,A,3443.4915,N,08633.1266,W,,,210119,,*1D
$GPGGA,032150.0,3443.4915,N,08633.1266,W,1,,,219.0,M,,M,,*75
$GPRMC,032150.0,A,3443.4915,N,08633.1266,W,,,210119,,*1A
$GPGGA,032220.0,3443.4915,N,08633.1266,W,1,,,218.9,M,,M,,*79
$GPRMC,032220.0,A,3443.4915,N,08633.1266,W,,,210119,,*1E
$GPGGA,032250.0,3443.4916,N,08633.1266,W,1,,,218.9,M,,M,,*7D
$GPRMC,032250.0,A,3443.4916,N,08633.1266,W,,,210119,,*1A
$GPGGA,032320.0,3443.4916,N,08633.1267,W,1,,,218.9,M,,M,,*7A
$GPRMC,032320.0,A,3443.4916,N,08633.1267,W,,,210119,,*1D
$GPGGA,032350.0,3443.4916,N,08633.1267,W,1,,,218.9,M,,M,,*7D
$GPRMC,032350.0,A,3443.4916,N,08633.1267,W,,,210119,,*1A
$GPGGA,032420.0,3443.4916,N,08633.1267,W,1,,,218.9,M,,M,,*7D
$GPRMC,032420.0,A,3443.4916,N,08633.1267,W,,,210119,,*1A
$GPGGA,032450.0,3443.4916,N,08633.1267,W,1,,,219.1,M,,M,,*73
$GPRMC,032450.0,A,3443.4916,N,08633.1267,W,,,210119,,*1D
$GPGGA,032520.0,3443.4916,N,08633.1267,W,1,,,219.2,M,,M,,*76
$GPRMC,032520.0,A,3443.4916,N,08633.1267,W,,,210119,,*1B
$GPGGA,032550.0,3443.4916,N,08633.1267,W,1,,,219.3,M,,M,,*70
$GPRMC,032550.0,A,3443.4916,N,08633.1267,W,,,210119,,*1C
$GPGGA,032620.0,3443.4916,N,08633.1267,W,1,,,219.4,M,,M,,*73
$GPRMC,032620.0,A,3443.4916,N,08633.1267,W,,,210119,,*18
$GPGGA,032650.0,3443.4916,N,08633.1268,W,1,,,219.6,M,,M,,*79
$GPRMC,032650.0,A,3443.4916,N,08633.1268,W,,,210119,,*10
$GPGGA,032720.0,3443.4916,N,08633.1268,W,1,,,219.6,M,,M,,*7F
$GPRMC,032720.0,A,3443.4916,N,08633.1268,W,,,210119,,*16
$GPGGA,032750.0,3443.4916,N,08633.1268,W,1,,,219.6,M,,M,,*78
$GPRMC,032750.0,A,3443.4916,N,08633.1268,W,,,210119,,*11
$GPGGA,032820.0,3443.4916,N,08633.1268,W,1,,,219.5,M,,M,,*73
$GPRMC,032820.0,A,3443.4916,N,08633.1268,W,,,210119,,*19
$GPGGA,032850.0,3443.4916,N,08633.1268,W,1,,,219.4,M,,M,,*75
$GPRMC,032850.0,A,3443.4916,N,08633.1268,W,,,210119,,*1E
$GPGGA,032920.0,3443.4917,N,08633.1268,W,1,,,219.3,M,,M,,*75
$GPRMC,032920.0,A,3443.4917,N,08633.1268,W,,,210119,,*19
$GPGGA,032950.0,3443.4917,N,08633.1268,W,1,,,219.3,M,,M,,*72
$GPRMC,032950.0,A,3443.4917,N,08633.1268,W,,,210119,,*1E
$GPGGA,033020.0,3443.4917,N,08633.1268,W,1,,,219.5,M,,M,,*7B
$GPRMC,033020.0,A,3443.4917,N,08633.1268,W,,,210119,,*11
$GPGGA,033050.0,3443.4917,N,08633.1268,W,1,,,219.5,M,,M,,*7C
$GPRMC,033050.0,A,3443.4917,N,08633.1268,W,,,210119,,*16
$GPGGA,033120.0,3443.4917,N,08633.1268,W,1,,,219.3,M,,M,,*7C
$GPRMC,033120.0,A,3443.4917,N,08633.1268,W,,,210119,,*10
$GPGGA,033150.0,3443.4917,N,08633.1268,W,1,,,219.2,M,,M,,*7A
$GPRMC,033150.0,A,3443.4917,N,08633.1268,W,,,210119,,*17
$GPGGA,033220.0,3443.4917,N,08633.1267,W,1,,,219.0,M,,M,,*73
$GPRMC,033220.0,A,3443.4917,N,08633.1267,W,,,210119,,*1C
$GPGGA,033250.0,3443.4917,N,08633.1267,W,1,,,218.9,M,,M,,*7C
$GPRMC,033250.0,A,3443.4917,N,08633.1267,W,,,210119,,*1B
$GPGGA,033320.0,3443.4917,N,08633.1267,W,1,,,218.9,M,,M,,*7A
$GPRMC,033320.0,A,3443.4917,N,08633.1267,W,,,210119,,*1D
$GPGGA,033350.0,3443.4918,N,08633.1267,W,1,,,218.9,M,,M,,*72
$GPRMC,033350.0,A,3443.4918,N,08633.1267,W,,,210119,,*15
$GPGGA,033420.0,3443.4918,N,08633.1267,W,1,,,218.9,M,,M,,*72
$GPRMC,033420.0,A,3443.4918,N,08633.1267,W,,,210119,,*15
$GPGGA,033450.0,3443.4918,N,08633.1267,W,1,,,218.9,M,,M,,*75
$GPRMC,033450.0,A,3443.4918,N,08633.1267,W,,,210119,,*12
$GPGGA,033520.0,3443.4918,N,08633.1267,W,1,,,218.9,M,,M,,*73
$GPRMC,033520.0,A,3443.4918,N,08633.1267,W,,,210119,,*14
$GPGGA,033550.0,3443.4918,N,08633.1267,W,1,,,218.9,M,,M,,*74
$GPRMC,033550.0,A,3443.4918,N,08633.1267,W,,,210119,,*13
$GPGGA,033620.0,3443.4918,N,08633.1267,W,1,,,218.9,M,,M,,*70
$GPRMC,033620.0,A,3443.4918,N,08633.1267,W,,,210119,,*17
$GPGGA,033650.0,3443.4918,N,08633.1267,W,1,,,218.9,M,,M,,*77
$GPRMC,033650.0,A,3443.4918,N,08633.1267,W,,,210119,,*10
$GPGGA,033720.0,3443.4918,N,08633.1267,W,1,,,219.0,M,,M,,*79
$GPRMC,033720.0,A,3443.4918,N,08633.1267,W,,,210119,,*16
$GPGGA,033750.0,3443.4918,N,08633.1267,W,1,,,219.0,M,,M,,*7E
$GPRMC,033750.0,A,3443.4918,N,08633.1267,W,,,210119,,*11
$GPGGA,033820.0,3443.4918,N,08633.1267,W,1,,,219.1,M,,M,,*77
$GPRMC,033820.0,A,3443.4918,N,08633.1267,W,,,210119,,*19
$GPGGA,033850.0,3443.4918,N,08633.1267,W,1,,,219.3,M,,M,,*72
$GPRMC,033850.0,A,3443.4918,N,08633.1267,W,,,210119,,*1E
$GPGGA,033920.0,3443.4918,N,08633.1267,W,1,,,219.4,M,,M,,*73
$GPRMC,033920.0,A,3443.4918,N,08633.1267,W,,,210119,,*18
$GPGGA,033950.0,3443.4918,N,08633.1267,W,1,,,219.5,M,,M,,*75
$GPRMC,033950.0,A,3443.4918,N,08633.1267,W,,,210119,,*1F
$GPGGA,034020.0,3443.4918,N,08633.1267,W,1,,,219.6,M,,M,,*7F
$GPRMC,034020.0,A,3443.4918,N,08633.1267,W,,,210119,,*16
$GPGGA,034050.0,3443.4918,N,08633.1267,W,1,,,219.6,M,,M,,*78
$GPRMC,034050.0,A,3443.4918,N,08633.1267,W,,,210119,,*11
$GPGGA,034120.0,3443.4918,N,08633.1267,W,1,,,219.7,M,,M,,*7F
$GPRMC,034120.0,A,3443.4918,N,08633.1267,W,,,210119,,*17
$GPGGA,034150.0,3443.4918,N,08633.1267,W,1,,,219.8,M,,M,,*77
$GPRMC,034150.0,A,3443.4918,N,08633.1267,W,,,210119,,*10
$GPGGA,034220.0,3443.4919,N,08633.1267,W,1,,,219.8,M,,M,,*72
$GPRMC,034220.0,A,3443.4919,N,08633.1267,W,,,210119,,*15
$GPGGA,034250.0,3443.4919,N,08633.1267,W,1,,,219.8,M,,M,,*75
$GPRMC,034250.0,A,3443.4919,N,08633.1267,W,,,210119,,*12
$GPGGA,034320.0,3443.4919,N,08633.1266,W,1,,,219.9,M,,M,,*73
$GPRMC,034320.0,A,3443.4919,N,08633.1266,W,,,210119,,*15
$GPGGA,034350.0,3443.4919,N,08633.1266,W,1,,,219.9,M,,M,,*74
$GPRMC,034350.0,A,3443.4919,N,08633.1266,W,,,210119,,*12
$GPGGA,034420.0,3443.4919,N,08633.1266,W,1,,,220.0,M,,M,,*77
$GPRMC,034420.0,A,3443.4919,N,08633.1266,W,,,210119,,*12
$GPGGA,034450.0,3443.4919,N,08633.1266,W,1,,,220.0,M,,M,,*70
$GPRMC,034450.0,A,3443.4919,N,08633.1266,W,,,210119,,*15
$GPGGA,034520.0,3443.4919,N,08633.1266,W,1,,,220.0,M,,M,,*76
$GPRMC,034520.0,A,3443.4919,N,08633.1266,W,,,210119,,*13
$GPGGA,034550.0,3443.4919,N,08633.1266,W,1,,,220.0,M,,M,,*71
$GPRMC,034550.0,A,3443.4919,N,08633.1266,W,,,210119,,*14
$GPGGA,034620.0,3443.4919,N,08633.1266,W,1,,,220.0,M,,M,,*75
$GPRMC,034620.0,A,3443.4919,N,08633.1266,W,,,210119,,*10
$GPGGA,034650.0,3443.4919,N,08633.1266,W,1,,,220.0,M,,M,,*72
$GPRMC,034650.0,A,3443.4919,N,08633.1266,W,,,210119,,*17
$GPGGA,034720.0,3443.4919,N,08633.1266,W,1,,,220.1,M,,M,,*75
$GPRMC,034720.0,A,3443.4919,N,08633.1266,W,,,210119,,*11
$GPGGA,034750.0,3443.4919,N,08633.1266,W,1,,,220.1,M,,M,,*72
$GPRMC,034750.0,A,3443.4919,N,08633.1266,W,,,210119,,*16
$GPGGA,034820.0,3443.4919,N,08633.1266,W,1,,,220.1,M,,M,,*7A
$GPRMC,034820.0,A,3443.4919,N,08633.1266,W,,,210119,,*1E
$GPGGA,034850.0,3443.4919,N,08633.1266,W,1,,,220.1,M,,M,,*7D
$GPRMC,034850.0,A,3443.4919,N,08633.1266,W,,,210119,,*19
$GPGGA,034920.0,3443.4919,N,08633.1266,W,1,,,220.1,M,,M,,*7B
$GPRMC,034920.0,A,3443.4919,N,08633.1266,W,,,210119,,*1F
$GPGGA,034950.0,3443.4919,N,08633.1266,W,1,,,220.1,M,,M,,*7C
$GPRMC,034950.0,A,3443.4919,N,08633.1266,W,,,210119,,*18
$GPGGA,035020.0,3443.4919,N,08633.1266,W,1,,,220.2,M,,M,,*70
$GPRMC,035020.0,A,3443.4919,N,08633.1266,W,,,210119,,*17
$GPGGA,035050.0,3443.4918,N,08633.1266,W,1,,,220.2,M,,M,,*76
$GPRMC,035050.0,A,3443.4918,N,08633.1266,W,,,210119,,*11
$GPGGA,035120.0,3443.4918,N,08633.1266,W,1,,,220.3,M,,M,,*71
$GPRMC,035120.0,A,3443.4918,N,08633.1266,W,,,210119,,*17
$GPGGA,035150.0,3443.4918,N,08633.1266,W,1,,,220.3,M,,M,,*76
$GPRMC,035150.0,A,3443.4918,N,08633.1266,W,,,210119,,*10
$GPGGA,035220.0,3443.4918,N,08633.1266,W,1,,,220.3,M,,M,,*72
$GPRMC,035220.0,A,3443.4918,N,08633.1266,W,,,210119,,*14
$GPGGA,035250.0,3443.4918,N,08633.1266,W,1,,,220.4,M,,M,,*72
$GPRMC,035250.0,A,3443.4918,N,08633.1266,W,,,210119,,*13
$GPGGA,035320.0,3443.4918,N,08633.1266,W,1,,,220.5,M,,M,,*75
$GPRMC,035320.0,A,3443.4918,N,08633.1266,W,,,210119,,*15
$GPGGA,035350.0,3443.4918,N,08633.1266,W,1,,,220.6,M,,M,,*71
$GPRMC,035350.0,A,3443.4918,N,08633.1266,W,,,210119,,*12
$GPGGA,035420.0,3443.4918,N,08633.1266,W,1,,,220.7,M,,M,,*70
$GPRMC,035420.0,A,3443.4918,N,08633.1266,W,,,210119,,*12
$GPGGA,035450.0,3443.4918,N,08633.1266,W,1,,,220.7,M,,M,,*77
$GPRMC,035450.0,A,3443.4918,N,08633.1266,W,,,210119,,*15
$GPGGA,035520.0,3443.4918,N,08633.1266,W,1,,,220.7,M,,M,,*71
$GPRMC,035520.0,A,3443.4918,N,08633.1266,W,,,210119,,*13
$GPGGA,035550.0,3443.4918,N,08633.1266,W,1,,,220.7,M,,M,,*76
$GPRMC,035550.0,A,3443.4918,N,08633.1266,W,,,210119,,*14
$GPGGA,035620.0,3443.4918,N,08633.1266,W,1,,,220.7,M,,M,,*72
$GPRMC,035620.0,A,3443.4918,N,08633.1266,W,,,210119,,*10
$GPGGA,035650.0,3443.4918,N,08633.1266,W,1,,,220.7,M,,M,,*75
$GPRMC,035650.0,A,3443.4918,N,08633.1266,W,,,210119,,*17
$GPGGA,035720.0,3443.4918,N,08633.1266,W,1,,,220.7,M,,M,,*73
$GPRMC,035720.0,A,3443.4918,N,08633.1266,W,,,210119,,*11
$GPGGA,035750.0,3443.4918,N,08633.1266,W,1,,,220.7,M,,M,,*74
$GPRMC,035750.0,A,3443.4918,N,08633.1266,W,,,210119,,*16
$GPGGA,035820.0,3443.4918,N,08633.1266,W,1,,,220.6,M,,M,,*7D
$GPRMC,035820.0,A,3443.4918,N,08633.1266,W,,,210119,,*1E
$GPGGA,035850.0,3443.4918,N,08633.1266,W,1,,,220.6,M,,M,,*7A
$GPRMC,035850.0,A,3443.4918,N,08633.1266,W,,,210119,,*19
$GPGGA,035920.0,3443.4918,N,08633.1266,W,1,,,220.6,M,,M,,*7C
$GPRMC,035920.0,A,3443.4918,N,08633.1266,W,,,210119,,*1F
$GPGGA,035950.0,3443.4918,N,08633.1266,W,1,,,220.6,M,,M,,*7B
$GPRMC,035950.0,A,3443.4918,N,08633.1266,W,,,210119,,*18
$GPGGA,040020.0,3443.4918,N,08633.1266,W,1,,,220.6,M,,M,,*77
$GPRMC,040020.0,A,3443.4918,N,08633.1266,W,,,210119,,*14
$GPGGA,040050.0,3443.4918,N,08633.1266,W,1,,,220.6,M,,M,,*70
$GPRMC,040050.0,A,3443.4918,N,08633.1266,W,,,210119,,*13
$GPGGA,040120.0,3443.4918,N,08633.1266,W,1,,,220.6,M,,M,,*76
$GPRMC,040120.0,A,3443.4918,N,08633.1266,W,,,210119,,*15
$GPGGA,040150.0,3443.4918,N,08633.1266,W,1,,,220.6,M,,M,,*71
$GPRMC,040150.0,A,3443.4918,N,08633.1266,W,,,210119,,*12
$GPGGA,040220.0,3443.4919,N,08633.1267,W,1,,,222.7,M,,M,,*76
$GPRMC,040220.0,A,3443.4919,N,08633.1267,W,,,210119,,*16
$GPGGA,040250.0,3443.4919,N,08633.1267,W,1,,,222.8,M,,M,,*7E
$GPRMC,040250.0,A,3443.4919,N,08633.1267,W,,,210119,,*11
$GPGGA,040320.0,3443.4919,N,08633.1267,W,1,,,222.8,M,,M,,*78
$GPRMC,040320.0,A,3443.4919,N,08633.1267,W,,,210119,,*17
$GPGGA,040350.0,3443.4919,N,08633.1267,W,1,,,222.8,M,,M,,*7F
$GPRMC,040350.0,A,3443.4919,N,08633.1267,W,,,210119,,*10
$GPGGA,040420.0,3443.4919,N,08633.1267,W,1,,,222.8,M,,M,,*7F
$GPRMC,040420.0,A,3443.4919,N,08633.1267,W,,,210119,,*10
$GPGGA,040450.0,3443.4919,N,08633.1267,W,1,,,222.8,M,,M,,*78
$GPRMC,040450.0,A,3443.4919,N,08633.1267,W,,,210119,,*17
$GPGGA,040520.0,3443.4919,N,08633.1267,W,1,,,222.8,M,,M,,*7E
$GPRMC,040520.0,A,3443.4919,N,08633.1267,W,,,210119,,*11
$GPGGA,040550.0,3443.4919,N,08633.1267,W,1,,,222.8,M,,M,,*79
$GPRMC,040550.0,A,3443.4919,N,08633.1267,W,,,210119,,*16
$GPGGA,040620.0,3443.4919,N,08633.1267,W,1,,,222.8,M,,M,,*7D
$GPRMC,040620.0,A,3443.4919,N,08633.1267,W,,,210119,,*12
$GPGGA,040650.0,3443.4919,N,08633.1267,W,1,,,222.8,M,,M,,*7A
$GPRMC,040650.0,A,3443.4919,N,08633.1267,W,,,210119,,*15
$GPGGA,040720.0,3443.4919,N,08633.1267,W,1,,,222.8,M,,M,,*7C
$GPRMC,040720.0,A,3443.4919,N,08633.1267,W,,,210119,,*13
$GPGGA,040750.0,3443.4919,N,08633.1267,W,1,,,222.8,M,,M,,*7B
$GPRMC,040750.0,A,3443.4919,N,08633.1267,W,,,210119,,*14
$GPGGA,040820.0,3443.4919,N,08633.1267,W,1,,,222.8,M,,M,,*73
$GPRMC,040820.0,A,3443.4919,N,08633.1267,W,,,210119,,*1C
$GPGGA,040850.0,3443.4911,N,08633.1260,W,1,,,224.1,M,,M,,*74
$GPRMC,040850.0,A,3443.4911,N,08633.1260,W,,,210119,,*14
$GPGGA,040920.0,3443.4911,N,08633.1260,W,1,,,224.1,M,,M,,*72
$GPRMC,040920.0,A,3443.4911,N,08633.1260,W,,,210119,,*12
$GPGGA,040950.0,3443.4911,N,08633.1266,W,1,,,227.8,M,,M,,*79
$GPRMC,040950.0,A,3443.4911,N,08633.1266,W,,,210119,,*13
$GPGGA,041020.0,3443.4911,N,08633.1266,W,1,,,227.8,M,,M,,*76
$GPRMC,041020.0,A,3443.4911,N,08633.1266,W,,,210119,,*1C
$GPGGA,041050.0,3443.4911,N,08633.1266,W,1,,,227.8,M,,M,,*71
$GPRMC,041050.0,A,3443.4911,N,08633.1266,W,,,210119,,*1B
$GPGGA,041120.0,3443.4911,N,08633.1266,W,1,,,227.7,M,,M,,*78
$GPRMC,041120.0,A,3443.4911,N,08633.1266,W,,,210119,,*1D
$GPGGA,041150.4,3443.4911,N,08633.1266,W,1,,,227.7,M,,M,,*7B
$GPRMC,041150.4,A,3443.4911,N,08633.1266,W,,,210119,,*1E
$GPGGA,041220.0,3443.4911,N,08633.1266,W,1,,,227.7,M,,M,,*7B
$GPRMC,041220.0,A,3443.4911,N,08633.1266,W,,,210119,,*1E
$GPGGA,041245.8,3443.4911,N,08633.1276,W,1,,,221.8,M,,M,,*78
$GPRMC,041245.8,A,3443.4911,N,08633.1276,W,,,210119,,*14
$GPGGA,041316.0,3443.4954,N,08633.1288,W,1,,,214.9,M,,M,,*70
$GPRMC,041316.0,A,3443.4954,N,08633.1288,W,,,210119,,*1B
$GPGGA,041346.0,3443.4961,N,08633.1279,W,1,,,214.3,M,,M,,*77
$GPRMC,041346.0,A,3443.4961,N,08633.1279,W,,,210119,,*16
$GPGGA,041416.0,3443.4966,N,08633.1271,W,1,,,219.5,M,,M,,*71
$GPRMC,041416.0,A,3443.4966,N,08633.1271,W,,,210119,,*1B
$GPGGA,041446.0,3443.4967,N,08633.1270,W,1,,,219.0,M,,M,,*71
$GPRMC,041446.0,A,3443.4967,N,08633.1270,W,,,210119,,*1E
$GPGGA,041516.0,3443.4968,N,08633.1268,W,1,,,217.9,M,,M,,*74
$GPRMC,041516.0,A,3443.4968,N,08633.1268,W,,,210119,,*1C
$GPGGA,041546.0,3443.4967,N,08633.1253,W,1,,,216.9,M,,M,,*77
$GPRMC,041546.0,A,3443.4967,N,08633.1253,W,,,210119,,*1E
$GPGGA,041616.0,3443.4969,N,08633.1255,W,1,,,216.0,M,,M,,*70
$GPRMC,041616.0,A,3443.4969,N,08633.1255,W,,,210119,,*10
$GPGGA,041646.0,3443.4968,N,08633.1253,W,1,,,212.6,M,,M,,*70
$GPRMC,041646.0,A,3443.4968,N,08633.1253,W,,,210119,,*12
$GPGGA,041716.0,3443.4967,N,08633.1253,W,1,,,216.2,M,,M,,*7B
$GPRMC,041716.0,A,3443.4967,N,08633.1253,W,,,210119,,*19
$GPGGA,041746.0,3443.4967,N,08633.1253,W,1,,,216.1,M,,M,,*7D
$GPRMC,041746.0,A,3443.4967,N,08633.1253,W,,,210119,,*1C
$GPGGA,041816.0,3443.4968,N,08633.1252,W,1,,,217.3,M,,M,,*7A
$GPRMC,041816.0,A,3443.4968,N,08633.1252,W,,,210119,,*18
$GPGGA,041846.0,3443.4968,N,08633.1248,W,1,,,217.1,M,,M,,*76
$GPRMC,041846.0,A,3443.4968,N,08633.1248,W,,,210119,,*16
$GPGGA,041916.0,3443.4968,N,08633.1248,W,1,,,217.6,M,,M,,*75
$GPRMC,041916.0,A,3443.4968,N,08633.1248,W,,,210119,,*12
$GPGGA,041946.0,3443.4968,N,08633.1248,W,1,,,217.8,M,,M,,*7E
$GPRMC,041946.0,A,3443.4968,N,08633.1248,W,,,210119,,*17
$GPGGA,042016.0,3443.4968,N,08633.1248,W,1,,,217.8,M,,M,,*71
$GPRMC,042016.0,A,3443.4968,N,08633.1248,W,,,210119,,*18
$GPGGA,042046.0,3443.4968,N,08633.1247,W,1,,,217.8,M,,M,,*7B
$GPRMC,042046.0,A,3443.4968,N,08633.1247,W,,,210119,,*12
$GPGGA,042116.0,3443.4968,N,08633.1247,W,1,,,217.9,M,,M,,*7E
$GPRMC,042116.0,A,3443.4968,N,08633.1247,W,,,210119,,*16
$GPGGA,042146.0,3443.4969,N,08633.1245,W,1,,,218.0,M,,M,,*7E
$GPRMC,042146.0,A,3443.4969,N,08633.1245,W,,,210119,,*10
$GPGGA,042216.0,3443.4969,N,08633.1244,W,1,,,217.2,M,,M,,*74
$GPRMC,042216.0,A,3443.4969,N,08633.1244,W,,,210119,,*17
$GPGGA,042246.0,3443.4969,N,08633.1248,W,1,,,217.7,M,,M,,*78
$GPRMC,042246.0,A,3443.4969,N,08633.1248,W,,,210119,,*1E
$GPGGA,042316.0,3443.4969,N,08633.1248,W,1,,,217.2,M,,M,,*79
$GPRMC,042316.0,A,3443.4969,N,08633.1248,W,,,210119,,*1A
$GPGGA,042346.0,3443.4970,N,08633.1247,W,1,,,215.8,M,,M,,*73
$GPRMC,042346.0,A,3443.4970,N,08633.1247,W,,,210119,,*18
$GPGGA,042416.0,3443.4969,N,08633.1247,W,1,,,215.9,M,,M,,*78
$GPRMC,042416.0,A,3443.4969,N,08633.1247,W,,,210119,,*12
$GPGGA,042446.0,3443.4970,N,08633.1247,W,1,,,215.9,M,,M,,*75
$GPRMC,042446.0,A,3443.4970,N,08633.1247,W,,,210119,,*1F
$GPGGA,042458.3,3443.4970,N,08633.1248,W,1,,,215.9,M,,M,,*76
$GPRMC,042458.3,A,3443.4970,N,08633.1248,W,,,210119,,*1C
$GPGGA,042528.0,3443.4967,N,08633.1275,W,1,,,212.0,M,,M,,*75
$GPRMC,042528.0,A,3443.4967,N,08633.1275,W,,,210119,,*11
$GPGGA,042558.0,3443.4970,N,08633.1223,W,1,,,214.7,M,,M,,*76
$GPRMC,042558.0,A,3443.4970,N,08633.1223,W,,,210119,,*13
$GPGGA,042628.0,3443.4968,N,08633.1214,W,1,,,217.3,M,,M,,*78
$GPRMC,042628.0,A,3443.4968,N,08633.1214,W,,,210119,,*1A
$GPGGA,042658.0,3443.4969,N,08633.1214,W,1,,,218.0,M,,M,,*72
$GPRMC,042658.0,A,3443.4969,N,08633.1214,W,,,210119,,*1C
$GPGGA,042728.0,3443.4967,N,08633.1233,W,1,,,215.8,M,,M,,*7A
$GPRMC,042728.0,A,3443.4967,N,08633.1233,W,,,210119,,*11
$GPGGA,042825.0,3443.4985,N,08633.1256,W,1,,,213.3,M,,M,,*7A
$GPRMC,042825.0,A,3443.4985,N,08633.1256,W,,,210119,,*1C
$GPGGA,042855.0,3443.4975,N,08633.1259,W,1,,,208.7,M,,M,,*73
$GPRMC,042855.0,A,3443.4975,N,08633.1259,W,,,210119,,*1B
$GPGGA,042925.0,3443.4977,N,08633.1256,W,1,,,210.0,M,,M,,*76
$GPRMC,042925.0,A,3443.4977,N,08633.1256,W,,,210119,,*10
$GPGGA,042955.0,3443.4978,N,08633.1256,W,1,,,208.5,M,,M,,*72
$GPRMC,042955.0,A,3443.4978,N,08633.1256,W,,,210119,,*18
$GPGGA,043025.0,3443.4982,N,08633.1252,W,1,,,210.5,M,,M,,*75
$GPRMC,043025.0,A,3443.4982,N,08633.1252,W,,,210119,,*16
$GPGGA,043055.0,3443.4980,N,08633.1249,W,1,,,211.0,M,,M,,*7E
$GPRMC,043055.0,A,3443.4980,N,08633.1249,W,,,210119,,*19
$GPGGA,043125.0,3443.4980,N,08633.1248,W,1,,,212.1,M,,M,,*7B
$GPRMC,043125.0,A,3443.4980,N,08633.1248,W,,,210119,,*1E
$GPGGA,043155.0,3443.4982,N,08633.1250,W,1,,,213.0,M,,M,,*77
$GPRMC,043155.0,A,3443.4982,N,08633.1250,W,,,210119,,*12
$GPGGA,043225.0,3443.4972,N,08633.1278,W,1,,,210.7,M,,M,,*72
$GPRMC,043225.0,A,3443.4972,N,08633.1278,W,,,210119,,*13
$GPGGA,043255.0,3443.4971,N,08633.1278,W,1,,,210.7,M,,M,,*76
$GPRMC,043255.0,A,3443.4971,N,08633.1278,W,,,210119,,*17
$GPGGA,043325.0,3443.4916,N,08633.1305,W,1,,,213.0,M,,M,,*7E
$GPRMC,043325.0,A,3443.4916,N,08633.1305,W,,,210119,,*1B
$GPGGA,043355.0,3443.4915,N,08633.1305,W,1,,,214.5,M,,M,,*78
$GPRMC,043355.0,A,3443.4915,N,08633.1305,W,,,210119,,*1F
$GPGGA,043425.0,3443.4914,N,08633.1305,W,1,,,214.8,M,,M,,*74
$GPRMC,043425.0,A,3443.4914,N,08633.1305,W,,,210119,,*1E
$GPGGA,043435.7,3443.4913,N,08633.1305,W,1,,,215.3,M,,M,,*7F
$GPRMC,043435.7,A,3443.4913,N,08633.1305,W,,,210119,,*1F
$GPGGA,043505.0,3443.4892,N,08633.1364,W,1,,,230.5,M,,M,,*74
$GPRMC,043505.0,A,3443.4892,N,08633.1364,W,,,210119,,*15
$GPGGA,043535.0,3443.4894,N,08633.1355,W,1,,,239.6,M,,M,,*79
$GPRMC,043535.0,A,3443.4894,N,08633.1355,W,,,210119,,*12
$GPGGA,043605.0,3443.4894,N,08633.1345,W,1,,,235.0,M,,M,,*72
$GPRMC,043605.0,A,3443.4894,N,08633.1345,W,,,210119,,*13
$GPGGA,043635.0,3443.4896,N,08633.1336,W,1,,,229.4,M,,M,,*7E
$GPRMC,043635.0,A,3443.4896,N,08633.1336,W,,,210119,,*16
$GPGGA,043705.0,3443.4897,N,08633.1330,W,1,,,227.3,M,,M,,*72
$GPRMC,043705.0,A,3443.4897,N,08633.1330,W,,,210119,,*13
$GPGGA,043735.0,3443.4897,N,08633.1324,W,1,,,225.9,M,,M,,*7C
$GPRMC,043735.0,A,3443.4897,N,08633.1324,W,,,210119,,*15
$GPGGA,043805.0,3443.4897,N,08633.1320,W,1,,,225.3,M,,M,,*7E
$GPRMC,043805.0,A,3443.4897,N,08633.1320,W,,,210119,,*1D
$GPGGA,043835.0,3443.4897,N,08633.1320,W,1,,,225.3,M,,M,,*7D
$GPRMC,043835.0,A,3443.4897,N,08633.1320,W,,,210119,,*1E
$GPGGA,043928.0,3443.4961,N,08633.1247,W,1,,,211.8,M,,M,,*74
$GPRMC,043928.0,A,3443.4961,N,08633.1247,W,,,210119,,*1B
$GPGGA,043958.0,3443.4919,N,08633.1273,W,1,,,208.5,M,,M,,*7E
$GPRMC,043958.0,A,3443.4919,N,08633.1273,W,,,210119,,*14
$GPGGA,044028.0,3443.4924,N,08633.1273,W,1,,,208.4,M,,M,,*78
$GPRMC,044028.0,A,3443.4924,N,08633.1273,W,,,210119,,*13
$GPGGA,044058.0,3443.4927,N,08633.1280,W,1,,,213.2,M,,M,,*7C
$GPRMC,044058.0,A,3443.4927,N,08633.1280,W,,,210119,,*1B
$GPGGA,044128.0,3443.4924,N,08633.1282,W,1,,,214.1,M,,M,,*7F
$GPRMC,044128.0,A,3443.4924,N,08633.1282,W,,,210119,,*1C
$GPGGA,044158.0,3443.4923,N,08633.1290,W,1,,,216.9,M,,M,,*76
$GPRMC,044158.0,A,3443.4923,N,08633.1290,W,,,210119,,*1F
$GPGGA,044228.0,3443.4922,N,08633.1305,W,1,,,222.2,M,,M,,*72
$GPRMC,044228.0,A,3443.4922,N,08633.1305,W,,,210119,,*17
$GPGGA,044258.0,3443.4922,N,08633.1306,W,1,,,221.5,M,,M,,*72
$GPRMC,044258.0,A,3443.4922,N,08633.1306,W,,,210119,,*13
$GPGGA,044328.0,3443.4923,N,08633.1306,W,1,,,222.2,M,,M,,*71
$GPRMC,044328.0,A,3443.4923,N,08633.1306,W,,,210119,,*14
$GPGGA,044358.0,3443.4923,N,08633.1307,W,1,,,222.5,M,,M,,*70
$GPRMC,044358.0,A,3443.4923,N,08633.1307,W,,,210119,,*12
$GPGGA,044428.0,3443.4923,N,08633.1308,W,1,,,223.6,M,,M,,*7D
$GPRMC,044428.0,A,3443.4923,N,08633.1308,W,,,210119,,*1D
$GPGGA,044458.0,3443.4924,N,08633.1309,W,1,,,224.1,M,,M,,*7C
$GPRMC,044458.0,A,3443.4924,N,08633.1309,W,,,210119,,*1C
$GPGGA,044527.6,3443.4922,N,08633.1304,W,1,,,225.4,M,,M,,*7C
$GPRMC,044527.6,A,3443.4922,N,08633.1304,W,,,210119,,*18
$GPGGA,044557.0,3443.4815,N,08633.1160,W,1,,,225.5,M,,M,,*79
$GPRMC,044557.0,A,3443.4815,N,08633.1160,W,,,210119,,*1C
$GPGGA,044627.0,3443.4822,N,08633.1168,W,1,,,217.9,M,,M,,*7C
$GPRMC,044627.0,A,3443.4822,N,08633.1168,W,,,210119,,*14
$GPGGA,044657.0,3443.4827,N,08633.1175,W,1,,,217.7,M,,M,,*7C
$GPRMC,044657.0,A,3443.4827,N,08633.1175,W,,,210119,,*1A
$GPGGA,044727.0,3443.4830,N,08633.1181,W,1,,,217.3,M,,M,,*73
$GPRMC,044727.0,A,3443.4830,N,08633.1181,W,,,210119,,*11
$GPGGA,045458.2,3443.4895,N,08633.1104,W,1,,,242.7,M,,M,,*7D
$GPRMC,045458.2,A,3443.4895,N,08633.1104,W,,,210119,,*1B
$GPGGA,045528.0,3443.4927,N,08633.1387,W,1,,,237.3,M,,M,,*7E
$GPRMC,045528.0,A,3443.4927,N,08633.1387,W,,,210119,,*1E
$GPGGA,045558.0,3443.4928,N,08633.1386,W,1,,,237.3,M,,M,,*77
$GPRMC,045558.0,A,3443.4928,N,08633.1386,W,,,210119,,*17
$GPGGA,045628.0,3443.4929,N,08633.1384,W,1,,,237.3,M,,M,,*70
$GPRMC,045628.0,A,3443.4929,N,08633.1384,W,,,210119,,*10
$GPGGA,045658.0,3443.4929,N,08633.1384,W,1,,,238.0,M,,M,,*7B
$GPRMC,045658.0,A,3443.4929,N,08633.1384,W,,,210119,,*17
$GPGGA,045728.0,3443.4912,N,08633.1390,W,1,,,234.1,M,,M,,*7D
$GPRMC,045728.0,A,3443.4912,N,08633.1390,W,,,210119,,*1C
$GPGGA,045758.0,3443.4912,N,08633.1398,W,1,,,231.7,M,,M,,*71
$GPRMC,045758.0,A,3443.4912,N,08633.1398,W,,,210119,,*13
$GPGGA,045828.0,3443.4913,N,08633.1395,W,1,,,230.2,M,,M,,*71
$GPRMC,045828.0,A,3443.4913,N,08633.1395,W,,,210119,,*17
$GPGGA,045858.0,3443.4906,N,08633.1414,W,1,,,232.4,M,,M,,*78
$GPRMC,045858.0,A,3443.4906,N,08633.1414,W,,,210119,,*1A
$GPGGA,045928.0,3443.4906,N,08633.1404,W,1,,,232.3,M,,M,,*78
$GPRMC,045928.0,A,3443.4906,N,08633.1404,W,,,210119,,*1D
$GPGGA,045958.0,3443.4906,N,08633.1373,W,1,,,239.8,M,,M,,*78
$GPRMC,045958.0,A,3443.4906,N,08633.1373,W,,,210119,,*1D
$GPGGA,050028.0,3443.4907,N,08633.1381,W,1,,,231.2,M,,M,,*7C
$GPRMC,050028.0,A,3443.4907,N,08633.1381,W,,,210119,,*1B
$GPGGA,050058.0,3443.4907,N,08633.1358,W,1,,,228.6,M,,M,,*73
$GPRMC,050058.0,A,3443.4907,N,08633.1358,W,,,210119,,*18
$GPGGA,050128.0,3443.4901,N,08633.1350,W,1,,,224.1,M,,M,,*70
$GPRMC,050128.0,A,3443.4901,N,08633.1350,W,,,210119,,*10
$GPGGA,050158.0,3443.4902,N,08633.1349,W,1,,,224.1,M,,M,,*7C
$GPRMC,050158.0,A,3443.4902,N,08633.1349,W,,,210119,,*1C
$GPGGA,050228.0,3443.4903,N,08633.1348,W,1,,,223.4,M,,M,,*7A
$GPRMC,050228.0,A,3443.4903,N,08633.1348,W,,,210119,,*18
$GPGGA,050258.0,3443.4903,N,08633.1341,W,1,,,225.6,M,,M,,*70
$GPRMC,050258.0,A,3443.4903,N,08633.1341,W,,,210119,,*16
$GPGGA,050328.0,3443.4888,N,08633.1335,W,1,,,233.5,M,,M,,*73
$GPRMC,050328.0,A,3443.4888,N,08633.1335,W,,,210119,,*11
$GPGGA,050358.0,3443.4883,N,08633.1328,W,1,,,233.1,M,,M,,*77
$GPRMC,050358.0,A,3443.4883,N,08633.1328,W,,,210119,,*11
$GPGGA,050428.0,3443.4884,N,08633.1327,W,1,,,230.4,M,,M,,*79
$GPRMC,050428.0,A,3443.4884,N,08633.1327,W,,,210119,,*19
$GPGGA,050458.2,3443.4884,N,08633.1326,W,1,,,230.0,M,,M,,*79
$GPRMC,050458.2,A,3443.4884,N,08633.1326,W,,,210119,,*1D
$GPGGA,050528.0,3443.4885,N,08633.1325,W,1,,,230.0,M,,M,,*7F
$GPRMC,050528.0,A,3443.4885,N,08633.1325,W,,,210119,,*1B
$GPGGA,050558.0,3443.4913,N,08633.1312,W,1,,,238.9,M,,M,,*73
$GPRMC,050558.0,A,3443.4913,N,08633.1312,W,,,210119,,*16
$GPGGA,050628.0,3443.4913,N,08633.1312,W,1,,,238.1,M,,M,,*7F
$GPRMC,050628.0,A,3443.4913,N,08633.1312,W,,,210119,,*12
$GPGGA,050658.0,3443.4909,N,08633.1304,W,1,,,240.2,M,,M,,*78
$GPRMC,050658.0,A,3443.4909,N,08633.1304,W,,,210119,,*19
$GPGGA,050728.0,3443.4928,N,08633.1293,W,1,,,243.4,M,,M,,*77
$GPRMC,050728.0,A,3443.4928,N,08633.1293,W,,,210119,,*13
$GPGGA,050758.0,3443.4928,N,08633.1293,W,1,,,239.4,M,,M,,*7D
$GPRMC,050758.0,A,3443.4928,N,08633.1293,W,,,210119,,*14
$GPGGA,050828.0,3443.4929,N,08633.1293,W,1,,,236.0,M,,M,,*7F
$GPRMC,050828.0,A,3443.4929,N,08633.1293,W,,,210119,,*1D
$GPGGA,050858.0,3443.4929,N,08633.1292,W,1,,,235.0,M,,M,,*7A
$GPRMC,050858.0,A,3443.4929,N,08633.1292,W,,,210119,,*1B
$GPGGA,050928.0,3443.4929,N,08633.1291,W,1,,,234.6,M,,M,,*78
$GPRMC,050928.0,A,3443.4929,N,08633.1291,W,,,210119,,*1E
$GPGGA,050958.0,3443.4925,N,08633.1292,W,1,,,232.8,M,,M,,*78
$GPRMC,050958.0,A,3443.4925,N,08633.1292,W,,,210119,,*16
$GPGGA,051028.0,3443.4924,N,08633.1290,W,1,,,231.9,M,,M,,*76
$GPRMC,051028.0,A,3443.4924,N,08633.1290,W,,,210119,,*1A
$GPGGA,051058.0,3443.4840,N,08633.1245,W,1,,,227.3,M,,M,,*77
$GPRMC,051058.0,A,3443.4840,N,08633.1245,W,,,210119,,*16
$GPGGA,051128.0,3443.4841,N,08633.1245,W,1,,,226.5,M,,M,,*77
$GPRMC,051128.0,A,3443.4841,N,08633.1245,W,,,210119,,*11
$GPGGA,051158.0,3443.4853,N,08633.1251,W,1,,,225.1,M,,M,,*71
$GPRMC,051158.0,A,3443.4853,N,08633.1251,W,,,210119,,*10
$GPGGA,051228.3,3443.4740,N,08633.1205,W,1,,,249.5,M,,M,,*74
$GPRMC,051228.3,A,3443.4740,N,08633.1205,W,,,210119,,*1B
$GPGGA,051328.0,3443.4912,N,08633.1269,W,1,,,236.4,M,,M,,*7C
$GPRMC,051328.0,A,3443.4912,N,08633.1269,W,,,210119,,*1A
$GPGGA,051358.0,3443.4887,N,08633.1332,W,1,,,206.1,M,,M,,*7F
$GPRMC,051358.0,A,3443.4887,N,08633.1332,W,,,210119,,*1F
$GPGGA,051428.0,3443.4818,N,08633.1302,W,1,,,219.6,M,,M,,*73
$GPRMC,051428.0,A,3443.4818,N,08633.1302,W,,,210119,,*1A
$GPGGA,051458.0,3443.4831,N,08633.1295,W,1,,,230.1,M,,M,,*7C
$GPRMC,051458.0,A,3443.4831,N,08633.1295,W,,,210119,,*19
$GPGGA,051528.0,3443.4858,N,08633.1287,W,1,,,228.3,M,,M,,*7D
$GPRMC,051528.0,A,3443.4858,N,08633.1287,W,,,210119,,*13
$GPGGA,051558.0,3443.4896,N,08633.1250,W,1,,,231.2,M,,M,,*7B
$GPRMC,051558.0,A,3443.4896,N,08633.1250,W,,,210119,,*1C
$GPGGA,051628.0,3443.4908,N,08633.1268,W,1,,,236.0,M,,M,,*77
$GPRMC,051628.0,A,3443.4908,N,08633.1268,W,,,210119,,*15
$GPGGA,051658.0,3443.4915,N,08633.1273,W,1,,,248.0,M,,M,,*7F
$GPRMC,051658.0,A,3443.4915,N,08633.1273,W,,,210119,,*14
$GPGGA,051728.0,3443.4918,N,08633.1273,W,1,,,243.8,M,,M,,*77
$GPRMC,051728.0,A,3443.4918,N,08633.1273,W,,,210119,,*1F
$GPGGA,051833.2,3443.4921,N,08633.1191,W,1,,,202.8,M,,M,,*70
$GPRMC,051833.2,A,3443.4921,N,08633.1191,W,,,210119,,*1D
$GPGGA,051908.0,3443.4925,N,08633.1313,W,1,,,250.2,M,,M,,*7A
$GPRMC,051908.0,A,3443.4925,N,08633.1313,W,,,210119,,*1A
$GPGGA,051938.0,3443.4929,N,08633.1313,W,1,,,249.7,M,,M,,*78
$GPRMC,051938.0,A,3443.4929,N,08633.1313,W,,,210119,,*15
$GPGGA,052008.0,3443.4920,N,08633.1291,W,1,,,234.6,M,,M,,*78
$GPRMC,052008.0,A,3443.4920,N,08633.1291,W,,,210119,,*1E
$GPGGA,052038.0,3443.4920,N,08633.1291,W,1,,,232.2,M,,M,,*79
$GPRMC,052038.0,A,3443.4920,N,08633.1291,W,,,210119,,*1D
$GPGGA,052108.0,3443.4920,N,08633.1291,W,1,,,230.0,M,,M,,*7B
$GPRMC,052108.0,A,3443.4920,N,08633.1291,W,,,210119,,*1F
$GPGGA,052138.0,3443.4920,N,08633.1291,W,1,,,229.3,M,,M,,*73
$GPRMC,052138.0,A,3443.4920,N,08633.1291,W,,,210119,,*1C
$GPGGA,052208.0,3443.4915,N,08633.1288,W,1,,,228.1,M,,M,,*7E
$GPRMC,052208.0,A,3443.4915,N,08633.1288,W,,,210119,,*12
$GPGGA,052238.0,3443.4915,N,08633.1287,W,1,,,227.8,M,,M,,*74
$GPRMC,052238.0,A,3443.4915,N,08633.1287,W,,,210119,,*1E
$GPGGA,052308.0,3443.4914,N,08633.1287,W,1,,,227.1,M,,M,,*7E
$GPRMC,052308.0,A,3443.4914,N,08633.1287,W,,,210119,,*1D
$GPGGA,052338.0,3443.4914,N,08633.1287,W,1,,,226.6,M,,M,,*7B
$GPRMC,052338.0,A,3443.4914,N,08633.1287,W,,,210119,,*1E
$GPGGA,052408.0,3443.4914,N,08633.1287,W,1,,,227.2,M,,M,,*7A
$GPRMC,052408.0,A,3443.4914,N,08633.1287,W,,,210119,,*1A
$GPGGA,052438.0,3443.4915,N,08633.1291,W,1,,,229.5,M,,M,,*76
$GPRMC,052438.0,A,3443.4915,N,08633.1291,W,,,210119,,*1F
$GPGGA,052508.0,3443.4915,N,08633.1292,W,1,,,232.4,M,,M,,*7C
$GPRMC,052508.0,A,3443.4915,N,08633.1292,W,,,210119,,*1E
$GPGGA,052538.0,3443.4915,N,08633.1292,W,1,,,235.9,M,,M,,*75
$GPRMC,052538.0,A,3443.4915,N,08633.1292,W,,,210119,,*1D
$GPGGA,052608.0,3443.4914,N,08633.1287,W,1,,,237.4,M,,M,,*7F
$GPRMC,052608.0,A,3443.4914,N,08633.1287,W,,,210119,,*18
$GPGGA,052638.0,3443.4911,N,08633.1284,W,1,,,235.8,M,,M,,*74
$GPRMC,052638.0,A,3443.4911,N,08633.1284,W,,,210119,,*1D
$GPGGA,052708.0,3443.4908,N,08633.1283,W,1,,,234.8,M,,M,,*78
$GPRMC,052708.0,A,3443.4908,N,08633.1283,W,,,210119,,*10
$GPGGA,052738.0,3443.4909,N,08633.1284,W,1,,,233.8,M,,M,,*7A
$GPRMC,052738.0,A,3443.4909,N,08633.1284,W,,,210119,,*15
$GPGGA,052808.0,3443.4910,N,08633.1286,W,1,,,232.1,M,,M,,*74
$GPRMC,052808.0,A,3443.4910,N,08633.1286,W,,,210119,,*13
$GPGGA,052838.0,3443.4912,N,08633.1285,W,1,,,230.6,M,,M,,*73
$GPRMC,052838.0,A,3443.4912,N,08633.1285,W,,,210119,,*11
$GPGGA,052908.0,3443.4911,N,08633.1281,W,1,,,231.2,M,,M,,*73
$GPRMC,052908.0,A,3443.4911,N,08633.1281,W,,,210119,,*14
$GPGGA,052938.0,3443.4915,N,08633.1277,W,1,,,232.3,M,,M,,*7F
$GPRMC,052938.0,A,3443.4915,N,08633.1277,W,,,210119,,*1A
$GPGGA,053008.0,3443.4916,N,08633.1276,W,1,,,231.6,M,,M,,*70
$GPRMC,053008.0,A,3443.4916,N,08633.1276,W,,,210119,,*13
$GPGGA,053038.0,3443.4912,N,08633.1273,W,1,,,231.1,M,,M,,*75
$GPRMC,053038.0,A,3443.4912,N,08633.1273,W,,,210119,,*11
$GPGGA,053108.0,3443.4908,N,08633.1271,W,1,,,230.8,M,,M,,*76
$GPRMC,053108.0,A,3443.4908,N,08633.1271,W,,,210119,,*1A
$GPGGA,053138.0,3443.4911,N,08633.1283,W,1,,,214.9,M,,M,,*77
$GPRMC,053138.0,A,3443.4911,N,08633.1283,W,,,210119,,*1C
$GPGGA,053208.0,3443.4891,N,08633.1314,W,1,,,235.7,M,,M,,*7C
$GPRMC,053208.0,A,3443.4891,N,08633.1314,W,,,210119,,*1A
$GPGGA,053238.0,3443.4892,N,08633.1313,W,1,,,244.4,M,,M,,*7E
$GPRMC,053238.0,A,3443.4892,N,08633.1313,W,,,210119,,*1D
$GPGGA,053308.0,3443.4929,N,08633.1284,W,1,,,247.8,M,,M,,*7D
$GPRMC,053308.0,A,3443.4929,N,08633.1284,W,,,210119,,*11
$GPGGA,053338.0,3443.4916,N,08633.1288,W,1,,,236.8,M,,M,,*78
$GPRMC,053338.0,A,3443.4916,N,08633.1288,W,,,210119,,*12
$GPGGA,053408.0,3443.4916,N,08633.1289,W,1,,,234.1,M,,M,,*76
$GPRMC,053408.0,A,3443.4916,N,08633.1289,W,,,210119,,*17
$GPGGA,053438.0,3443.4924,N,08633.1283,W,1,,,231.3,M,,M,,*79
$GPRMC,053438.0,A,3443.4924,N,08633.1283,W,,,210119,,*1F
$GPGGA,053508.0,3443.4946,N,08633.1213,W,1,,,224.8,M,,M,,*79
$GPRMC,053508.0,A,3443.4946,N,08633.1213,W,,,210119,,*10
$GPGGA,053538.0,3443.4944,N,08633.1216,W,1,,,228.6,M,,M,,*7F
$GPRMC,053538.0,A,3443.4944,N,08633.1216,W,,,210119,,*14
$GPGGA,053608.0,3443.4939,N,08633.1189,W,1,,,224.7,M,,M,,*7D
$GPRMC,053608.0,A,3443.4939,N,08633.1189,W,,,210119,,*1B
$GPGGA,053638.0,3443.4931,N,08633.1155,W,1,,,222.1,M,,M,,*77
$GPRMC,053638.0,A,3443.4931,N,08633.1155,W,,,210119,,*11
$GPGGA,053708.0,3443.4925,N,08633.1115,W,1,,,218.0,M,,M,,*7C
$GPRMC,053708.0,A,3443.4925,N,08633.1115,W,,,210119,,*12
$GPGGA,053738.0,3443.4929,N,08633.1125,W,1,,,214.4,M,,M,,*78
$GPRMC,053738.0,A,3443.4929,N,08633.1125,W,,,210119,,*1E
$GPGGA,053808.0,3443.4897,N,08633.1103,W,1,,,200.0,M,,M,,*75
$GPRMC,053808.0,A,3443.4897,N,08633.1103,W,,,210119,,*12
$GPGGA,053838.0,3443.4970,N,08633.1276,W,1,,,248.5,M,,M,,*76
$GPRMC,053838.0,A,3443.4970,N,08633.1276,W,,,210119,,*18
$GPGGA,053908.0,3443.4922,N,08633.1255,W,1,,,220.9,M,,M,,*70
$GPRMC,053908.0,A,3443.4922,N,08633.1255,W,,,210119,,*1C
$GPGGA,053938.0,3443.4921,N,08633.1257,W,1,,,221.3,M,,M,,*79
$GPRMC,053938.0,A,3443.4921,N,08633.1257,W,,,210119,,*1E
$GPGGA,054008.0,3443.4921,N,08633.1257,W,1,,,220.3,M,,M,,*75
$GPRMC,054008.0,A,3443.4921,N,08633.1257,W,,,210119,,*13
$GPGGA,054038.0,3443.4932,N,08633.1254,W,1,,,224.5,M,,M,,*75
$GPRMC,054038.0,A,3443.4932,N,08633.1254,W,,,210119,,*11
$GPGGA,054108.0,3443.4931,N,08633.1263,W,1,,,225.8,M,,M,,*7C
$GPRMC,054108.0,A,3443.4931,N,08633.1263,W,,,210119,,*14
$GPGGA,054138.0,3443.4933,N,08633.1238,W,1,,,220.5,M,,M,,*7B
$GPRMC,054138.0,A,3443.4933,N,08633.1238,W,,,210119,,*1B
$GPGGA,054208.0,3443.4929,N,08633.1224,W,1,,,217.1,M,,M,,*7D
$GPRMC,054208.0,A,3443.4929,N,08633.1224,W,,,210119,,*1D
$GPGGA,054238.0,3443.4944,N,08633.1286,W,1,,,228.2,M,,M,,*72
$GPRMC,054238.0,A,3443.4944,N,08633.1286,W,,,210119,,*1D
$GPGGA,054308.1,3443.4944,N,08633.1302,W,1,,,230.7,M,,M,,*70
$GPRMC,054308.1,A,3443.4944,N,08633.1302,W,,,210119,,*13
$GPGGA,054338.0,3443.4947,N,08633.1348,W,1,,,235.5,M,,M,,*78
$GPRMC,054338.0,A,3443.4947,N,08633.1348,W,,,210119,,*1C
$GPGGA,054408.0,3443.4947,N,08633.1341,W,1,,,230.1,M,,M,,*74
$GPRMC,054408.0,A,3443.4947,N,08633.1341,W,,,210119,,*11
$GPGGA,054438.0,3443.4945,N,08633.1333,W,1,,,227.4,M,,M,,*73
$GPRMC,054438.0,A,3443.4945,N,08633.1333,W,,,210119,,*15
$GPGGA,054508.0,3443.4943,N,08633.1328,W,1,,,223.8,M,,M,,*75
$GPRMC,054508.0,A,3443.4943,N,08633.1328,W,,,210119,,*1B
$GPGGA,054538.0,3443.4943,N,08633.1328,W,1,,,223.5,M,,M,,*7B
$GPRMC,054538.0,A,3443.4943,N,08633.1328,W,,,210119,,*18
$GPGGA,054608.0,3443.4944,N,08633.1322,W,1,,,233.5,M,,M,,*77
$GPRMC,054608.0,A,3443.4944,N,08633.1322,W,,,210119,,*15
$GPGGA,054638.0,3443.4941,N,08633.1249,W,1,,,249.1,M,,M,,*74
$GPRMC,054638.0,A,3443.4941,N,08633.1249,W,,,210119,,*1F
$GPGGA,054708.1,3443.4909,N,08633.1251,W,1,,,202.4,M,,M,,*78
$GPRMC,054708.1,A,3443.4909,N,08633.1251,W,,,210119,,*19
$GPGGA,054738.0,3443.4874,N,08633.1232,W,1,,,210.5,M,,M,,*76
$GPRMC,054738.0,A,3443.4874,N,08633.1232,W,,,210119,,*15
$GPGGA,054808.0,3443.4881,N,08633.1235,W,1,,,210.8,M,,M,,*7A
$GPRMC,054808.0,A,3443.4881,N,08633.1235,W,,,210119,,*14
$GPGGA,054838.0,3443.4877,N,08633.1230,W,1,,,210.9,M,,M,,*74
$GPRMC,054838.0,A,3443.4877,N,08633.1230,W,,,210119,,*1B
$GPGGA,054908.0,3443.4891,N,08633.1230,W,1,,,210.0,M,,M,,*77
$GPRMC,054908.0,A,3443.4891,N,08633.1230,W,,,210119,,*11
$GPGGA,054938.0,3443.4899,N,08633.1232,W,1,,,213.9,M,,M,,*74
$GPRMC,054938.0,A,3443.4899,N,08633.1232,W,,,210119,,*18
$GPGGA,055008.0,3443.4901,N,08633.1232,W,1,,,219.4,M,,M,,*78
$GPRMC,055008.0,A,3443.4901,N,08633.1232,W,,,210119,,*13
$GPGGA,055038.0,3443.4904,N,08633.1232,W,1,,,217.7,M,,M,,*73
$GPRMC,055038.0,A,3443.4904,N,08633.1232,W,,,210119,,*15
$GPGGA,055108.0,3443.4905,N,08633.1232,W,1,,,218.2,M,,M,,*7A
$GPRMC,055108.0,A,3443.4905,N,08633.1232,W,,,210119,,*16
$GPGGA,055138.0,3443.4906,N,08633.1232,W,1,,,216.5,M,,M,,*73
$GPRMC,055138.0,A,3443.4906,N,08633.1232,W,,,210119,,*16
$GPGGA,055208.0,3443.4904,N,08633.1232,W,1,,,215.3,M,,M,,*74
$GPRMC,055208.0,A,3443.4904,N,08633.1232,W,,,210119,,*14
$GPGGA,055238.0,3443.4904,N,08633.1232,W,1,,,215.0,M,,M,,*74
$GPRMC,055238.0,A,3443.4904,N,08633.1232,W,,,210119,,*17
$GPGGA,055308.0,3443.4905,N,08633.1231,W,1,,,213.4,M,,M,,*76
$GPRMC,055308.0,A,3443.4905,N,08633.1231,W,,,210119,,*17
$GPGGA,055338.0,3443.4905,N,08633.1231,W,1,,,214.4,M,,M,,*72
$GPRMC,055338.0,A,3443.4905,N,08633.1231,W,,,210119,,*14
$GPGGA,055408.0,3443.4905,N,08633.1232,W,1,,,217.4,M,,M,,*76
$GPRMC,055408.0,A,3443.4905,N,08633.1232,W,,,210119,,*13
$GPGGA,055438.0,3443.4886,N,08633.1225,W,1,,,219.9,M,,M,,*7A
$GPRMC,055438.0,A,3443.4886,N,08633.1225,W,,,210119,,*1C
$GPGGA,055508.0,3443.4913,N,08633.1225,W,1,,,227.5,M,,M,,*74
$GPRMC,055508.0,A,3443.4913,N,08633.1225,W,,,210119,,*13
$GPGGA,055538.0,3443.4913,N,08633.1226,W,1,,,227.7,M,,M,,*76
$GPRMC,055538.0,A,3443.4913,N,08633.1226,W,,,210119,,*13
$GPGGA,055608.0,3443.4892,N,08633.1221,W,1,,,216.9,M,,M,,*75
$GPRMC,055608.0,A,3443.4892,N,08633.1221,W,,,210119,,*1C
$GPGGA,055638.0,3443.4908,N,08633.1240,W,1,,,222.3,M,,M,,*7E
$GPRMC,055638.0,A,3443.4908,N,08633.1240,W,,,210119,,*1A
$GPGGA,055708.0,3443.4913,N,08633.1239,W,1,,,230.3,M,,M,,*7B
$GPRMC,055708.0,A,3443.4913,N,08633.1239,W,,,210119,,*1C
$GPGGA,055738.0,3443.4913,N,08633.1239,W,1,,,236.2,M,,M,,*7F
$GPRMC,055738.0,A,3443.4913,N,08633.1239,W,,,210119,,*1F
$GPGGA,055808.0,3443.4916,N,08633.1238,W,1,,,236.5,M,,M,,*70
$GPRMC,055808.0,A,3443.4916,N,08633.1238,W,,,210119,,*17
$GPGGA,055838.0,3443.4917,N,08633.1248,W,1,,,240.9,M,,M,,*78
$GPRMC,055838.0,A,3443.4917,N,08633.1248,W,,,210119,,*12
$GPGGA,055908.0,3443.4916,N,08633.1251,W,1,,,238.8,M,,M,,*7D
$GPRMC,055908.0,A,3443.4916,N,08633.1251,W,,,210119,,*19
$GPGGA,055938.0,3443.4917,N,08633.1259,W,1,,,237.8,M,,M,,*78
$GPRMC,055938.0,A,3443.4917,N,08633.1259,W,,,210119,,*13
$GPGGA,060008.0,3443.4917,N,08633.1261,W,1,,,236.1,M,,M,,*77
$GPRMC,060008.0,A,3443.4917,N,08633.1261,W,,,210119,,*14
$GPGGA,060038.0,3443.4922,N,08633.1262,W,1,,,232.8,M,,M,,*7C
$GPRMC,060038.0,A,3443.4922,N,08633.1262,W,,,210119,,*12
$GPGGA,060108.0,3443.4922,N,08633.1262,W,1,,,228.2,M,,M,,*7F
$GPRMC,060108.0,A,3443.4922,N,08633.1262,W,,,210119,,*10
$GPGGA,060138.0,3443.4923,N,08633.1263,W,1,,,226.2,M,,M,,*72
$GPRMC,060138.0,A,3443.4923,N,08633.1263,W,,,210119,,*13
$GPGGA,060208.0,3443.4914,N,08633.1264,W,1,,,214.4,M,,M,,*76
$GPRMC,060208.0,A,3443.4914,N,08633.1264,W,,,210119,,*10
$GPGGA,060238.0,3443.4915,N,08633.1264,W,1,,,214.1,M,,M,,*71
$GPRMC,060238.0,A,3443.4915,N,08633.1264,W,,,210119,,*12
$GPGGA,060308.0,3443.4952,N,08633.1252,W,1,,,221.9,M,,M,,*7B
$GPRMC,060308.0,A,3443.4952,N,08633.1252,W,,,210119,,*16
$GPGGA,060338.0,3443.4880,N,08633.1249,W,1,,,211.3,M,,M,,*75
$GPRMC,060338.0,A,3443.4880,N,08633.1249,W,,,210119,,*11
$GPGGA,060408.0,3443.4877,N,08633.1255,W,1,,,194.5,M,,M,,*7C
$GPRMC,060408.0,A,3443.4877,N,08633.1255,W,,,210119,,*10
$GPGGA,060438.0,3443.4850,N,08633.1265,W,1,,,195.1,M,,M,,*7C
$GPRMC,060438.0,A,3443.4850,N,08633.1265,W,,,210119,,*15
$GPGGA,060508.0,3443.4833,N,08633.1267,W,1,,,194.6,M,,M,,*7F
$GPRMC,060508.0,A,3443.4833,N,08633.1267,W,,,210119,,*10
$GPGGA,060538.0,3443.4923,N,08633.1252,W,1,,,226.0,M,,M,,*76
$GPRMC,060538.0,A,3443.4923,N,08633.1252,W,,,210119,,*15
$GPGGA,060608.0,3443.4921,N,08633.1221,W,1,,,197.5,M,,M,,*7C
$GPRMC,060608.0,A,3443.4921,N,08633.1221,W,,,210119,,*13
$GPGGA,060638.0,3443.4866,N,08633.1262,W,1,,,228.0,M,,M,,*78
$GPRMC,060638.0,A,3443.4866,N,08633.1262,W,,,210119,,*15
$GPGGA,060708.0,3443.4899,N,08633.1255,W,1,,,229.9,M,,M,,*76
$GPRMC,060708.0,A,3443.4899,N,08633.1255,W,,,210119,,*13
$GPGGA,060738.0,3443.4885,N,08633.1273,W,1,,,228.6,M,,M,,*72
$GPRMC,060738.0,A,3443.4885,N,08633.1273,W,,,210119,,*19
$GPGGA,060808.0,3443.4983,N,08633.1302,W,1,,,219.1,M,,M,,*7B
$GPRMC,060808.0,A,3443.4983,N,08633.1302,W,,,210119,,*15
$GPGGA,060838.0,3443.5030,N,08633.1274,W,1,,,252.8,M,,M,,*7E
$GPRMC,060838.0,A,3443.5030,N,08633.1274,W,,,210119,,*16
$GPGGA,060908.0,3443.4913,N,08633.1296,W,1,,,230.5,M,,M,,*70
$GPRMC,060908.0,A,3443.4913,N,08633.1296,W,,,210119,,*11
$GPGGA,060938.0,3443.4927,N,08633.1294,W,1,,,244.5,M,,M,,*75
$GPRMC,060938.0,A,3443.4927,N,08633.1294,W,,,210119,,*17
$GPGGA,061008.0,3443.4939,N,08633.1295,W,1,,,240.5,M,,M,,*74
$GPRMC,061008.0,A,3443.4939,N,08633.1295,W,,,210119,,*12
$GPGGA,061038.0,3443.4974,N,08633.1278,W,1,,,207.6,M,,M,,*7D
$GPRMC,061038.0,A,3443.4974,N,08633.1278,W,,,210119,,*1B
$GPGGA,061108.0,3443.4975,N,08633.1287,W,1,,,234.2,M,,M,,*7A
$GPRMC,061108.0,A,3443.4975,N,08633.1287,W,,,210119,,*18
$GPGGA,061138.0,3443.4983,N,08633.1289,W,1,,,246.8,M,,M,,*71
$GPRMC,061138.0,A,3443.4983,N,08633.1289,W,,,210119,,*1C
$GPGGA,061208.0,3443.4982,N,08633.1288,W,1,,,246.1,M,,M,,*78
$GPRMC,061208.0,A,3443.4982,N,08633.1288,W,,,210119,,*1C
$GPGGA,061238.0,3443.4981,N,08633.1287,W,1,,,248.2,M,,M,,*7A
$GPRMC,061238.0,A,3443.4981,N,08633.1287,W,,,210119,,*13
$GPGGA,061308.0,3443.4974,N,08633.1276,W,1,,,247.2,M,,M,,*73
$GPRMC,061308.0,A,3443.4974,N,08633.1276,W,,,210119,,*15
$GPGGA,061338.0,3443.4959,N,08633.1266,W,1,,,237.8,M,,M,,*73
$GPRMC,061338.0,A,3443.4959,N,08633.1266,W,,,210119,,*18
$GPGGA,061408.0,3443.4959,N,08633.1263,W,1,,,238.6,M,,M,,*73
$GPRMC,061408.0,A,3443.4959,N,08633.1263,W,,,210119,,*19
$GPGGA,061438.0,3443.4954,N,08633.1261,W,1,,,246.7,M,,M,,*77
$GPRMC,061438.0,A,3443.4954,N,08633.1261,W,,,210119,,*15
$GPGGA,061508.0,3443.4945,N,08633.1271,W,1,,,242.2,M,,M,,*75
$GPRMC,061508.0,A,3443.4945,N,08633.1271,W,,,210119,,*16
$GPGGA,061538.0,3443.4944,N,08633.1272,W,1,,,244.2,M,,M,,*72
$GPRMC,061538.0,A,3443.4944,N,08633.1272,W,,,210119,,*17
$GPGGA,061608.0,3443.4925,N,08633.1274,W,1,,,237.2,M,,M,,*77
$GPRMC,061608.0,A,3443.4925,N,08633.1274,W,,,210119,,*16
$GPGGA,061638.0,3443.4924,N,08633.1275,W,1,,,238.3,M,,M,,*7A
$GPRMC,061638.0,A,3443.4924,N,08633.1275,W,,,210119,,*15
$GPGGA,061708.0,3443.4924,N,08633.1275,W,1,,,235.6,M,,M,,*70
$GPRMC,061708.0,A,3443.4924,N,08633.1275,W,,,210119,,*17
$GPGGA,061738.0,3443.4924,N,08633.1275,W,1,,,235.3,M,,M,,*76
$GPRMC,061738.0,A,3443.4924,N,08633.1275,W,,,210119,,*14
$GPGGA,061808.0,3443.4901,N,08633.1232,W,1,,,236.3,M,,M,,*7D
$GPRMC,061808.0,A,3443.4901,N,08633.1232,W,,,210119,,*1C
$GPGGA,061838.0,3443.4931,N,08633.1289,W,1,,,226.7,M,,M,,*78
$GPRMC,061838.0,A,3443.4931,N,08633.1289,W,,,210119,,*1C
$GPGGA,061908.0,3443.4929,N,08633.1286,W,1,,,223.0,M,,M,,*7E
$GPRMC,061908.0,A,3443.4929,N,08633.1286,W,,,210119,,*18
$GPGGA,061938.0,3443.4933,N,08633.1289,W,1,,,220.9,M,,M,,*73
$GPRMC,061938.0,A,3443.4933,N,08633.1289,W,,,210119,,*1F
$GPGGA,062008.0,3443.4932,N,08633.1289,W,1,,,220.6,M,,M,,*74
$GPRMC,062008.0,A,3443.4932,N,08633.1289,W,,,210119,,*17
$GPGGA,062038.0,3443.4932,N,08633.1286,W,1,,,219.5,M,,M,,*71
$GPRMC,062038.0,A,3443.4932,N,08633.1286,W,,,210119,,*1B
$GPGGA,062108.0,3443.4937,N,08633.1291,W,1,,,218.3,M,,M,,*77
$GPRMC,062108.0,A,3443.4937,N,08633.1291,W,,,210119,,*1A
$GPGGA,062138.0,3443.4987,N,08633.1309,W,1,,,217.8,M,,M,,*7B
$GPRMC,062138.0,A,3443.4987,N,08633.1309,W,,,210119,,*12
$GPGGA,062208.0,3443.4760,N,08633.1269,W,1,,,193.1,M,,M,,*7D
$GPRMC,062208.0,A,3443.4760,N,08633.1269,W,,,210119,,*12
$GPGGA,062238.0,3443.4760,N,08633.1241,W,1,,,200.1,M,,M,,*7D
$GPRMC,062238.0,A,3443.4760,N,08633.1241,W,,,210119,,*1B
$GPGGA,062308.0,3443.4804,N,08633.1279,W,1,,,225.5,M,,M,,*7A
$GPRMC,062308.0,A,3443.4804,N,08633.1279,W,,,210119,,*1F
$GPGGA,062338.0,3443.4801,N,08633.1284,W,1,,,229.1,M,,M,,*76
$GPRMC,062338.0,A,3443.4801,N,08633.1284,W,,,210119,,*1B
