@Olympus/+0900/+0900
$GPGGA,150029.0,3443.4947,N,08633.1283,W,1,,,213.0,M,,M,,*79
$GPRMC,150029.0,A,3443.4947,N,08633.1283,W,,,220119,,*1F
$GPGGA,150059.3,3443.4947,N,08633.1282,W,1,,,213.0,M,,M,,*7C
$GPRMC,150059.3,A,3443.4947,N,08633.1282,W,,,220119,,*1A
$GPGGA,150129.0,3443.4947,N,08633.1281,W,1,,,213.1,M,,M,,*7B
$GPRMC,150129.0,A,3443.4947,N,08633.1281,W,,,220119,,*1C
$GPGGA,150159.0,3443.4946,N,08633.1280,W,1,,,213.3,M,,M,,*7E
$GPRMC,150159.0,A,3443.4946,N,08633.1280,W,,,220119,,*1B
$GPGGA,150229.0,3443.4951,N,08633.1282,W,1,,,212.8,M,,M,,*74
$GPRMC,150229.0,A,3443.4951,N,08633.1282,W,,,220119,,*1B
$GPGGA,150259.1,3443.4951,N,08633.1281,W,1,,,213.0,M,,M,,*78
$GPRMC,150259.1,A,3443.4951,N,08633.1281,W,,,220119,,*1E
$GPGGA,150329.0,3443.4961,N,08633.1288,W,1,,,211.5,M,,M,,*72
$GPRMC,150329.0,A,3443.4961,N,08633.1288,W,,,220119,,*13
$GPGGA,150359.0,3443.4965,N,08633.1291,W,1,,,211.3,M,,M,,*7F
$GPRMC,150359.0,A,3443.4965,N,08633.1291,W,,,220119,,*18
$GPGGA,150429.0,3443.4965,N,08633.1291,W,1,,,211.6,M,,M,,*7A
$GPRMC,150429.0,A,3443.4965,N,08633.1291,W,,,220119,,*18
$GPGGA,150459.0,3443.4965,N,08633.1291,W,1,,,211.8,M,,M,,*73
$GPRMC,150459.0,A,3443.4965,N,08633.1291,W,,,220119,,*1F
$GPGGA,150529.0,3443.4965,N,08633.1290,W,1,,,211.9,M,,M,,*75
$GPRMC,150529.0,A,3443.4965,N,08633.1290,W,,,220119,,*18
$GPGGA,150559.0,3443.4964,N,08633.1290,W,1,,,212.4,M,,M,,*7D
$GPRMC,150559.0,A,3443.4964,N,08633.1290,W,,,220119,,*1E
$GPGGA,150629.0,3443.4964,N,08633.1290,W,1,,,212.7,M,,M,,*7A
$GPRMC,150629.0,A,3443.4964,N,08633.1290,W,,,220119,,*1A
$GPGGA,150659.0,3443.4964,N,08633.1290,W,1,,,212.7,M,,M,,*7D
$GPRMC,150659.0,A,3443.4964,N,08633.1290,W,,,220119,,*1D
$GPGGA,150729.0,3443.4964,N,08633.1289,W,1,,,213.1,M,,M,,*74
$GPRMC,150729.0,A,3443.4964,N,08633.1289,W,,,220119,,*13
$GPGGA,150759.0,3443.5015,N,08633.1279,W,1,,,202.7,M,,M,,*74
$GPRMC,150759.0,A,3443.5015,N,08633.1279,W,,,220119,,*15
$GPGGA,150829.0,3443.5014,N,08633.1278,W,1,,,203.4,M,,M,,*7E
$GPRMC,150829.0,A,3443.5014,N,08633.1278,W,,,220119,,*1D
$GPGGA,150859.0,3443.5020,N,08633.1275,W,1,,,201.6,M,,M,,*73
$GPRMC,150859.0,A,3443.5020,N,08633.1275,W,,,220119,,*10
$GPGGA,150929.0,3443.5011,N,08633.1278,W,1,,,216.7,M,,M,,*7D
$GPRMC,150929.0,A,3443.5011,N,08633.1278,W,,,220119,,*19
$GPGGA,150959.0,3443.5011,N,08633.1278,W,1,,,219.2,M,,M,,*70
$GPRMC,150959.0,A,3443.5011,N,08633.1278,W,,,220119,,*1E
$GPGGA,151029.0,3443.5010,N,08633.1278,W,1,,,219.5,M,,M,,*79
$GPRMC,151029.0,A,3443.5010,N,08633.1278,W,,,220119,,*10
$GPGGA,151059.0,3443.5010,N,08633.1277,W,1,,,220.5,M,,M,,*7B
$GPRMC,151059.0,A,3443.5010,N,08633.1277,W,,,220119,,*18
$GPGGA,151129.0,3443.5010,N,08633.1277,W,1,,,220.7,M,,M,,*7F
$GPRMC,151129.0,A,3443.5010,N,08633.1277,W,,,220119,,*1E
$GPGGA,151159.0,3443.5010,N,08633.1276,W,1,,,221.5,M,,M,,*7A
$GPRMC,151159.0,A,3443.5010,N,08633.1276,W,,,220119,,*18
$GPGGA,151229.0,3443.5009,N,08633.1276,W,1,,,222.4,M,,M,,*74
$GPRMC,151229.0,A,3443.5009,N,08633.1276,W,,,220119,,*14
$GPGGA,151259.0,3443.5009,N,08633.1276,W,1,,,223.4,M,,M,,*72
$GPRMC,151259.0,A,3443.5009,N,08633.1276,W,,,220119,,*13
$GPGGA,151329.0,3443.5008,N,08633.1276,W,1,,,223.9,M,,M,,*78
$GPRMC,151329.0,A,3443.5008,N,08633.1276,W,,,220119,,*14
$GPGGA,151359.0,3443.5008,N,08633.1274,W,1,,,223.4,M,,M,,*70
$GPRMC,151359.0,A,3443.5008,N,08633.1274,W,,,220119,,*11
$GPGGA,151429.0,3443.5006,N,08633.1273,W,1,,,223.3,M,,M,,*7E
$GPRMC,151429.0,A,3443.5006,N,08633.1273,W,,,220119,,*18
$GPGGA,151459.0,3443.5005,N,08633.1273,W,1,,,223.6,M,,M,,*7F
$GPRMC,151459.0,A,3443.5005,N,08633.1273,W,,,220119,,*1C
$GPGGA,151529.0,3443.5005,N,08633.1273,W,1,,,223.8,M,,M,,*77
$GPRMC,151529.0,A,3443.5005,N,08633.1273,W,,,220119,,*1A
$GPGGA,151559.0,3443.5005,N,08633.1274,W,1,,,223.8,M,,M,,*77
$GPRMC,151559.0,A,3443.5005,N,08633.1274,W,,,220119,,*1A
$GPGGA,151629.0,3443.5005,N,08633.1274,W,1,,,223.9,M,,M,,*72
$GPRMC,151629.0,A,3443.5005,N,08633.1274,W,,,220119,,*1E
$GPGGA,151659.0,3443.4995,N,08633.1272,W,1,,,226.0,M,,M,,*7E
$GPRMC,151659.0,A,3443.4995,N,08633.1272,W,,,220119,,*1E
$GPGGA,151729.0,3443.4995,N,08633.1272,W,1,,,226.1,M,,M,,*79
$GPRMC,151729.0,A,3443.4995,N,08633.1272,W,,,220119,,*18
$GPGGA,151759.0,3443.4994,N,08633.1273,W,1,,,226.7,M,,M,,*78
$GPRMC,151759.0,A,3443.4994,N,08633.1273,W,,,220119,,*1F
$GPGGA,151829.0,3443.4994,N,08633.1273,W,1,,,226.7,M,,M,,*70
$GPRMC,151829.0,A,3443.4994,N,08633.1273,W,,,220119,,*17
$GPGGA,151859.0,3443.4998,N,08633.1278,W,1,,,227.3,M,,M,,*75
$GPRMC,151859.0,A,3443.4998,N,08633.1278,W,,,220119,,*17
$GPGGA,151929.0,3443.4998,N,08633.1279,W,1,,,227.4,M,,M,,*75
$GPRMC,151929.0,A,3443.4998,N,08633.1279,W,,,220119,,*10
$GPGGA,151959.0,3443.4994,N,08633.1283,W,1,,,225.9,M,,M,,*74
$GPRMC,151959.0,A,3443.4994,N,08633.1283,W,,,220119,,*1E
$GPGGA,152029.0,3443.4993,N,08633.1283,W,1,,,226.3,M,,M,,*77
$GPRMC,152029.0,A,3443.4993,N,08633.1283,W,,,220119,,*14
$GPGGA,152059.0,3443.4992,N,08633.1283,W,1,,,226.1,M,,M,,*73
$GPRMC,152059.0,A,3443.4992,N,08633.1283,W,,,220119,,*12
$GPGGA,152129.0,3443.4991,N,08633.1282,W,1,,,225.7,M,,M,,*72
$GPRMC,152129.0,A,3443.4991,N,08633.1282,W,,,220119,,*16
$GPGGA,152159.0,3443.4990,N,08633.1281,W,1,,,224.9,M,,M,,*78
$GPRMC,152159.0,A,3443.4990,N,08633.1281,W,,,220119,,*13
$GPGGA,152229.0,3443.4989,N,08633.1280,W,1,,,225.0,M,,M,,*7D
$GPRMC,152229.0,A,3443.4989,N,08633.1280,W,,,220119,,*1E
$GPGGA,152259.0,3443.4988,N,08633.1280,W,1,,,225.2,M,,M,,*79
$GPRMC,152259.0,A,3443.4988,N,08633.1280,W,,,220119,,*18
$GPGGA,152329.0,3443.4988,N,08633.1280,W,1,,,225.6,M,,M,,*7B
$GPRMC,152329.0,A,3443.4988,N,08633.1280,W,,,220119,,*1E
$GPGGA,152359.0,3443.4987,N,08633.1280,W,1,,,225.8,M,,M,,*7D
$GPRMC,152359.0,A,3443.4987,N,08633.1280,W,,,220119,,*16
$GPGGA,152429.0,3443.4986,N,08633.1279,W,1,,,225.6,M,,M,,*74
$GPRMC,152429.0,A,3443.4986,N,08633.1279,W,,,220119,,*11
$GPGGA,152459.0,3443.4984,N,08633.1278,W,1,,,225.2,M,,M,,*74
$GPRMC,152459.0,A,3443.4984,N,08633.1278,W,,,220119,,*15
$GPGGA,152529.0,3443.4984,N,08633.1278,W,1,,,224.8,M,,M,,*79
$GPRMC,152529.0,A,3443.4984,N,08633.1278,W,,,220119,,*13
$GPGGA,152559.0,3443.4983,N,08633.1278,W,1,,,224.5,M,,M,,*74
$GPRMC,152559.0,A,3443.4983,N,08633.1278,W,,,220119,,*13
$GPGGA,152629.0,3443.4983,N,08633.1277,W,1,,,224.4,M,,M,,*7E
$GPRMC,152629.0,A,3443.4983,N,08633.1277,W,,,220119,,*18
$GPGGA,152659.0,3443.4983,N,08633.1277,W,1,,,224.4,M,,M,,*79
$GPRMC,152659.0,A,3443.4983,N,08633.1277,W,,,220119,,*1F
$GPGGA,152729.0,3443.4982,N,08633.1277,W,1,,,224.4,M,,M,,*7E
$GPRMC,152729.0,A,3443.4982,N,08633.1277,W,,,220119,,*18
$GPGGA,152759.0,3443.4982,N,08633.1277,W,1,,,224.5,M,,M,,*78
$GPRMC,152759.0,A,3443.4982,N,08633.1277,W,,,220119,,*1F
$GPGGA,152829.0,3443.4981,N,08633.1277,W,1,,,224.3,M,,M,,*75
$GPRMC,152829.0,A,3443.4981,N,08633.1277,W,,,220119,,*14
$GPGGA,152859.0,3443.4980,N,08633.1277,W,1,,,223.1,M,,M,,*76
$GPRMC,152859.0,A,3443.4980,N,08633.1277,W,,,220119,,*12
$GPGGA,152929.0,3443.4979,N,08633.1277,W,1,,,222.0,M,,M,,*76
$GPRMC,152929.0,A,3443.4979,N,08633.1277,W,,,220119,,*12
$GPGGA,152959.0,3443.4978,N,08633.1277,W,1,,,221.5,M,,M,,*76
$GPRMC,152959.0,A,3443.4978,N,08633.1277,W,,,220119,,*14
$GPGGA,153043.0,3443.4978,N,08633.1277,W,1,,,221.2,M,,M,,*72
$GPRMC,153043.0,A,3443.4978,N,08633.1277,W,,,220119,,*17
$GPGGA,153113.0,3443.4977,N,08633.1278,W,1,,,218.4,M,,M,,*7A
$GPRMC,153113.0,A,3443.4977,N,08633.1278,W,,,220119,,*13
$GPGGA,153143.0,3443.4978,N,08633.1277,W,1,,,217.4,M,,M,,*70
$GPRMC,153143.0,A,3443.4978,N,08633.1277,W,,,220119,,*16
$GPGGA,153213.0,3443.4983,N,08633.1276,W,1,,,217.4,M,,M,,*73
$GPRMC,153213.0,A,3443.4983,N,08633.1276,W,,,220119,,*15
$GPGGA,153243.0,3443.4990,N,08633.1274,W,1,,,217.4,M,,M,,*76
$GPRMC,153243.0,A,3443.4990,N,08633.1274,W,,,220119,,*10
$GPGGA,153313.0,3443.4995,N,08633.1264,W,1,,,217.2,M,,M,,*70
$GPRMC,153313.0,A,3443.4995,N,08633.1264,W,,,220119,,*10
$GPGGA,153343.0,3443.5005,N,08633.1255,W,1,,,217.2,M,,M,,*76
$GPRMC,153343.0,A,3443.5005,N,08633.1255,W,,,220119,,*16
$GPGGA,153413.0,3443.5008,N,08633.1251,W,1,,,217.2,M,,M,,*7D
$GPRMC,153413.0,A,3443.5008,N,08633.1251,W,,,220119,,*1D
$GPGGA,153443.0,3443.5020,N,08633.1252,W,1,,,217.0,M,,M,,*73
$GPRMC,153443.0,A,3443.5020,N,08633.1252,W,,,220119,,*11
$GPGGA,153513.0,3443.5034,N,08633.1255,W,1,,,216.2,M,,M,,*76
$GPRMC,153513.0,A,3443.5034,N,08633.1255,W,,,220119,,*17
$GPGGA,153543.0,3443.5043,N,08633.1244,W,1,,,215.1,M,,M,,*73
$GPRMC,153543.0,A,3443.5043,N,08633.1244,W,,,220119,,*12
$GPGGA,153613.0,3443.5035,N,08633.1225,W,1,,,213.8,M,,M,,*7C
$GPRMC,153613.0,A,3443.5035,N,08633.1225,W,,,220119,,*12
$GPGGA,153643.0,3443.5048,N,08633.1217,W,1,,,212.2,M,,M,,*79
$GPRMC,153643.0,A,3443.5048,N,08633.1217,W,,,220119,,*1C
$GPGGA,153713.0,3443.5049,N,08633.1209,W,1,,,212.2,M,,M,,*73
$GPRMC,153713.0,A,3443.5049,N,08633.1209,W,,,220119,,*16
$GPGGA,153743.0,3443.5095,N,08633.1204,W,1,,,212.2,M,,M,,*7A
$GPRMC,153743.0,A,3443.5095,N,08633.1204,W,,,220119,,*1F
$GPGGA,153813.0,3443.5114,N,08633.1193,W,1,,,207.2,M,,M,,*71
$GPRMC,153813.0,A,3443.5114,N,08633.1193,W,,,220119,,*10
$GPGGA,153843.0,3443.5122,N,08633.1191,W,1,,,204.4,M,,M,,*76
$GPRMC,153843.0,A,3443.5122,N,08633.1191,W,,,220119,,*12
$GPGGA,153913.0,3443.5127,N,08633.1193,W,1,,,204.4,M,,M,,*75
$GPRMC,153913.0,A,3443.5127,N,08633.1193,W,,,220119,,*11
$GPGGA,153943.0,3443.5135,N,08633.1194,W,1,,,204.4,M,,M,,*74
$GPRMC,153943.0,A,3443.5135,N,08633.1194,W,,,220119,,*10
$GPGGA,154013.0,3443.5141,N,08633.1195,W,1,,,204.4,M,,M,,*7D
$GPRMC,154013.0,A,3443.5141,N,08633.1195,W,,,220119,,*19
$GPGGA,154043.0,3443.5138,N,08633.1191,W,1,,,204.4,M,,M,,*72
$GPRMC,154043.0,A,3443.5138,N,08633.1191,W,,,220119,,*16
$GPGGA,154113.0,3443.5139,N,08633.1191,W,1,,,204.4,M,,M,,*77
$GPRMC,154113.0,A,3443.5139,N,08633.1191,W,,,220119,,*13
$GPGGA,154159.0,3443.5111,N,08633.1230,W,1,,,204.7,M,,M,,*78
$GPRMC,154159.0,A,3443.5111,N,08633.1230,W,,,220119,,*1F
$GPGGA,154229.0,3443.5105,N,08633.1232,W,1,,,202.1,M,,M,,*7B
$GPRMC,154229.0,A,3443.5105,N,08633.1232,W,,,220119,,*1C
$GPGGA,154259.0,3443.5097,N,08633.1242,W,1,,,197.2,M,,M,,*7D
$GPRMC,154259.0,A,3443.5097,N,08633.1242,W,,,220119,,*16
$GPGGA,154329.0,3443.5083,N,08633.1247,W,1,,,201.0,M,,M,,*75
$GPRMC,154329.0,A,3443.5083,N,08633.1247,W,,,220119,,*10
$GPGGA,154359.0,3443.5071,N,08633.1250,W,1,,,203.5,M,,M,,*7E
$GPRMC,154359.0,A,3443.5071,N,08633.1250,W,,,220119,,*1C
$GPGGA,154429.0,3443.5053,N,08633.1250,W,1,,,209.0,M,,M,,*71
$GPRMC,154429.0,A,3443.5053,N,08633.1250,W,,,220119,,*1C
$GPGGA,154459.0,3443.5046,N,08633.1250,W,1,,,210.4,M,,M,,*7E
$GPRMC,154459.0,A,3443.5046,N,08633.1250,W,,,220119,,*1F
$GPGGA,154529.0,3443.5011,N,08633.1243,W,1,,,209.6,M,,M,,*72
$GPRMC,154529.0,A,3443.5011,N,08633.1243,W,,,220119,,*19
$GPGGA,154559.0,3443.5011,N,08633.1242,W,1,,,209.3,M,,M,,*71
$GPRMC,154559.0,A,3443.5011,N,08633.1242,W,,,220119,,*1F
$GPGGA,154629.0,3443.5010,N,08633.1243,W,1,,,211.3,M,,M,,*7C
$GPRMC,154629.0,A,3443.5010,N,08633.1243,W,,,220119,,*1B
$GPGGA,154659.0,3443.5008,N,08633.1243,W,1,,,213.3,M,,M,,*70
$GPRMC,154659.0,A,3443.5008,N,08633.1243,W,,,220119,,*15
$GPGGA,154729.0,3443.5006,N,08633.1250,W,1,,,217.5,M,,M,,*78
$GPRMC,154729.0,A,3443.5006,N,08633.1250,W,,,220119,,*1F
$GPGGA,154759.0,3443.4999,N,08633.1251,W,1,,,220.5,M,,M,,*74
$GPRMC,154759.0,A,3443.4999,N,08633.1251,W,,,220119,,*17
$GPGGA,154829.0,3443.4996,N,08633.1252,W,1,,,221.1,M,,M,,*75
$GPRMC,154829.0,A,3443.4996,N,08633.1252,W,,,220119,,*13
$GPGGA,154859.0,3443.4995,N,08633.1252,W,1,,,221.1,M,,M,,*71
$GPRMC,154859.0,A,3443.4995,N,08633.1252,W,,,220119,,*17
$GPGGA,154929.0,3443.4993,N,08633.1252,W,1,,,221.0,M,,M,,*70
$GPRMC,154929.0,A,3443.4993,N,08633.1252,W,,,220119,,*17
$GPGGA,154959.0,3443.4989,N,08633.1251,W,1,,,220.2,M,,M,,*7C
$GPRMC,154959.0,A,3443.4989,N,08633.1251,W,,,220119,,*18
$GPGGA,155029.0,3443.4986,N,08633.1251,W,1,,,219.9,M,,M,,*7D
$GPRMC,155029.0,A,3443.4986,N,08633.1251,W,,,220119,,*18
$GPGGA,155059.0,3443.4984,N,08633.1251,W,1,,,220.1,M,,M,,*7A
$GPRMC,155059.0,A,3443.4984,N,08633.1251,W,,,220119,,*1D
$GPGGA,155129.0,3443.4987,N,08633.1249,W,1,,,217.9,M,,M,,*7A
$GPRMC,155129.0,A,3443.4987,N,08633.1249,W,,,220119,,*11
$GPGGA,155159.0,3443.4982,N,08633.1248,W,1,,,218.5,M,,M,,*7A
$GPRMC,155159.0,A,3443.4982,N,08633.1248,W,,,220119,,*12
$GPGGA,155229.0,3443.4974,N,08633.1248,W,1,,,219.5,M,,M,,*76
$GPRMC,155229.0,A,3443.4974,N,08633.1248,W,,,220119,,*1F
$GPGGA,155259.0,3443.4971,N,08633.1246,W,1,,,219.7,M,,M,,*78
$GPRMC,155259.0,A,3443.4971,N,08633.1246,W,,,220119,,*13
$GPGGA,155329.1,3443.4968,N,08633.1245,W,1,,,220.6,M,,M,,*7F
$GPRMC,155329.1,A,3443.4968,N,08633.1245,W,,,220119,,*1F
$GPGGA,155359.0,3443.4967,N,08633.1245,W,1,,,221.2,M,,M,,*73
$GPRMC,155359.0,A,3443.4967,N,08633.1245,W,,,220119,,*16
$GPGGA,155429.0,3443.4966,N,08633.1245,W,1,,,221.6,M,,M,,*76
$GPRMC,155429.0,A,3443.4966,N,08633.1245,W,,,220119,,*17
$GPGGA,155459.0,3443.4965,N,08633.1245,W,1,,,222.2,M,,M,,*75
$GPRMC,155459.0,A,3443.4965,N,08633.1245,W,,,220119,,*13
$GPGGA,155529.0,3443.4962,N,08633.1246,W,1,,,222.7,M,,M,,*72
$GPRMC,155529.0,A,3443.4962,N,08633.1246,W,,,220119,,*11
$GPGGA,155559.0,3443.4960,N,08633.1245,W,1,,,223.0,M,,M,,*72
$GPRMC,155559.0,A,3443.4960,N,08633.1245,W,,,220119,,*17
$GPGGA,155629.0,3443.4957,N,08633.1243,W,1,,,224.2,M,,M,,*71
$GPRMC,155629.0,A,3443.4957,N,08633.1243,W,,,220119,,*11
$GPGGA,155659.4,3443.4952,N,08633.1241,W,1,,,225.0,M,,M,,*76
$GPRMC,155659.4,A,3443.4952,N,08633.1241,W,,,220119,,*15
$GPGGA,155729.0,3443.4948,N,08633.1240,W,1,,,225.2,M,,M,,*7C
$GPRMC,155729.0,A,3443.4948,N,08633.1240,W,,,220119,,*1D
$GPGGA,155759.0,3443.4946,N,08633.1239,W,1,,,224.9,M,,M,,*71
$GPRMC,155759.0,A,3443.4946,N,08633.1239,W,,,220119,,*1A
$GPGGA,155829.0,3443.4945,N,08633.1238,W,1,,,224.4,M,,M,,*76
$GPRMC,155829.0,A,3443.4945,N,08633.1238,W,,,220119,,*10
$GPGGA,155859.0,3443.4944,N,08633.1237,W,1,,,223.9,M,,M,,*75
$GPRMC,155859.0,A,3443.4944,N,08633.1237,W,,,220119,,*19
$GPGGA,155929.1,3443.4943,N,08633.1236,W,1,,,223.5,M,,M,,*78
$GPRMC,155929.1,A,3443.4943,N,08633.1236,W,,,220119,,*18
$GPGGA,155959.0,3443.4920,N,08633.1231,W,1,,,221.1,M,,M,,*7A
$GPRMC,155959.0,A,3443.4920,N,08633.1231,W,,,220119,,*1C
$GPGGA,160029.0,3443.4919,N,08633.1232,W,1,,,223.1,M,,M,,*79
$GPRMC,160029.0,A,3443.4919,N,08633.1232,W,,,220119,,*1D
$GPGGA,160059.0,3443.4919,N,08633.1232,W,1,,,221.3,M,,M,,*7E
$GPRMC,160059.0,A,3443.4919,N,08633.1232,W,,,220119,,*1A
$GPGGA,160129.0,3443.4913,N,08633.1237,W,1,,,219.6,M,,M,,*79
$GPRMC,160129.0,A,3443.4913,N,08633.1237,W,,,220119,,*13
$GPGGA,160159.0,3443.4914,N,08633.1236,W,1,,,216.8,M,,M,,*79
$GPRMC,160159.0,A,3443.4914,N,08633.1236,W,,,220119,,*12
$GPGGA,160229.0,3443.4915,N,08633.1234,W,1,,,217.4,M,,M,,*73
$GPRMC,160229.0,A,3443.4915,N,08633.1234,W,,,220119,,*15
$GPGGA,160259.0,3443.4916,N,08633.1232,W,1,,,217.2,M,,M,,*77
$GPRMC,160259.0,A,3443.4916,N,08633.1232,W,,,220119,,*17
$GPGGA,160329.0,3443.4916,N,08633.1231,W,1,,,216.6,M,,M,,*77
$GPRMC,160329.0,A,3443.4916,N,08633.1231,W,,,220119,,*12
$GPGGA,160359.0,3443.4917,N,08633.1231,W,1,,,216.1,M,,M,,*76
$GPRMC,160359.0,A,3443.4917,N,08633.1231,W,,,220119,,*14
$GPGGA,160429.0,3443.4917,N,08633.1230,W,1,,,215.5,M,,M,,*70
$GPRMC,160429.0,A,3443.4917,N,08633.1230,W,,,220119,,*15
$GPGGA,160459.0,3443.4956,N,08633.1225,W,1,,,204.8,M,,M,,*7B
$GPRMC,160459.0,A,3443.4956,N,08633.1225,W,,,220119,,*13
$GPGGA,160529.0,3443.4956,N,08633.1225,W,1,,,207.9,M,,M,,*7F
$GPRMC,160529.0,A,3443.4956,N,08633.1225,W,,,220119,,*15
$GPGGA,160559.0,3443.4955,N,08633.1226,W,1,,,209.5,M,,M,,*7A
$GPRMC,160559.0,A,3443.4955,N,08633.1226,W,,,220119,,*12
$GPGGA,160629.0,3443.4954,N,08633.1226,W,1,,,211.1,M,,M,,*72
$GPRMC,160629.0,A,3443.4954,N,08633.1226,W,,,220119,,*17
$GPGGA,160659.0,3443.4953,N,08633.1226,W,1,,,211.5,M,,M,,*76
$GPRMC,160659.0,A,3443.4953,N,08633.1226,W,,,220119,,*17
$GPGGA,160729.0,3443.4952,N,08633.1227,W,1,,,213.6,M,,M,,*71
$GPRMC,160729.0,A,3443.4952,N,08633.1227,W,,,220119,,*11
$GPGGA,160759.0,3443.4951,N,08633.1228,W,1,,,214.8,M,,M,,*73
$GPRMC,160759.0,A,3443.4951,N,08633.1228,W,,,220119,,*1A
$GPGGA,160829.0,3443.4950,N,08633.1228,W,1,,,214.5,M,,M,,*77
$GPRMC,160829.0,A,3443.4950,N,08633.1228,W,,,220119,,*13
$GPGGA,160859.0,3443.4948,N,08633.1228,W,1,,,215.7,M,,M,,*7A
$GPRMC,160859.0,A,3443.4948,N,08633.1228,W,,,220119,,*1D
$GPGGA,160929.0,3443.4947,N,08633.1228,W,1,,,215.5,M,,M,,*71
$GPRMC,160929.0,A,3443.4947,N,08633.1228,W,,,220119,,*14
$GPGGA,160959.0,3443.4946,N,08633.1229,W,1,,,215.0,M,,M,,*73
$GPRMC,160959.0,A,3443.4946,N,08633.1229,W,,,220119,,*13
$GPGGA,161029.0,3443.4945,N,08633.1230,W,1,,,214.4,M,,M,,*72
$GPRMC,161029.0,A,3443.4945,N,08633.1230,W,,,220119,,*17
$GPGGA,161059.0,3443.4944,N,08633.1231,W,1,,,215.8,M,,M,,*78
$GPRMC,161059.0,A,3443.4944,N,08633.1231,W,,,220119,,*10
$GPGGA,161129.0,3443.4942,N,08633.1232,W,1,,,216.0,M,,M,,*70
$GPRMC,161129.0,A,3443.4942,N,08633.1232,W,,,220119,,*13
$GPGGA,161159.0,3443.4936,N,08633.1237,W,1,,,216.5,M,,M,,*74
$GPRMC,161159.0,A,3443.4936,N,08633.1237,W,,,220119,,*12
$GPGGA,161229.0,3443.4936,N,08633.1237,W,1,,,216.8,M,,M,,*7D
$GPRMC,161229.0,A,3443.4936,N,08633.1237,W,,,220119,,*16
$GPGGA,161259.0,3443.4936,N,08633.1237,W,1,,,216.6,M,,M,,*74
$GPRMC,161259.0,A,3443.4936,N,08633.1237,W,,,220119,,*11
$GPGGA,161329.0,3443.4935,N,08633.1237,W,1,,,216.3,M,,M,,*74
$GPRMC,161329.0,A,3443.4935,N,08633.1237,W,,,220119,,*14
$GPGGA,161359.0,3443.4935,N,08633.1237,W,1,,,216.1,M,,M,,*71
$GPRMC,161359.0,A,3443.4935,N,08633.1237,W,,,220119,,*13
$GPGGA,161429.0,3443.4934,N,08633.1237,W,1,,,216.1,M,,M,,*70
$GPRMC,161429.0,A,3443.4934,N,08633.1237,W,,,220119,,*12
$GPGGA,161459.0,3443.4933,N,08633.1237,W,1,,,216.7,M,,M,,*76
$GPRMC,161459.0,A,3443.4933,N,08633.1237,W,,,220119,,*12
$GPGGA,161529.0,3443.4933,N,08633.1237,W,1,,,217.2,M,,M,,*74
$GPRMC,161529.0,A,3443.4933,N,08633.1237,W,,,220119,,*14
$GPGGA,161559.0,3443.4932,N,08633.1237,W,1,,,217.1,M,,M,,*71
$GPRMC,161559.0,A,3443.4932,N,08633.1237,W,,,220119,,*12
$GPGGA,161629.0,3443.4931,N,08633.1237,W,1,,,216.6,M,,M,,*70
$GPRMC,161629.0,A,3443.4931,N,08633.1237,W,,,220119,,*15
$GPGGA,161659.0,3443.4929,N,08633.1237,W,1,,,216.5,M,,M,,*7D
$GPRMC,161659.0,A,3443.4929,N,08633.1237,W,,,220119,,*1B
$GPGGA,161729.0,3443.4926,N,08633.1238,W,1,,,216.7,M,,M,,*79
$GPRMC,161729.0,A,3443.4926,N,08633.1238,W,,,220119,,*1D
$GPGGA,161759.0,3443.4924,N,08633.1238,W,1,,,216.8,M,,M,,*73
$GPRMC,161759.0,A,3443.4924,N,08633.1238,W,,,220119,,*18
$GPGGA,161829.0,3443.4923,N,08633.1239,W,1,,,219.1,M,,M,,*7B
$GPRMC,161829.0,A,3443.4923,N,08633.1239,W,,,220119,,*16
$GPGGA,161859.0,3443.4922,N,08633.1240,W,1,,,219.5,M,,M,,*77
$GPRMC,161859.0,A,3443.4922,N,08633.1240,W,,,220119,,*1E
$GPGGA,161929.0,3443.4922,N,08633.1241,W,1,,,219.6,M,,M,,*73
$GPRMC,161929.0,A,3443.4922,N,08633.1241,W,,,220119,,*19
$GPGGA,161959.0,3443.4921,N,08633.1241,W,1,,,219.9,M,,M,,*78
$GPRMC,161959.0,A,3443.4921,N,08633.1241,W,,,220119,,*1D
$GPGGA,162029.0,3443.4928,N,08633.1236,W,1,,,220.9,M,,M,,*76
$GPRMC,162029.0,A,3443.4928,N,08633.1236,W,,,220119,,*19
$GPGGA,162059.0,3443.4928,N,08633.1218,W,1,,,220.9,M,,M,,*7D
$GPRMC,162059.0,A,3443.4928,N,08633.1218,W,,,220119,,*12
$GPGGA,162129.0,3443.4928,N,08633.1218,W,1,,,221.1,M,,M,,*72
$GPRMC,162129.0,A,3443.4928,N,08633.1218,W,,,220119,,*14
$GPGGA,162159.0,3443.4926,N,08633.1219,W,1,,,221.1,M,,M,,*7A
$GPRMC,162159.0,A,3443.4926,N,08633.1219,W,,,220119,,*1C
$GPGGA,162229.0,3443.4924,N,08633.1220,W,1,,,221.0,M,,M,,*77
$GPRMC,162229.0,A,3443.4924,N,08633.1220,W,,,220119,,*10
$GPGGA,162259.0,3443.4924,N,08633.1220,W,1,,,220.7,M,,M,,*76
$GPRMC,162259.0,A,3443.4924,N,08633.1220,W,,,220119,,*17
$GPGGA,162329.0,3443.4923,N,08633.1221,W,1,,,220.8,M,,M,,*79
$GPRMC,162329.0,A,3443.4923,N,08633.1221,W,,,220119,,*17
$GPGGA,162359.0,3443.4923,N,08633.1222,W,1,,,220.8,M,,M,,*7D
$GPRMC,162359.0,A,3443.4923,N,08633.1222,W,,,220119,,*13
$GPGGA,162429.0,3443.4923,N,08633.1223,W,1,,,220.8,M,,M,,*7C
$GPRMC,162429.0,A,3443.4923,N,08633.1223,W,,,220119,,*12
$GPGGA,162459.0,3443.4922,N,08633.1224,W,1,,,220.8,M,,M,,*7D
$GPRMC,162459.0,A,3443.4922,N,08633.1224,W,,,220119,,*13
$GPGGA,162529.0,3443.4921,N,08633.1227,W,1,,,220.9,M,,M,,*7A
$GPRMC,162529.0,A,3443.4921,N,08633.1227,W,,,220119,,*15
$GPGGA,162559.0,3443.4914,N,08633.1258,W,1,,,222.2,M,,M,,*7A
$GPRMC,162559.0,A,3443.4914,N,08633.1258,W,,,220119,,*1C
$GPGGA,162629.0,3443.4911,N,08633.1259,W,1,,,224.2,M,,M,,*7C
$GPRMC,162629.0,A,3443.4911,N,08633.1259,W,,,220119,,*1C
$GPGGA,162659.0,3443.4911,N,08633.1259,W,1,,,223.1,M,,M,,*7F
$GPRMC,162659.0,A,3443.4911,N,08633.1259,W,,,220119,,*1B
$GPGGA,162729.0,3443.4912,N,08633.1258,W,1,,,222.2,M,,M,,*79
$GPRMC,162729.0,A,3443.4912,N,08633.1258,W,,,220119,,*1F
$GPGGA,162759.0,3443.4911,N,08633.1257,W,1,,,222.3,M,,M,,*73
$GPRMC,162759.0,A,3443.4911,N,08633.1257,W,,,220119,,*14
$GPGGA,162829.0,3443.4911,N,08633.1256,W,1,,,222.1,M,,M,,*78
$GPRMC,162829.0,A,3443.4911,N,08633.1256,W,,,220119,,*1D
$GPGGA,162859.0,3443.4911,N,08633.1255,W,1,,,221.8,M,,M,,*76
$GPRMC,162859.0,A,3443.4911,N,08633.1255,W,,,220119,,*19
$GPGGA,162929.0,3443.4909,N,08633.1252,W,1,,,220.9,M,,M,,*7E
$GPRMC,162929.0,A,3443.4909,N,08633.1252,W,,,220119,,*11
$GPGGA,162959.0,3443.4909,N,08633.1252,W,1,,,219.9,M,,M,,*73
$GPRMC,162959.0,A,3443.4909,N,08633.1252,W,,,220119,,*16
$GPGGA,163029.0,3443.4909,N,08633.1251,W,1,,,219.4,M,,M,,*72
$GPRMC,163029.0,A,3443.4909,N,08633.1251,W,,,220119,,*1A
$GPGGA,163059.0,3443.4908,N,08633.1252,W,1,,,219.5,M,,M,,*76
$GPRMC,163059.0,A,3443.4908,N,08633.1252,W,,,220119,,*1F
$GPGGA,163129.0,3443.4906,N,08633.1252,W,1,,,219.8,M,,M,,*73
$GPRMC,163129.0,A,3443.4906,N,08633.1252,W,,,220119,,*17
$GPGGA,163159.0,3443.4906,N,08633.1253,W,1,,,220.6,M,,M,,*71
$GPRMC,163159.0,A,3443.4906,N,08633.1253,W,,,220119,,*11
$GPGGA,163229.0,3443.4906,N,08633.1254,W,1,,,220.9,M,,M,,*7D
$GPRMC,163229.0,A,3443.4906,N,08633.1254,W,,,220119,,*12
$GPGGA,163259.0,3443.4906,N,08633.1254,W,1,,,221.1,M,,M,,*73
$GPRMC,163259.0,A,3443.4906,N,08633.1254,W,,,220119,,*15
$GPGGA,163329.0,3443.4906,N,08633.1254,W,1,,,221.7,M,,M,,*73
$GPRMC,163329.0,A,3443.4906,N,08633.1254,W,,,220119,,*13
$GPGGA,163359.0,3443.4906,N,08633.1255,W,1,,,221.9,M,,M,,*7B
$GPRMC,163359.0,A,3443.4906,N,08633.1255,W,,,220119,,*15
$GPGGA,163429.0,3443.4905,N,08633.1255,W,1,,,221.6,M,,M,,*77
$GPRMC,163429.0,A,3443.4905,N,08633.1255,W,,,220119,,*16
$GPGGA,163459.0,3443.4870,N,08633.1268,W,1,,,209.8,M,,M,,*79
$GPRMC,163459.0,A,3443.4870,N,08633.1268,W,,,220119,,*1C
$GPGGA,163529.0,3443.4870,N,08633.1267,W,1,,,210.2,M,,M,,*72
$GPRMC,163529.0,A,3443.4870,N,08633.1267,W,,,220119,,*15
$GPGGA,163559.3,3443.4871,N,08633.1266,W,1,,,212.9,M,,M,,*7F
$GPRMC,163559.3,A,3443.4871,N,08633.1266,W,,,220119,,*11
$GPGGA,163629.0,3443.4873,N,08633.1266,W,1,,,215.4,M,,M,,*70
$GPRMC,163629.0,A,3443.4873,N,08633.1266,W,,,220119,,*14
$GPGGA,163659.0,3443.4875,N,08633.1265,W,1,,,217.1,M,,M,,*75
$GPRMC,163659.0,A,3443.4875,N,08633.1265,W,,,220119,,*16
$GPGGA,163729.0,3443.4876,N,08633.1265,W,1,,,218.1,M,,M,,*7F
$GPRMC,163729.0,A,3443.4876,N,08633.1265,W,,,220119,,*13
$GPGGA,163759.0,3443.4878,N,08633.1263,W,1,,,218.2,M,,M,,*73
$GPRMC,163759.0,A,3443.4878,N,08633.1263,W,,,220119,,*1C
$GPGGA,163829.0,3443.4879,N,08633.1263,W,1,,,218.2,M,,M,,*7A
$GPRMC,163829.0,A,3443.4879,N,08633.1263,W,,,220119,,*15
$GPGGA,163859.0,3443.4879,N,08633.1262,W,1,,,218.3,M,,M,,*7D
$GPRMC,163859.0,A,3443.4879,N,08633.1262,W,,,220119,,*13
$GPGGA,163929.0,3443.4879,N,08633.1262,W,1,,,218.2,M,,M,,*7A
$GPRMC,163929.0,A,3443.4879,N,08633.1262,W,,,220119,,*15
$GPGGA,163959.0,3443.4879,N,08633.1262,W,1,,,218.1,M,,M,,*7E
$GPRMC,163959.0,A,3443.4879,N,08633.1262,W,,,220119,,*12
$GPGGA,164029.0,3443.4880,N,08633.1263,W,1,,,217.3,M,,M,,*7D
$GPRMC,164029.0,A,3443.4880,N,08633.1263,W,,,220119,,*1C
$GPGGA,164059.0,3443.4881,N,08633.1263,W,1,,,216.7,M,,M,,*7E
$GPRMC,164059.0,A,3443.4881,N,08633.1263,W,,,220119,,*1A
$GPGGA,164129.0,3443.4882,N,08633.1264,W,1,,,216.1,M,,M,,*7A
$GPRMC,164129.0,A,3443.4882,N,08633.1264,W,,,220119,,*18
$GPGGA,164159.0,3443.4883,N,08633.1265,W,1,,,215.5,M,,M,,*7A
$GPRMC,164159.0,A,3443.4883,N,08633.1265,W,,,220119,,*1F
$GPGGA,164229.0,3443.4884,N,08633.1265,W,1,,,215.3,M,,M,,*7F
$GPRMC,164229.0,A,3443.4884,N,08633.1265,W,,,220119,,*1C
$GPGGA,164259.0,3443.4884,N,08633.1265,W,1,,,215.2,M,,M,,*79
$GPRMC,164259.0,A,3443.4884,N,08633.1265,W,,,220119,,*1B
$GPGGA,164329.0,3443.4884,N,08633.1265,W,1,,,215.2,M,,M,,*7F
$GPRMC,164329.0,A,3443.4884,N,08633.1265,W,,,220119,,*1D
$GPGGA,164359.0,3443.4884,N,08633.1265,W,1,,,215.4,M,,M,,*7E
$GPRMC,164359.0,A,3443.4884,N,08633.1265,W,,,220119,,*1A
$GPGGA,164429.0,3443.4895,N,08633.1264,W,1,,,220.3,M,,M,,*7E
$GPRMC,164429.0,A,3443.4895,N,08633.1264,W,,,220119,,*1B
$GPGGA,164459.0,3443.4895,N,08633.1263,W,1,,,220.8,M,,M,,*75
$GPRMC,164459.0,A,3443.4895,N,08633.1263,W,,,220119,,*1B
$GPGGA,164529.0,3443.4894,N,08633.1262,W,1,,,220.4,M,,M,,*7F
$GPRMC,164529.0,A,3443.4894,N,08633.1262,W,,,220119,,*1D
$GPGGA,164559.0,3443.4895,N,08633.1261,W,1,,,224.1,M,,M,,*7B
$GPRMC,164559.0,A,3443.4895,N,08633.1261,W,,,220119,,*18
$GPGGA,164629.0,3443.4890,N,08633.1259,W,1,,,224.0,M,,M,,*70
$GPRMC,164629.0,A,3443.4890,N,08633.1259,W,,,220119,,*12
$GPGGA,164659.0,3443.4892,N,08633.1259,W,1,,,223.7,M,,M,,*75
$GPRMC,164659.0,A,3443.4892,N,08633.1259,W,,,220119,,*17
$GPGGA,164729.0,3443.4887,N,08633.1252,W,1,,,221.7,M,,M,,*7E
$GPRMC,164729.0,A,3443.4887,N,08633.1252,W,,,220119,,*1E
$GPGGA,164759.0,3443.4887,N,08633.1252,W,1,,,224.7,M,,M,,*7C
$GPRMC,164759.0,A,3443.4887,N,08633.1252,W,,,220119,,*19
$GPGGA,164829.0,3443.4887,N,08633.1252,W,1,,,224.9,M,,M,,*7A
$GPRMC,164829.0,A,3443.4887,N,08633.1252,W,,,220119,,*11
$GPGGA,164859.0,3443.4887,N,08633.1253,W,1,,,224.2,M,,M,,*77
$GPRMC,164859.0,A,3443.4887,N,08633.1253,W,,,220119,,*17
$GPGGA,164929.0,3443.4886,N,08633.1253,W,1,,,222.2,M,,M,,*76
$GPRMC,164929.0,A,3443.4886,N,08633.1253,W,,,220119,,*10
$GPGGA,164959.0,3443.4885,N,08633.1253,W,1,,,221.9,M,,M,,*7A
$GPRMC,164959.0,A,3443.4885,N,08633.1253,W,,,220119,,*14
$GPGGA,165029.0,3443.4884,N,08633.1253,W,1,,,223.0,M,,M,,*7F
$GPRMC,165029.0,A,3443.4884,N,08633.1253,W,,,220119,,*1A
$GPGGA,165059.0,3443.4885,N,08633.1253,W,1,,,225.4,M,,M,,*7B
$GPRMC,165059.0,A,3443.4885,N,08633.1253,W,,,220119,,*1C
$GPGGA,165129.0,3443.4885,N,08633.1254,W,1,,,225.9,M,,M,,*77
$GPRMC,165129.0,A,3443.4885,N,08633.1254,W,,,220119,,*1D
$GPGGA,165159.0,3443.4885,N,08633.1255,W,1,,,226.2,M,,M,,*79
$GPRMC,165159.0,A,3443.4885,N,08633.1255,W,,,220119,,*1B
$GPGGA,165229.0,3443.4885,N,08633.1256,W,1,,,226.6,M,,M,,*7A
$GPRMC,165229.0,A,3443.4885,N,08633.1256,W,,,220119,,*1C
$GPGGA,165259.0,3443.4884,N,08633.1257,W,1,,,226.2,M,,M,,*79
$GPRMC,165259.0,A,3443.4884,N,08633.1257,W,,,220119,,*1B
$GPGGA,165329.0,3443.4884,N,08633.1259,W,1,,,226.3,M,,M,,*70
$GPRMC,165329.0,A,3443.4884,N,08633.1259,W,,,220119,,*13
$GPGGA,165359.0,3443.4884,N,08633.1260,W,1,,,225.5,M,,M,,*78
$GPRMC,165359.0,A,3443.4884,N,08633.1260,W,,,220119,,*1E
$GPGGA,165429.0,3443.4884,N,08633.1260,W,1,,,225.0,M,,M,,*7D
$GPRMC,165429.0,A,3443.4884,N,08633.1260,W,,,220119,,*1E
$GPGGA,165459.0,3443.4883,N,08633.1260,W,1,,,224.7,M,,M,,*7B
$GPRMC,165459.0,A,3443.4883,N,08633.1260,W,,,220119,,*1E
$GPGGA,165529.0,3443.4883,N,08633.1260,W,1,,,224.3,M,,M,,*79
$GPRMC,165529.0,A,3443.4883,N,08633.1260,W,,,220119,,*18
$GPGGA,165559.0,3443.4883,N,08633.1261,W,1,,,224.0,M,,M,,*7C
$GPRMC,165559.0,A,3443.4883,N,08633.1261,W,,,220119,,*1E
$GPGGA,165629.0,3443.4882,N,08633.1262,W,1,,,224.1,M,,M,,*7B
$GPRMC,165629.0,A,3443.4882,N,08633.1262,W,,,220119,,*18
$GPGGA,165659.0,3443.4883,N,08633.1262,W,1,,,224.7,M,,M,,*7B
$GPRMC,165659.0,A,3443.4883,N,08633.1262,W,,,220119,,*1E
$GPGGA,165729.0,3443.4884,N,08633.1261,W,1,,,224.9,M,,M,,*77
$GPRMC,165729.0,A,3443.4884,N,08633.1261,W,,,220119,,*1C
$GPGGA,165759.0,3443.4884,N,08633.1260,W,1,,,224.6,M,,M,,*7E
$GPRMC,165759.0,A,3443.4884,N,08633.1260,W,,,220119,,*1A
$GPGGA,165829.0,3443.4885,N,08633.1260,W,1,,,224.2,M,,M,,*73
$GPRMC,165829.0,A,3443.4885,N,08633.1260,W,,,220119,,*13
$GPGGA,165859.0,3443.4886,N,08633.1259,W,1,,,224.0,M,,M,,*7F
$GPRMC,165859.0,A,3443.4886,N,08633.1259,W,,,220119,,*1D
$GPGGA,165929.0,3443.4886,N,08633.1259,W,1,,,223.3,M,,M,,*7D
$GPRMC,165929.0,A,3443.4886,N,08633.1259,W,,,220119,,*1B
$GPGGA,165959.0,3443.4886,N,08633.1259,W,1,,,222.8,M,,M,,*70
$GPRMC,165959.0,A,3443.4886,N,08633.1259,W,,,220119,,*1C
$GPGGA,170029.0,3443.4886,N,08633.1259,W,1,,,222.6,M,,M,,*74
$GPRMC,170029.0,A,3443.4886,N,08633.1259,W,,,220119,,*16
$GPGGA,170059.0,3443.4886,N,08633.1259,W,1,,,222.7,M,,M,,*72
$GPRMC,170059.0,A,3443.4886,N,08633.1259,W,,,220119,,*11
$GPGGA,170129.0,3443.4886,N,08633.1259,W,1,,,222.5,M,,M,,*76
$GPRMC,170129.0,A,3443.4886,N,08633.1259,W,,,220119,,*17
$GPGGA,170159.0,3443.4886,N,08633.1259,W,1,,,222.3,M,,M,,*77
$GPRMC,170159.0,A,3443.4886,N,08633.1259,W,,,220119,,*10
$GPGGA,170229.0,3443.4886,N,08633.1259,W,1,,,222.2,M,,M,,*72
$GPRMC,170229.0,A,3443.4886,N,08633.1259,W,,,220119,,*14
$GPGGA,170259.0,3443.4886,N,08633.1259,W,1,,,222.5,M,,M,,*72
$GPRMC,170259.0,A,3443.4886,N,08633.1259,W,,,220119,,*13
$GPGGA,170329.0,3443.4886,N,08633.1259,W,1,,,222.6,M,,M,,*77
$GPRMC,170329.0,A,3443.4886,N,08633.1259,W,,,220119,,*15
$GPGGA,170359.0,3443.4886,N,08633.1260,W,1,,,222.8,M,,M,,*74
$GPRMC,170359.0,A,3443.4886,N,08633.1260,W,,,220119,,*18
$GPGGA,170429.0,3443.4885,N,08633.1260,W,1,,,222.7,M,,M,,*78
$GPRMC,170429.0,A,3443.4885,N,08633.1260,W,,,220119,,*1B
$GPGGA,170459.0,3443.4885,N,08633.1260,W,1,,,222.6,M,,M,,*7E
$GPRMC,170459.0,A,3443.4885,N,08633.1260,W,,,220119,,*1C
$GPGGA,170529.0,3443.4885,N,08633.1260,W,1,,,222.3,M,,M,,*7D
$GPRMC,170529.0,A,3443.4885,N,08633.1260,W,,,220119,,*1A
$GPGGA,170559.0,3443.4885,N,08633.1259,W,1,,,221.9,M,,M,,*79
$GPRMC,170559.0,A,3443.4885,N,08633.1259,W,,,220119,,*17
$GPGGA,170629.0,3443.4885,N,08633.1259,W,1,,,221.8,M,,M,,*7C
$GPRMC,170629.0,A,3443.4885,N,08633.1259,W,,,220119,,*13
$GPGGA,170659.0,3443.4885,N,08633.1259,W,1,,,221.9,M,,M,,*7A
$GPRMC,170659.0,A,3443.4885,N,08633.1259,W,,,220119,,*14
$GPGGA,170729.0,3443.4885,N,08633.1259,W,1,,,221.9,M,,M,,*7C
$GPRMC,170729.0,A,3443.4885,N,08633.1259,W,,,220119,,*12
$GPGGA,170759.0,3443.4885,N,08633.1259,W,1,,,222.0,M,,M,,*71
$GPRMC,170759.0,A,3443.4885,N,08633.1259,W,,,220119,,*15
$GPGGA,170829.0,3443.4885,N,08633.1258,W,1,,,222.1,M,,M,,*79
$GPRMC,170829.0,A,3443.4885,N,08633.1258,W,,,220119,,*1C
$GPGGA,170859.0,3443.4882,N,08633.1257,W,1,,,220.9,M,,M,,*7C
$GPRMC,170859.0,A,3443.4882,N,08633.1257,W,,,220119,,*13
$GPGGA,170929.0,3443.4896,N,08633.1260,W,1,,,227.1,M,,M,,*74
$GPRMC,170929.0,A,3443.4896,N,08633.1260,W,,,220119,,*14
$GPGGA,170959.0,3443.4897,N,08633.1260,W,1,,,228.0,M,,M,,*7C
$GPRMC,170959.0,A,3443.4897,N,08633.1260,W,,,220119,,*12
$GPGGA,171029.0,3443.4896,N,08633.1260,W,1,,,228.9,M,,M,,*7B
$GPRMC,171029.0,A,3443.4896,N,08633.1260,W,,,220119,,*1C
$GPGGA,171059.0,3443.4883,N,08633.1254,W,1,,,228.3,M,,M,,*75
$GPRMC,171059.0,A,3443.4883,N,08633.1254,W,,,220119,,*18
$GPGGA,171129.0,3443.4885,N,08633.1253,W,1,,,220.9,M,,M,,*70
$GPRMC,171129.0,A,3443.4885,N,08633.1253,W,,,220119,,*1F
$GPGGA,171159.0,3443.4887,N,08633.1253,W,1,,,221.2,M,,M,,*7F
$GPRMC,171159.0,A,3443.4887,N,08633.1253,W,,,220119,,*1A
$GPGGA,171229.0,3443.4889,N,08633.1254,W,1,,,223.4,M,,M,,*76
$GPRMC,171229.0,A,3443.4889,N,08633.1254,W,,,220119,,*17
$GPGGA,171259.0,3443.4890,N,08633.1255,W,1,,,224.3,M,,M,,*78
$GPRMC,171259.0,A,3443.4890,N,08633.1255,W,,,220119,,*19
$GPGGA,171329.0,3443.4890,N,08633.1256,W,1,,,223.8,M,,M,,*71
$GPRMC,171329.0,A,3443.4890,N,08633.1256,W,,,220119,,*1C
$GPGGA,171359.0,3443.4890,N,08633.1257,W,1,,,222.9,M,,M,,*77
$GPRMC,171359.0,A,3443.4890,N,08633.1257,W,,,220119,,*1A
$GPGGA,171429.0,3443.4890,N,08633.1257,W,1,,,221.8,M,,M,,*75
$GPRMC,171429.0,A,3443.4890,N,08633.1257,W,,,220119,,*1A
$GPGGA,171459.0,3443.4890,N,08633.1257,W,1,,,221.1,M,,M,,*7B
$GPRMC,171459.0,A,3443.4890,N,08633.1257,W,,,220119,,*1D
$GPGGA,171529.0,3443.4890,N,08633.1257,W,1,,,221.1,M,,M,,*7D
$GPRMC,171529.0,A,3443.4890,N,08633.1257,W,,,220119,,*1B
$GPGGA,171559.0,3443.4889,N,08633.1257,W,1,,,221.4,M,,M,,*77
$GPRMC,171559.0,A,3443.4889,N,08633.1257,W,,,220119,,*14
$GPGGA,171629.0,3443.4917,N,08633.1272,W,1,,,225.6,M,,M,,*74
$GPRMC,171629.0,A,3443.4917,N,08633.1272,W,,,220119,,*11
$GPGGA,171659.7,3443.4916,N,08633.1273,W,1,,,228.5,M,,M,,*7A
$GPRMC,171659.7,A,3443.4916,N,08633.1273,W,,,220119,,*11
$GPGGA,171729.0,3443.4916,N,08633.1273,W,1,,,230.1,M,,M,,*76
$GPRMC,171729.0,A,3443.4916,N,08633.1273,W,,,220119,,*10
$GPGGA,171759.0,3443.4916,N,08633.1274,W,1,,,229.5,M,,M,,*7A
$GPRMC,171759.0,A,3443.4916,N,08633.1274,W,,,220119,,*10
$GPGGA,171829.0,3443.4916,N,08633.1274,W,1,,,228.7,M,,M,,*71
$GPRMC,171829.0,A,3443.4916,N,08633.1274,W,,,220119,,*18
$GPGGA,171859.0,3443.4916,N,08633.1273,W,1,,,226.3,M,,M,,*7B
$GPRMC,171859.0,A,3443.4916,N,08633.1273,W,,,220119,,*18
$GPGGA,171929.0,3443.4916,N,08633.1273,W,1,,,224.5,M,,M,,*79
$GPRMC,171929.0,A,3443.4916,N,08633.1273,W,,,220119,,*1E
$GPGGA,171959.0,3443.4917,N,08633.1277,W,1,,,225.3,M,,M,,*7C
$GPRMC,171959.0,A,3443.4917,N,08633.1277,W,,,220119,,*1C
$GPGGA,172029.0,3443.4917,N,08633.1276,W,1,,,225.0,M,,M,,*73
$GPRMC,172029.0,A,3443.4917,N,08633.1276,W,,,220119,,*10
$GPGGA,172059.0,3443.4918,N,08633.1277,W,1,,,225.3,M,,M,,*79
$GPRMC,172059.0,A,3443.4918,N,08633.1277,W,,,220119,,*19
$GPGGA,172129.0,3443.4913,N,08633.1274,W,1,,,226.0,M,,M,,*77
$GPRMC,172129.0,A,3443.4913,N,08633.1274,W,,,220119,,*17
$GPGGA,172159.0,3443.4914,N,08633.1273,W,1,,,225.6,M,,M,,*75
$GPRMC,172159.0,A,3443.4914,N,08633.1273,W,,,220119,,*10
$GPGGA,172229.0,3443.4915,N,08633.1273,W,1,,,225.1,M,,M,,*77
$GPRMC,172229.0,A,3443.4915,N,08633.1273,W,,,220119,,*15
$GPGGA,172259.0,3443.4915,N,08633.1271,W,1,,,223.5,M,,M,,*70
$GPRMC,172259.0,A,3443.4915,N,08633.1271,W,,,220119,,*10
$GPGGA,172329.0,3443.4916,N,08633.1269,W,1,,,221.4,M,,M,,*7F
$GPRMC,172329.0,A,3443.4916,N,08633.1269,W,,,220119,,*1C
$GPGGA,172359.0,3443.4918,N,08633.1268,W,1,,,220.0,M,,M,,*72
$GPRMC,172359.0,A,3443.4918,N,08633.1268,W,,,220119,,*14
$GPGGA,172429.0,3443.4919,N,08633.1267,W,1,,,218.8,M,,M,,*7F
$GPRMC,172429.0,A,3443.4919,N,08633.1267,W,,,220119,,*1A
$GPGGA,172459.1,3443.4919,N,08633.1267,W,1,,,218.8,M,,M,,*79
$GPRMC,172459.1,A,3443.4919,N,08633.1267,W,,,220119,,*1C
$GPGGA,172529.0,3443.4919,N,08633.1267,W,1,,,218.9,M,,M,,*7F
$GPRMC,172529.0,A,3443.4919,N,08633.1267,W,,,220119,,*1B
$GPGGA,172559.0,3443.4919,N,08633.1267,W,1,,,219.0,M,,M,,*70
$GPRMC,172559.0,A,3443.4919,N,08633.1267,W,,,220119,,*1C
$GPGGA,172629.0,3443.4919,N,08633.1267,W,1,,,219.1,M,,M,,*75
$GPRMC,172629.0,A,3443.4919,N,08633.1267,W,,,220119,,*18
$GPGGA,172659.0,3443.4919,N,08633.1266,W,1,,,218.7,M,,M,,*74
$GPRMC,172659.0,A,3443.4919,N,08633.1266,W,,,220119,,*1E
$GPGGA,172729.0,3443.4918,N,08633.1266,W,1,,,218.3,M,,M,,*77
$GPRMC,172729.0,A,3443.4918,N,08633.1266,W,,,220119,,*19
$GPGGA,172759.0,3443.4919,N,08633.1267,W,1,,,218.3,M,,M,,*70
$GPRMC,172759.0,A,3443.4919,N,08633.1267,W,,,220119,,*1E
$GPGGA,172829.0,3443.4919,N,08633.1267,W,1,,,218.0,M,,M,,*7B
$GPRMC,172829.0,A,3443.4919,N,08633.1267,W,,,220119,,*16
$GPGGA,172859.0,3443.4921,N,08633.1270,W,1,,,218.9,M,,M,,*78
$GPRMC,172859.0,A,3443.4921,N,08633.1270,W,,,220119,,*1C
$GPGGA,172929.0,3443.4920,N,08633.1270,W,1,,,219.0,M,,M,,*77
$GPRMC,172929.0,A,3443.4920,N,08633.1270,W,,,220119,,*1B
$GPGGA,172959.0,3443.4919,N,08633.1270,W,1,,,220.9,M,,M,,*79
$GPRMC,172959.0,A,3443.4919,N,08633.1270,W,,,220119,,*16
$GPGGA,173029.0,3443.4918,N,08633.1271,W,1,,,223.5,M,,M,,*79
$GPRMC,173029.0,A,3443.4918,N,08633.1271,W,,,220119,,*19
$GPGGA,173059.0,3443.4917,N,08633.1272,W,1,,,226.3,M,,M,,*71
$GPRMC,173059.0,A,3443.4917,N,08633.1272,W,,,220119,,*12
$GPGGA,173129.0,3443.4916,N,08633.1271,W,1,,,228.0,M,,M,,*78
$GPRMC,173129.0,A,3443.4916,N,08633.1271,W,,,220119,,*16
$GPGGA,173159.0,3443.4916,N,08633.1270,W,1,,,227.8,M,,M,,*79
$GPRMC,173159.0,A,3443.4916,N,08633.1270,W,,,220119,,*10
$GPGGA,173229.0,3443.4916,N,08633.1268,W,1,,,227.3,M,,M,,*7F
$GPRMC,173229.0,A,3443.4916,N,08633.1268,W,,,220119,,*1D
$GPGGA,173259.3,3443.4915,N,08633.1266,W,1,,,226.3,M,,M,,*77
$GPRMC,173259.3,A,3443.4915,N,08633.1266,W,,,220119,,*14
$GPGGA,173329.0,3443.4915,N,08633.1264,W,1,,,225.3,M,,M,,*73
$GPRMC,173329.0,A,3443.4915,N,08633.1264,W,,,220119,,*13
$GPGGA,173359.0,3443.4915,N,08633.1263,W,1,,,224.4,M,,M,,*75
$GPRMC,173359.0,A,3443.4915,N,08633.1263,W,,,220119,,*13
$GPGGA,173429.0,3443.4915,N,08633.1261,W,1,,,223.7,M,,M,,*73
$GPRMC,173429.0,A,3443.4915,N,08633.1261,W,,,220119,,*11
$GPGGA,173459.0,3443.4914,N,08633.1260,W,1,,,223.2,M,,M,,*71
$GPRMC,173459.0,A,3443.4914,N,08633.1260,W,,,220119,,*16
$GPGGA,173529.0,3443.4914,N,08633.1260,W,1,,,222.6,M,,M,,*72
$GPRMC,173529.0,A,3443.4914,N,08633.1260,W,,,220119,,*10
$GPGGA,173559.0,3443.4914,N,08633.1259,W,1,,,222.1,M,,M,,*78
$GPRMC,173559.0,A,3443.4914,N,08633.1259,W,,,220119,,*1D
$GPGGA,173629.0,3443.4895,N,08633.1246,W,1,,,220.3,M,,M,,*7A
$GPRMC,173629.0,A,3443.4895,N,08633.1246,W,,,220119,,*1F
$GPGGA,173659.0,3443.4895,N,08633.1247,W,1,,,223.1,M,,M,,*7D
$GPRMC,173659.0,A,3443.4895,N,08633.1247,W,,,220119,,*19
$GPGGA,173729.0,3443.4896,N,08633.1248,W,1,,,224.6,M,,M,,*77
$GPRMC,173729.0,A,3443.4896,N,08633.1248,W,,,220119,,*13
$GPGGA,173759.0,3443.4898,N,08633.1248,W,1,,,224.6,M,,M,,*7E
$GPRMC,173759.0,A,3443.4898,N,08633.1248,W,,,220119,,*1A
$GPGGA,173829.0,3443.4898,N,08633.1248,W,1,,,224.9,M,,M,,*79
$GPRMC,173829.0,A,3443.4898,N,08633.1248,W,,,220119,,*12
$GPGGA,173859.0,3443.4898,N,08633.1248,W,1,,,225.2,M,,M,,*74
$GPRMC,173859.0,A,3443.4898,N,08633.1248,W,,,220119,,*15
$GPGGA,173929.0,3443.4898,N,08633.1248,W,1,,,225.6,M,,M,,*76
$GPRMC,173929.0,A,3443.4898,N,08633.1248,W,,,220119,,*13
$GPGGA,173959.0,3443.4898,N,08633.1249,W,1,,,225.5,M,,M,,*73
$GPRMC,173959.0,A,3443.4898,N,08633.1249,W,,,220119,,*15
$GPGGA,174029.0,3443.4898,N,08633.1249,W,1,,,225.2,M,,M,,*7D
$GPRMC,174029.0,A,3443.4898,N,08633.1249,W,,,220119,,*1C
$GPGGA,174059.0,3443.4898,N,08633.1249,W,1,,,225.1,M,,M,,*79
$GPRMC,174059.0,A,3443.4898,N,08633.1249,W,,,220119,,*1B
$GPGGA,174129.0,3443.4898,N,08633.1249,W,1,,,225.0,M,,M,,*7E
$GPRMC,174129.0,A,3443.4898,N,08633.1249,W,,,220119,,*1D
$GPGGA,174159.0,3443.4898,N,08633.1249,W,1,,,225.0,M,,M,,*79
$GPRMC,174159.0,A,3443.4898,N,08633.1249,W,,,220119,,*1A
$GPGGA,174229.0,3443.4899,N,08633.1248,W,1,,,225.3,M,,M,,*7E
$GPRMC,174229.0,A,3443.4899,N,08633.1248,W,,,220119,,*1E
$GPGGA,174259.0,3443.4899,N,08633.1248,W,1,,,225.4,M,,M,,*7E
$GPRMC,174259.0,A,3443.4899,N,08633.1248,W,,,220119,,*19
$GPGGA,174329.0,3443.4899,N,08633.1248,W,1,,,225.4,M,,M,,*78
$GPRMC,174329.0,A,3443.4899,N,08633.1248,W,,,220119,,*1F
$GPGGA,174359.0,3443.4899,N,08633.1248,W,1,,,225.8,M,,M,,*73
$GPRMC,174359.0,A,3443.4899,N,08633.1248,W,,,220119,,*18
$GPGGA,174429.0,3443.4899,N,08633.1248,W,1,,,225.8,M,,M,,*73
$GPRMC,174429.0,A,3443.4899,N,08633.1248,W,,,220119,,*18
$GPGGA,174459.0,3443.4899,N,08633.1249,W,1,,,226.0,M,,M,,*7E
$GPRMC,174459.0,A,3443.4899,N,08633.1249,W,,,220119,,*1E
$GPGGA,174529.0,3443.4899,N,08633.1249,W,1,,,226.1,M,,M,,*79
$GPRMC,174529.0,A,3443.4899,N,08633.1249,W,,,220119,,*18
$GPGGA,174559.0,3443.4900,N,08633.1250,W,1,,,226.3,M,,M,,*75
$GPRMC,174559.0,A,3443.4900,N,08633.1250,W,,,220119,,*16
$GPGGA,174629.0,3443.4900,N,08633.1250,W,1,,,226.3,M,,M,,*71
$GPRMC,174629.0,A,3443.4900,N,08633.1250,W,,,220119,,*12
$GPGGA,174659.0,3443.4895,N,08633.1263,W,1,,,225.3,M,,M,,*78
$GPRMC,174659.0,A,3443.4895,N,08633.1263,W,,,220119,,*18
$GPGGA,174729.0,3443.4895,N,08633.1264,W,1,,,225.9,M,,M,,*73
$GPRMC,174729.0,A,3443.4895,N,08633.1264,W,,,220119,,*19
$GPGGA,174759.0,3443.4895,N,08633.1266,W,1,,,224.9,M,,M,,*77
$GPRMC,174759.0,A,3443.4895,N,08633.1266,W,,,220119,,*1C
$GPGGA,174829.0,3443.4895,N,08633.1268,W,1,,,224.3,M,,M,,*7B
$GPRMC,174829.0,A,3443.4895,N,08633.1268,W,,,220119,,*1A
$GPGGA,174859.0,3443.4895,N,08633.1269,W,1,,,224.2,M,,M,,*7C
$GPRMC,174859.0,A,3443.4895,N,08633.1269,W,,,220119,,*1C
$GPGGA,174929.0,3443.4880,N,08633.1268,W,1,,,221.2,M,,M,,*7A
$GPRMC,174929.0,A,3443.4880,N,08633.1268,W,,,220119,,*1F
$GPGGA,174959.0,3443.4880,N,08633.1268,W,1,,,221.4,M,,M,,*7B
$GPRMC,174959.0,A,3443.4880,N,08633.1268,W,,,220119,,*18
$GPGGA,175029.0,3443.4904,N,08633.1266,W,1,,,226.0,M,,M,,*74
$GPRMC,175029.0,A,3443.4904,N,08633.1266,W,,,220119,,*14
$GPGGA,175059.0,3443.4904,N,08633.1266,W,1,,,225.9,M,,M,,*79
$GPRMC,175059.0,A,3443.4904,N,08633.1266,W,,,220119,,*13
$GPGGA,175129.0,3443.4905,N,08633.1280,W,1,,,228.5,M,,M,,*77
$GPRMC,175129.0,A,3443.4905,N,08633.1280,W,,,220119,,*1C
$GPGGA,175159.0,3443.4905,N,08633.1270,W,1,,,228.9,M,,M,,*73
$GPRMC,175159.0,A,3443.4905,N,08633.1270,W,,,220119,,*14
$GPGGA,175229.0,3443.4904,N,08633.1269,W,1,,,229.9,M,,M,,*7F
$GPRMC,175229.0,A,3443.4904,N,08633.1269,W,,,220119,,*19
$GPGGA,175259.0,3443.4905,N,08633.1267,W,1,,,228.1,M,,M,,*7E
$GPRMC,175259.0,A,3443.4905,N,08633.1267,W,,,220119,,*11
$GPGGA,175329.0,3443.4906,N,08633.1266,W,1,,,226.0,M,,M,,*75
$GPRMC,175329.0,A,3443.4906,N,08633.1266,W,,,220119,,*15
$GPGGA,175359.0,3443.4906,N,08633.1265,W,1,,,226.3,M,,M,,*72
$GPRMC,175359.0,A,3443.4906,N,08633.1265,W,,,220119,,*11
$GPGGA,175429.0,3443.4903,N,08633.1265,W,1,,,226.2,M,,M,,*76
$GPRMC,175429.0,A,3443.4903,N,08633.1265,W,,,220119,,*14
$GPGGA,175459.0,3443.4984,N,08633.1205,W,1,,,239.7,M,,M,,*73
$GPRMC,175459.0,A,3443.4984,N,08633.1205,W,,,220119,,*1A
$GPGGA,175529.0,3443.4976,N,08633.1203,W,1,,,231.3,M,,M,,*72
$GPRMC,175529.0,A,3443.4976,N,08633.1203,W,,,220119,,*17
$GPGGA,175559.0,3443.4970,N,08633.1204,W,1,,,235.2,M,,M,,*71
$GPRMC,175559.0,A,3443.4970,N,08633.1204,W,,,220119,,*11
$GPGGA,175629.0,3443.4964,N,08633.1205,W,1,,,238.4,M,,M,,*7A
$GPRMC,175629.0,A,3443.4964,N,08633.1205,W,,,220119,,*11
$GPGGA,175659.0,3443.4962,N,08633.1205,W,1,,,236.1,M,,M,,*70
$GPRMC,175659.0,A,3443.4962,N,08633.1205,W,,,220119,,*10
$GPGGA,175729.0,3443.4959,N,08633.1205,W,1,,,232.1,M,,M,,*7A
$GPRMC,175729.0,A,3443.4959,N,08633.1205,W,,,220119,,*1E
$GPGGA,175759.0,3443.4954,N,08633.1205,W,1,,,227.8,M,,M,,*7D
$GPRMC,175759.0,A,3443.4954,N,08633.1205,W,,,220119,,*14
$GPGGA,175829.0,3443.4951,N,08633.1207,W,1,,,228.8,M,,M,,*7D
$GPRMC,175829.0,A,3443.4951,N,08633.1207,W,,,220119,,*1B
$GPGGA,175859.0,3443.4946,N,08633.1211,W,1,,,231.5,M,,M,,*7E
$GPRMC,175859.0,A,3443.4946,N,08633.1211,W,,,220119,,*1D
$GPGGA,175929.0,3443.4946,N,08633.1214,W,1,,,232.3,M,,M,,*78
$GPRMC,175929.0,A,3443.4946,N,08633.1214,W,,,220119,,*1E
$GPGGA,175959.0,3443.4944,N,08633.1219,W,1,,,232.8,M,,M,,*7B
$GPRMC,175959.0,A,3443.4944,N,08633.1219,W,,,220119,,*16
$GPGGA,180029.0,3443.4943,N,08633.1225,W,1,,,231.3,M,,M,,*7F
$GPRMC,180029.0,A,3443.4943,N,08633.1225,W,,,220119,,*1A
$GPGGA,180059.0,3443.4940,N,08633.1228,W,1,,,228.9,M,,M,,*74
$GPRMC,180059.0,A,3443.4940,N,08633.1228,W,,,220119,,*13
$GPGGA,180129.0,3443.4938,N,08633.1230,W,1,,,227.6,M,,M,,*74
$GPRMC,180129.0,A,3443.4938,N,08633.1230,W,,,220119,,*13
$GPGGA,180159.0,3443.4937,N,08633.1230,W,1,,,226.6,M,,M,,*7D
$GPRMC,180159.0,A,3443.4937,N,08633.1230,W,,,220119,,*1B
$GPGGA,180229.0,3443.4936,N,08633.1230,W,1,,,225.9,M,,M,,*74
$GPRMC,180229.0,A,3443.4936,N,08633.1230,W,,,220119,,*1E
$GPGGA,180259.0,3443.4937,N,08633.1230,W,1,,,225.8,M,,M,,*73
$GPRMC,180259.0,A,3443.4937,N,08633.1230,W,,,220119,,*18
$GPGGA,180329.0,3443.4935,N,08633.1231,W,1,,,226.1,M,,M,,*7C
$GPRMC,180329.0,A,3443.4935,N,08633.1231,W,,,220119,,*1D
$GPGGA,180359.0,3443.4933,N,08633.1233,W,1,,,226.4,M,,M,,*7A
$GPRMC,180359.0,A,3443.4933,N,08633.1233,W,,,220119,,*1E
$GPGGA,180429.0,3443.4936,N,08633.1230,W,1,,,224.8,M,,M,,*72
$GPRMC,180429.0,A,3443.4936,N,08633.1230,W,,,220119,,*18
$GPGGA,180459.0,3443.4936,N,08633.1230,W,1,,,224.7,M,,M,,*7A
$GPRMC,180459.0,A,3443.4936,N,08633.1230,W,,,220119,,*1F
$GPGGA,180529.0,3443.4935,N,08633.1251,W,1,,,223.1,M,,M,,*79
$GPRMC,180529.0,A,3443.4935,N,08633.1251,W,,,220119,,*1D
$GPGGA,180559.0,3443.4935,N,08633.1250,W,1,,,220.6,M,,M,,*7B
$GPRMC,180559.0,A,3443.4935,N,08633.1250,W,,,220119,,*1B
$GPGGA,180629.0,3443.4935,N,08633.1250,W,1,,,219.7,M,,M,,*74
$GPRMC,180629.0,A,3443.4935,N,08633.1250,W,,,220119,,*1F
$GPGGA,180659.0,3443.4935,N,08633.1250,W,1,,,219.4,M,,M,,*70
$GPRMC,180659.0,A,3443.4935,N,08633.1250,W,,,220119,,*18
$GPGGA,180729.0,3443.4935,N,08633.1249,W,1,,,220.4,M,,M,,*74
$GPRMC,180729.0,A,3443.4935,N,08633.1249,W,,,220119,,*16
$GPGGA,180759.0,3443.4935,N,08633.1249,W,1,,,220.7,M,,M,,*70
$GPRMC,180759.0,A,3443.4935,N,08633.1249,W,,,220119,,*11
$GPGGA,180829.0,3443.4952,N,08633.1239,W,1,,,216.8,M,,M,,*74
$GPRMC,180829.0,A,3443.4952,N,08633.1239,W,,,220119,,*1F
$GPGGA,180859.0,3443.4968,N,08633.1222,W,1,,,214.9,M,,M,,*73
$GPRMC,180859.0,A,3443.4968,N,08633.1222,W,,,220119,,*1B
$GPGGA,180929.0,3443.4967,N,08633.1224,W,1,,,216.4,M,,M,,*73
$GPRMC,180929.0,A,3443.4967,N,08633.1224,W,,,220119,,*14
$GPGGA,180959.0,3443.4966,N,08633.1225,W,1,,,217.2,M,,M,,*73
$GPRMC,180959.0,A,3443.4966,N,08633.1225,W,,,220119,,*13
$GPGGA,181029.0,3443.4966,N,08633.1225,W,1,,,216.4,M,,M,,*7B
$GPRMC,181029.0,A,3443.4966,N,08633.1225,W,,,220119,,*1C
$GPGGA,181059.0,3443.4966,N,08633.1225,W,1,,,216.0,M,,M,,*78
$GPRMC,181059.0,A,3443.4966,N,08633.1225,W,,,220119,,*1B
$GPGGA,181129.0,3443.4965,N,08633.1225,W,1,,,216.0,M,,M,,*7D
$GPRMC,181129.0,A,3443.4965,N,08633.1225,W,,,220119,,*1E
$GPGGA,181159.0,3443.4964,N,08633.1225,W,1,,,215.7,M,,M,,*7F
$GPRMC,181159.0,A,3443.4964,N,08633.1225,W,,,220119,,*18
$GPGGA,181229.0,3443.4962,N,08633.1226,W,1,,,216.4,M,,M,,*7E
$GPRMC,181229.0,A,3443.4962,N,08633.1226,W,,,220119,,*19
$GPGGA,181259.0,3443.4948,N,08633.1212,W,1,,,218.8,M,,M,,*74
$GPRMC,181259.0,A,3443.4948,N,08633.1212,W,,,220119,,*11
$GPGGA,181329.0,3443.4947,N,08633.1213,W,1,,,217.2,M,,M,,*79
$GPRMC,181329.0,A,3443.4947,N,08633.1213,W,,,220119,,*19
$GPGGA,181359.0,3443.4946,N,08633.1215,W,1,,,217.8,M,,M,,*73
$GPRMC,181359.0,A,3443.4946,N,08633.1215,W,,,220119,,*19
$GPGGA,181429.0,3443.4945,N,08633.1217,W,1,,,218.5,M,,M,,*70
$GPRMC,181429.0,A,3443.4945,N,08633.1217,W,,,220119,,*18
$GPGGA,181459.0,3443.4945,N,08633.1219,W,1,,,219.3,M,,M,,*7E
$GPRMC,181459.0,A,3443.4945,N,08633.1219,W,,,220119,,*11
$GPGGA,181529.0,3443.4944,N,08633.1221,W,1,,,219.6,M,,M,,*77
$GPRMC,181529.0,A,3443.4944,N,08633.1221,W,,,220119,,*1D
$GPGGA,181559.0,3443.4944,N,08633.1221,W,1,,,219.3,M,,M,,*75
$GPRMC,181559.0,A,3443.4944,N,08633.1221,W,,,220119,,*1A
$GPGGA,181629.0,3443.4943,N,08633.1222,W,1,,,219.3,M,,M,,*75
$GPRMC,181629.0,A,3443.4943,N,08633.1222,W,,,220119,,*1A
$GPGGA,181659.0,3443.4943,N,08633.1222,W,1,,,218.6,M,,M,,*76
$GPRMC,181659.0,A,3443.4943,N,08633.1222,W,,,220119,,*1D
$GPGGA,181729.0,3443.4943,N,08633.1223,W,1,,,218.7,M,,M,,*70
$GPRMC,181729.0,A,3443.4943,N,08633.1223,W,,,220119,,*1A
$GPGGA,181759.0,3443.4948,N,08633.1224,W,1,,,219.2,M,,M,,*7F
$GPRMC,181759.0,A,3443.4948,N,08633.1224,W,,,220119,,*11
$GPGGA,181829.0,3443.4948,N,08633.1225,W,1,,,220.6,M,,M,,*78
$GPRMC,181829.0,A,3443.4948,N,08633.1225,W,,,220119,,*18
$GPGGA,181859.0,3443.4948,N,08633.1225,W,1,,,221.4,M,,M,,*7C
$GPRMC,181859.0,A,3443.4948,N,08633.1225,W,,,220119,,*1F
$GPGGA,181929.0,3443.4948,N,08633.1226,W,1,,,221.6,M,,M,,*7B
$GPRMC,181929.0,A,3443.4948,N,08633.1226,W,,,220119,,*1A
$GPGGA,181959.0,3443.4946,N,08633.1231,W,1,,,224.2,M,,M,,*75
$GPRMC,181959.0,A,3443.4946,N,08633.1231,W,,,220119,,*15
$GPGGA,182029.0,3443.4946,N,08633.1232,W,1,,,224.4,M,,M,,*7D
$GPRMC,182029.0,A,3443.4946,N,08633.1232,W,,,220119,,*1B
$GPGGA,182059.0,3443.4939,N,08633.1234,W,1,,,225.4,M,,M,,*75
$GPRMC,182059.0,A,3443.4939,N,08633.1234,W,,,220119,,*12
$GPGGA,182129.0,3443.4939,N,08633.1235,W,1,,,225.3,M,,M,,*75
$GPRMC,182129.0,A,3443.4939,N,08633.1235,W,,,220119,,*15
$GPGGA,182159.0,3443.4938,N,08633.1235,W,1,,,225.0,M,,M,,*70
$GPRMC,182159.0,A,3443.4938,N,08633.1235,W,,,220119,,*13
$GPGGA,182229.0,3443.4938,N,08633.1236,W,1,,,224.6,M,,M,,*70
$GPRMC,182229.0,A,3443.4938,N,08633.1236,W,,,220119,,*14
$GPGGA,182259.0,3443.4937,N,08633.1237,W,1,,,224.3,M,,M,,*7C
$GPRMC,182259.0,A,3443.4937,N,08633.1237,W,,,220119,,*1D
$GPGGA,182329.0,3443.4935,N,08633.1238,W,1,,,225.4,M,,M,,*71
$GPRMC,182329.0,A,3443.4935,N,08633.1238,W,,,220119,,*16
$GPGGA,182359.0,3443.4943,N,08633.1237,W,1,,,224.3,M,,M,,*7E
$GPRMC,182359.0,A,3443.4943,N,08633.1237,W,,,220119,,*1F
$GPGGA,182429.0,3443.4943,N,08633.1237,W,1,,,224.3,M,,M,,*7E
$GPRMC,182429.0,A,3443.4943,N,08633.1237,W,,,220119,,*1F
$GPGGA,182459.0,3443.4942,N,08633.1238,W,1,,,224.3,M,,M,,*77
$GPRMC,182459.0,A,3443.4942,N,08633.1238,W,,,220119,,*16
$GPGGA,182529.0,3443.4962,N,08633.1243,W,1,,,225.7,M,,M,,*7A
$GPRMC,182529.0,A,3443.4962,N,08633.1243,W,,,220119,,*1E
$GPGGA,182559.0,3443.4962,N,08633.1241,W,1,,,223.4,M,,M,,*7A
$GPRMC,182559.0,A,3443.4962,N,08633.1241,W,,,220119,,*1B
$GPGGA,182629.0,3443.4971,N,08633.1241,W,1,,,221.1,M,,M,,*7B
$GPRMC,182629.0,A,3443.4971,N,08633.1241,W,,,220119,,*1D
$GPGGA,182659.0,3443.4970,N,08633.1241,W,1,,,222.0,M,,M,,*7F
$GPRMC,182659.0,A,3443.4970,N,08633.1241,W,,,220119,,*1B
$GPGGA,182729.0,3443.4969,N,08633.1241,W,1,,,223.5,M,,M,,*75
$GPRMC,182729.0,A,3443.4969,N,08633.1241,W,,,220119,,*15
$GPGGA,182759.0,3443.4968,N,08633.1241,W,1,,,224.8,M,,M,,*79
$GPRMC,182759.0,A,3443.4968,N,08633.1241,W,,,220119,,*13
$GPGGA,182829.5,3443.4968,N,08633.1241,W,1,,,225.4,M,,M,,*79
$GPRMC,182829.5,A,3443.4968,N,08633.1241,W,,,220119,,*1E
$GPGGA,182859.0,3443.4974,N,08633.1239,W,1,,,226.1,M,,M,,*7F
$GPRMC,182859.0,A,3443.4974,N,08633.1239,W,,,220119,,*1E
$GPGGA,182929.0,3443.4974,N,08633.1239,W,1,,,226.3,M,,M,,*7B
$GPRMC,182929.0,A,3443.4974,N,08633.1239,W,,,220119,,*18
$GPGGA,182959.0,3443.4974,N,08633.1239,W,1,,,225.8,M,,M,,*74
$GPRMC,182959.0,A,3443.4974,N,08633.1239,W,,,220119,,*1F
$GPGGA,183029.0,3443.4973,N,08633.1239,W,1,,,225.5,M,,M,,*71
$GPRMC,183029.0,A,3443.4973,N,08633.1239,W,,,220119,,*17
$GPGGA,183059.0,3443.4973,N,08633.1240,W,1,,,225.5,M,,M,,*78
$GPRMC,183059.0,A,3443.4973,N,08633.1240,W,,,220119,,*1E
$GPGGA,183129.0,3443.4976,N,08633.1236,W,1,,,226.1,M,,M,,*7D
$GPRMC,183129.0,A,3443.4976,N,08633.1236,W,,,220119,,*1C
$GPGGA,183159.0,3443.4975,N,08633.1238,W,1,,,226.1,M,,M,,*77
$GPRMC,183159.0,A,3443.4975,N,08633.1238,W,,,220119,,*16
$GPGGA,183229.0,3443.4975,N,08633.1239,W,1,,,225.8,M,,M,,*78
$GPRMC,183229.0,A,3443.4975,N,08633.1239,W,,,220119,,*13
$GPGGA,183259.0,3443.4974,N,08633.1239,W,1,,,225.5,M,,M,,*73
$GPRMC,183259.0,A,3443.4974,N,08633.1239,W,,,220119,,*15
$GPGGA,183329.0,3443.4973,N,08633.1240,W,1,,,225.5,M,,M,,*7C
$GPRMC,183329.0,A,3443.4973,N,08633.1240,W,,,220119,,*1A
$GPGGA,183359.0,3443.4973,N,08633.1240,W,1,,,225.8,M,,M,,*76
$GPRMC,183359.0,A,3443.4973,N,08633.1240,W,,,220119,,*1D
$GPGGA,183429.0,3443.4972,N,08633.1241,W,1,,,225.9,M,,M,,*77
$GPRMC,183429.0,A,3443.4972,N,08633.1241,W,,,220119,,*1D
$GPGGA,183459.0,3443.4972,N,08633.1241,W,1,,,225.4,M,,M,,*7D
$GPRMC,183459.0,A,3443.4972,N,08633.1241,W,,,220119,,*1A
$GPGGA,183529.0,3443.4971,N,08633.1241,W,1,,,224.7,M,,M,,*7A
$GPRMC,183529.0,A,3443.4971,N,08633.1241,W,,,220119,,*1F
$GPGGA,183559.0,3443.4971,N,08633.1240,W,1,,,223.2,M,,M,,*7E
$GPRMC,183559.0,A,3443.4971,N,08633.1240,W,,,220119,,*19
$GPGGA,183629.0,3443.4971,N,08633.1240,W,1,,,222.3,M,,M,,*7A
$GPRMC,183629.0,A,3443.4971,N,08633.1240,W,,,220119,,*1D
$GPGGA,183659.0,3443.4971,N,08633.1240,W,1,,,222.2,M,,M,,*7C
$GPRMC,183659.0,A,3443.4971,N,08633.1240,W,,,220119,,*1A
$GPGGA,183729.0,3443.4971,N,08633.1239,W,1,,,222.2,M,,M,,*74
$GPRMC,183729.0,A,3443.4971,N,08633.1239,W,,,220119,,*12
$GPGGA,183759.0,3443.4971,N,08633.1239,W,1,,,222.2,M,,M,,*73
$GPRMC,183759.0,A,3443.4971,N,08633.1239,W,,,220119,,*15
$GPGGA,183829.0,3443.4970,N,08633.1239,W,1,,,222.1,M,,M,,*79
$GPRMC,183829.0,A,3443.4970,N,08633.1239,W,,,220119,,*1C
$GPGGA,183859.0,3443.4970,N,08633.1239,W,1,,,222.0,M,,M,,*7F
$GPRMC,183859.0,A,3443.4970,N,08633.1239,W,,,220119,,*1B
$GPGGA,183929.0,3443.4970,N,08633.1238,W,1,,,219.2,M,,M,,*72
$GPRMC,183929.0,A,3443.4970,N,08633.1238,W,,,220119,,*1C
$GPGGA,183959.0,3443.4970,N,08633.1238,W,1,,,218.5,M,,M,,*73
$GPRMC,183959.0,A,3443.4970,N,08633.1238,W,,,220119,,*1B
$GPGGA,184029.0,3443.4970,N,08633.1238,W,1,,,219.1,M,,M,,*7F
$GPRMC,184029.0,A,3443.4970,N,08633.1238,W,,,220119,,*12
$GPGGA,184059.0,3443.4970,N,08633.1239,W,1,,,219.0,M,,M,,*78
$GPRMC,184059.0,A,3443.4970,N,08633.1239,W,,,220119,,*14
$GPGGA,184129.0,3443.4969,N,08633.1238,W,1,,,216.6,M,,M,,*7E
$GPRMC,184129.0,A,3443.4969,N,08633.1238,W,,,220119,,*1B
$GPGGA,184159.0,3443.4969,N,08633.1239,W,1,,,216.6,M,,M,,*78
$GPRMC,184159.0,A,3443.4969,N,08633.1239,W,,,220119,,*1D
$GPGGA,184229.0,3443.4968,N,08633.1239,W,1,,,217.7,M,,M,,*7D
$GPRMC,184229.0,A,3443.4968,N,08633.1239,W,,,220119,,*18
$GPGGA,184259.0,3443.4967,N,08633.1239,W,1,,,219.7,M,,M,,*7B
$GPRMC,184259.0,A,3443.4967,N,08633.1239,W,,,220119,,*10
$GPGGA,184329.0,3443.4966,N,08633.1240,W,1,,,220.3,M,,M,,*7C
$GPRMC,184329.0,A,3443.4966,N,08633.1240,W,,,220119,,*19
$GPGGA,184359.0,3443.4966,N,08633.1243,W,1,,,220.0,M,,M,,*7B
$GPRMC,184359.0,A,3443.4966,N,08633.1243,W,,,220119,,*1D
$GPGGA,184429.0,3443.4962,N,08633.1247,W,1,,,221.8,M,,M,,*72
$GPRMC,184429.0,A,3443.4962,N,08633.1247,W,,,220119,,*1D
$GPGGA,184459.0,3443.4960,N,08633.1248,W,1,,,223.1,M,,M,,*73
$GPRMC,184459.0,A,3443.4960,N,08633.1248,W,,,220119,,*17
$GPGGA,184529.0,3443.4958,N,08633.1249,W,1,,,224.3,M,,M,,*7A
$GPRMC,184529.0,A,3443.4958,N,08633.1249,W,,,220119,,*1B
$GPGGA,184559.0,3443.4956,N,08633.1250,W,1,,,225.7,M,,M,,*7E
$GPRMC,184559.0,A,3443.4956,N,08633.1250,W,,,220119,,*1A
$GPGGA,184629.0,3443.4954,N,08633.1251,W,1,,,226.4,M,,M,,*79
$GPRMC,184629.0,A,3443.4954,N,08633.1251,W,,,220119,,*1D
$GPGGA,184659.0,3443.4952,N,08633.1252,W,1,,,226.9,M,,M,,*76
$GPRMC,184659.0,A,3443.4952,N,08633.1252,W,,,220119,,*1F
$GPGGA,184729.0,3443.4950,N,08633.1253,W,1,,,226.8,M,,M,,*72
$GPRMC,184729.0,A,3443.4950,N,08633.1253,W,,,220119,,*1A
$GPGGA,184759.0,3443.4949,N,08633.1253,W,1,,,226.9,M,,M,,*7C
$GPRMC,184759.0,A,3443.4949,N,08633.1253,W,,,220119,,*15
$GPGGA,184829.0,3443.4947,N,08633.1253,W,1,,,227.2,M,,M,,*70
$GPRMC,184829.0,A,3443.4947,N,08633.1253,W,,,220119,,*13
$GPGGA,184859.0,3443.4959,N,08633.1246,W,1,,,226.0,M,,M,,*7F
$GPRMC,184859.0,A,3443.4959,N,08633.1246,W,,,220119,,*1F
$GPGGA,184929.3,3443.4951,N,08633.1246,W,1,,,230.9,M,,M,,*7C
$GPRMC,184929.3,A,3443.4951,N,08633.1246,W,,,220119,,*12
$GPGGA,184959.0,3443.4950,N,08633.1245,W,1,,,230.6,M,,M,,*75
$GPRMC,184959.0,A,3443.4950,N,08633.1245,W,,,220119,,*14
$GPGGA,185029.0,3443.4950,N,08633.1245,W,1,,,230.1,M,,M,,*7D
$GPRMC,185029.0,A,3443.4950,N,08633.1245,W,,,220119,,*1B
$GPGGA,185059.0,3443.4950,N,08633.1245,W,1,,,229.4,M,,M,,*77
$GPRMC,185059.0,A,3443.4950,N,08633.1245,W,,,220119,,*1C
$GPGGA,185129.0,3443.4949,N,08633.1245,W,1,,,228.2,M,,M,,*7E
$GPRMC,185129.0,A,3443.4949,N,08633.1245,W,,,220119,,*12
$GPGGA,185159.0,3443.4948,N,08633.1245,W,1,,,228.1,M,,M,,*7B
$GPRMC,185159.0,A,3443.4948,N,08633.1245,W,,,220119,,*14
$GPGGA,185229.0,3443.4947,N,08633.1246,W,1,,,228.3,M,,M,,*71
$GPRMC,185229.0,A,3443.4947,N,08633.1246,W,,,220119,,*1C
$GPGGA,185259.0,3443.4945,N,08633.1246,W,1,,,228.0,M,,M,,*77
$GPRMC,185259.0,A,3443.4945,N,08633.1246,W,,,220119,,*19
$GPGGA,185329.0,3443.4944,N,08633.1247,W,1,,,228.5,M,,M,,*74
$GPRMC,185329.0,A,3443.4944,N,08633.1247,W,,,220119,,*1F
$GPGGA,185359.0,3443.4943,N,08633.1247,W,1,,,228.8,M,,M,,*79
$GPRMC,185359.0,A,3443.4943,N,08633.1247,W,,,220119,,*1F
$GPGGA,185429.0,3443.4943,N,08633.1247,W,1,,,228.6,M,,M,,*77
$GPRMC,185429.0,A,3443.4943,N,08633.1247,W,,,220119,,*1F
$GPGGA,185459.0,3443.4944,N,08633.1246,W,1,,,228.1,M,,M,,*71
$GPRMC,185459.0,A,3443.4944,N,08633.1246,W,,,220119,,*1E
$GPGGA,185529.0,3443.4944,N,08633.1246,W,1,,,227.5,M,,M,,*7C
$GPRMC,185529.0,A,3443.4944,N,08633.1246,W,,,220119,,*18
$GPGGA,185559.0,3443.4944,N,08633.1246,W,1,,,226.9,M,,M,,*76
$GPRMC,185559.0,A,3443.4944,N,08633.1246,W,,,220119,,*1F
$GPGGA,185629.3,3443.4940,N,08633.1249,W,1,,,225.2,M,,M,,*72
$GPRMC,185629.3,A,3443.4940,N,08633.1249,W,,,220119,,*13
$GPGGA,185659.0,3443.4929,N,08633.1256,W,1,,,220.5,M,,M,,*75
$GPRMC,185659.0,A,3443.4929,N,08633.1256,W,,,220119,,*16
$GPGGA,185729.0,3443.4910,N,08633.1245,W,1,,,220.5,M,,M,,*7B
$GPRMC,185729.0,A,3443.4910,N,08633.1245,W,,,220119,,*18
$GPGGA,185759.0,3443.4910,N,08633.1245,W,1,,,220.5,M,,M,,*7C
$GPRMC,185759.0,A,3443.4910,N,08633.1245,W,,,220119,,*1F
$GPGGA,185829.0,3443.4912,N,08633.1244,W,1,,,221.6,M,,M,,*75
$GPRMC,185829.0,A,3443.4912,N,08633.1244,W,,,220119,,*14
$GPGGA,185859.0,3443.4913,N,08633.1243,W,1,,,221.7,M,,M,,*75
$GPRMC,185859.0,A,3443.4913,N,08633.1243,W,,,220119,,*15
$GPGGA,185929.0,3443.4913,N,08633.1243,W,1,,,221.9,M,,M,,*7D
$GPRMC,185929.0,A,3443.4913,N,08633.1243,W,,,220119,,*13
$GPGGA,185959.0,3443.4913,N,08633.1243,W,1,,,221.9,M,,M,,*7A
$GPRMC,185959.0,A,3443.4913,N,08633.1243,W,,,220119,,*14
$GPGGA,190029.0,3443.4909,N,08633.1246,W,1,,,219.9,M,,M,,*75
$GPRMC,190029.0,A,3443.4909,N,08633.1246,W,,,220119,,*10
$GPGGA,190059.0,3443.4909,N,08633.1246,W,1,,,220.1,M,,M,,*70
$GPRMC,190059.0,A,3443.4909,N,08633.1246,W,,,220119,,*17
$GPGGA,190129.0,3443.4909,N,08633.1247,W,1,,,220.3,M,,M,,*75
$GPRMC,190129.0,A,3443.4909,N,08633.1247,W,,,220119,,*10
$GPGGA,190159.0,3443.4909,N,08633.1246,W,1,,,220.3,M,,M,,*73
$GPRMC,190159.0,A,3443.4909,N,08633.1246,W,,,220119,,*16
$GPGGA,190229.0,3443.4909,N,08633.1246,W,1,,,220.4,M,,M,,*70
$GPRMC,190229.0,A,3443.4909,N,08633.1246,W,,,220119,,*12
$GPGGA,190259.0,3443.4909,N,08633.1246,W,1,,,220.5,M,,M,,*76
$GPRMC,190259.0,A,3443.4909,N,08633.1246,W,,,220119,,*15
$GPGGA,190329.0,3443.4909,N,08633.1246,W,1,,,220.7,M,,M,,*72
$GPRMC,190329.0,A,3443.4909,N,08633.1246,W,,,220119,,*13
$GPGGA,190359.0,3443.4909,N,08633.1246,W,1,,,220.8,M,,M,,*7A
$GPRMC,190359.0,A,3443.4909,N,08633.1246,W,,,220119,,*14
$GPGGA,190429.0,3443.4909,N,08633.1246,W,1,,,221.1,M,,M,,*72
$GPRMC,190429.0,A,3443.4909,N,08633.1246,W,,,220119,,*14
$GPGGA,190459.0,3443.4909,N,08633.1246,W,1,,,221.4,M,,M,,*70
$GPRMC,190459.0,A,3443.4909,N,08633.1246,W,,,220119,,*13
$GPGGA,190529.0,3443.4919,N,08633.1245,W,1,,,220.1,M,,M,,*70
$GPRMC,190529.0,A,3443.4919,N,08633.1245,W,,,220119,,*17
$GPGGA,190559.0,3443.4919,N,08633.1246,W,1,,,220.4,M,,M,,*71
$GPRMC,190559.0,A,3443.4919,N,08633.1246,W,,,220119,,*13
