@Olympus/+0900/+0900
$GPGGA,013650.1,3443.4947,N,08633.1211,W,1,,,20.0,M,,M,,*4F
$GPRMC,013650.1,A,3443.4947,N,08633.1211,W,,,230119,,*1A
$GPGGA,013720.0,3443.4890,N,08633.1236,W,1,,,219.9,M,,M,,*77
$GPRMC,013720.0,A,3443.4890,N,08633.1236,W,,,230119,,*13
$GPGGA,013750.0,3443.4893,N,08633.1224,W,1,,,217.0,M,,M,,*77
$GPRMC,013750.0,A,3443.4893,N,08633.1224,W,,,230119,,*14
$GPGGA,013820.0,3443.4894,N,08633.1223,W,1,,,218.5,M,,M,,*75
$GPRMC,013820.0,A,3443.4894,N,08633.1223,W,,,230119,,*1C
$GPGGA,013850.0,3443.4897,N,08633.1224,W,1,,,221.4,M,,M,,*7D
$GPRMC,013850.0,A,3443.4897,N,08633.1224,W,,,230119,,*1F
$GPGGA,013920.0,3443.4899,N,08633.1225,W,1,,,222.6,M,,M,,*75
$GPRMC,013920.0,A,3443.4899,N,08633.1225,W,,,230119,,*16
$GPGGA,013950.0,3443.4905,N,08633.1226,W,1,,,224.4,M,,M,,*71
$GPRMC,013950.0,A,3443.4905,N,08633.1226,W,,,230119,,*16
$GPGGA,014020.0,3443.4906,N,08633.1229,W,1,,,225.6,M,,M,,*77
$GPRMC,014020.0,A,3443.4906,N,08633.1229,W,,,230119,,*13
$GPGGA,014050.0,3443.4905,N,08633.1231,W,1,,,225.2,M,,M,,*7E
$GPRMC,014050.0,A,3443.4905,N,08633.1231,W,,,230119,,*1E
$GPGGA,014120.0,3443.4904,N,08633.1232,W,1,,,224.6,M,,M,,*7F
$GPRMC,014120.0,A,3443.4904,N,08633.1232,W,,,230119,,*1A
$GPGGA,014150.0,3443.4903,N,08633.1234,W,1,,,224.4,M,,M,,*7B
$GPRMC,014150.0,A,3443.4903,N,08633.1234,W,,,230119,,*1C
$GPGGA,014220.0,3443.4903,N,08633.1235,W,1,,,226.5,M,,M,,*7D
$GPRMC,014220.0,A,3443.4903,N,08633.1235,W,,,230119,,*19
$GPGGA,014250.0,3443.4905,N,08633.1236,W,1,,,227.9,M,,M,,*72
$GPRMC,014250.0,A,3443.4905,N,08633.1236,W,,,230119,,*1B
$GPGGA,014320.0,3443.4906,N,08633.1235,W,1,,,228.4,M,,M,,*76
$GPRMC,014320.0,A,3443.4906,N,08633.1235,W,,,230119,,*1D
$GPGGA,014350.0,3443.4909,N,08633.1235,W,1,,,228.6,M,,M,,*7C
$GPRMC,014350.0,A,3443.4909,N,08633.1235,W,,,230119,,*15
$GPGGA,014420.0,3443.4910,N,08633.1236,W,1,,,228.8,M,,M,,*79
$GPRMC,014420.0,A,3443.4910,N,08633.1236,W,,,230119,,*1E
$GPGGA,014450.0,3443.4909,N,08633.1238,W,1,,,228.5,M,,M,,*75
$GPRMC,014450.0,A,3443.4909,N,08633.1238,W,,,230119,,*1F
$GPGGA,014520.0,3443.4910,N,08633.1238,W,1,,,228.2,M,,M,,*7C
$GPRMC,014520.0,A,3443.4910,N,08633.1238,W,,,230119,,*11
$GPGGA,014550.0,3443.4910,N,08633.1239,W,1,,,227.8,M,,M,,*7F
$GPRMC,014550.0,A,3443.4910,N,08633.1239,W,,,230119,,*17
$GPGGA,014620.0,3443.4911,N,08633.1239,W,1,,,227.4,M,,M,,*76
$GPRMC,014620.0,A,3443.4911,N,08633.1239,W,,,230119,,*12
$GPGGA,014650.0,3443.4912,N,08633.1239,W,1,,,226.6,M,,M,,*71
$GPRMC,014650.0,A,3443.4912,N,08633.1239,W,,,230119,,*16
$GPGGA,014720.0,3443.4913,N,08633.1239,W,1,,,225.8,M,,M,,*7B
$GPRMC,014720.0,A,3443.4913,N,08633.1239,W,,,230119,,*11
$GPGGA,014750.0,3443.4915,N,08633.1240,W,1,,,225.6,M,,M,,*7A
$GPRMC,014750.0,A,3443.4915,N,08633.1240,W,,,230119,,*1E
$GPGGA,014820.0,3443.4916,N,08633.1240,W,1,,,225.7,M,,M,,*70
$GPRMC,014820.0,A,3443.4916,N,08633.1240,W,,,230119,,*15
$GPGGA,014850.0,3443.4918,N,08633.1241,W,1,,,225.9,M,,M,,*76
$GPRMC,014850.0,A,3443.4918,N,08633.1241,W,,,230119,,*1D
$GPGGA,014920.0,3443.4918,N,08633.1241,W,1,,,225.9,M,,M,,*70
$GPRMC,014920.0,A,3443.4918,N,08633.1241,W,,,230119,,*1B
$GPGGA,014950.0,3443.4919,N,08633.1241,W,1,,,225.9,M,,M,,*76
$GPRMC,014950.0,A,3443.4919,N,08633.1241,W,,,230119,,*1D
$GPGGA,015020.0,3443.4918,N,08633.1241,W,1,,,225.7,M,,M,,*76
$GPRMC,015020.0,A,3443.4918,N,08633.1241,W,,,230119,,*13
$GPGGA,015050.0,3443.4918,N,08633.1241,W,1,,,225.3,M,,M,,*75
$GPRMC,015050.0,A,3443.4918,N,08633.1241,W,,,230119,,*14
$GPGGA,015120.0,3443.4905,N,08633.1235,W,1,,,225.2,M,,M,,*7D
$GPRMC,015120.0,A,3443.4905,N,08633.1235,W,,,230119,,*1D
$GPGGA,015150.0,3443.4906,N,08633.1235,W,1,,,225.1,M,,M,,*7A
$GPRMC,015150.0,A,3443.4906,N,08633.1235,W,,,230119,,*19
$GPGGA,015220.0,3443.4906,N,08633.1235,W,1,,,225.3,M,,M,,*7C
$GPRMC,015220.0,A,3443.4906,N,08633.1235,W,,,230119,,*1D
$GPGGA,015250.0,3443.4913,N,08633.1238,W,1,,,226.0,M,,M,,*72
$GPRMC,015250.0,A,3443.4913,N,08633.1238,W,,,230119,,*13
$GPGGA,015320.0,3443.4912,N,08633.1238,W,1,,,225.9,M,,M,,*7F
$GPRMC,015320.0,A,3443.4912,N,08633.1238,W,,,230119,,*14
$GPGGA,015350.0,3443.4912,N,08633.1238,W,1,,,225.6,M,,M,,*77
$GPRMC,015350.0,A,3443.4912,N,08633.1238,W,,,230119,,*13
$GPGGA,015420.0,3443.4912,N,08633.1237,W,1,,,225.4,M,,M,,*7A
$GPRMC,015420.0,A,3443.4912,N,08633.1237,W,,,230119,,*1C
$GPGGA,015450.0,3443.4911,N,08633.1230,W,1,,,224.4,M,,M,,*78
$GPRMC,015450.0,A,3443.4911,N,08633.1230,W,,,230119,,*1F
$GPGGA,015520.0,3443.4911,N,08633.1230,W,1,,,221.0,M,,M,,*7F
$GPRMC,015520.0,A,3443.4911,N,08633.1230,W,,,230119,,*19
$GPGGA,015550.0,3443.4911,N,08633.1230,W,1,,,222.6,M,,M,,*7D
$GPRMC,015550.0,A,3443.4911,N,08633.1230,W,,,230119,,*1E
$GPGGA,015620.0,3443.4911,N,08633.1230,W,1,,,224.5,M,,M,,*7C
$GPRMC,015620.0,A,3443.4911,N,08633.1230,W,,,230119,,*1A
$GPGGA,015650.0,3443.4911,N,08633.1230,W,1,,,223.4,M,,M,,*7D
$GPRMC,015650.0,A,3443.4911,N,08633.1230,W,,,230119,,*1D
$GPGGA,015720.0,3443.4907,N,08633.1226,W,1,,,217.9,M,,M,,*71
$GPRMC,015720.0,A,3443.4907,N,08633.1226,W,,,230119,,*1B
$GPGGA,015750.0,3443.4908,N,08633.1226,W,1,,,218.1,M,,M,,*7E
$GPRMC,015750.0,A,3443.4908,N,08633.1226,W,,,230119,,*13
$GPGGA,015820.0,3443.4916,N,08633.1222,W,1,,,221.3,M,,M,,*75
$GPRMC,015820.0,A,3443.4916,N,08633.1222,W,,,230119,,*10
$GPGGA,015850.0,3443.4917,N,08633.1222,W,1,,,222.9,M,,M,,*7A
$GPRMC,015850.0,A,3443.4917,N,08633.1222,W,,,230119,,*16
$GPGGA,015920.0,3443.4917,N,08633.1224,W,1,,,226.8,M,,M,,*7F
$GPRMC,015920.0,A,3443.4917,N,08633.1224,W,,,230119,,*16
$GPGGA,015950.0,3443.4917,N,08633.1224,W,1,,,225.2,M,,M,,*71
$GPRMC,015950.0,A,3443.4917,N,08633.1224,W,,,230119,,*11
$GPGGA,020020.0,3443.4917,N,08633.1225,W,1,,,223.9,M,,M,,*75
$GPRMC,020020.0,A,3443.4917,N,08633.1225,W,,,230119,,*18
$GPGGA,020050.0,3443.4916,N,08633.1226,W,1,,,223.3,M,,M,,*7A
$GPRMC,020050.0,A,3443.4916,N,08633.1226,W,,,230119,,*1D
$GPGGA,020120.0,3443.4916,N,08633.1228,W,1,,,222.3,M,,M,,*73
$GPRMC,020120.0,A,3443.4916,N,08633.1228,W,,,230119,,*15
$GPGGA,020150.0,3443.4917,N,08633.1229,W,1,,,222.2,M,,M,,*75
$GPRMC,020150.0,A,3443.4917,N,08633.1229,W,,,230119,,*12
$GPGGA,020220.0,3443.4917,N,08633.1229,W,1,,,220.9,M,,M,,*78
$GPRMC,020220.0,A,3443.4917,N,08633.1229,W,,,230119,,*16
$GPGGA,020250.0,3443.4916,N,08633.1232,W,1,,,222.7,M,,M,,*78
$GPRMC,020250.0,A,3443.4916,N,08633.1232,W,,,230119,,*1A
$GPGGA,020320.0,3443.4915,N,08633.1233,W,1,,,223.1,M,,M,,*7B
$GPRMC,020320.0,A,3443.4915,N,08633.1233,W,,,230119,,*1E
$GPGGA,020350.0,3443.4915,N,08633.1233,W,1,,,223.1,M,,M,,*7C
$GPRMC,020350.0,A,3443.4915,N,08633.1233,W,,,230119,,*19
$GPGGA,020420.0,3443.4914,N,08633.1233,W,1,,,223.2,M,,M,,*7E
$GPRMC,020420.0,A,3443.4914,N,08633.1233,W,,,230119,,*18
$GPGGA,020450.0,3443.4917,N,08633.1241,W,1,,,226.3,M,,M,,*7B
$GPRMC,020450.0,A,3443.4917,N,08633.1241,W,,,230119,,*19
$GPGGA,020520.0,3443.4916,N,08633.1241,W,1,,,226.4,M,,M,,*7B
$GPRMC,020520.0,A,3443.4916,N,08633.1241,W,,,230119,,*1E
$GPGGA,020550.0,3443.4916,N,08633.1241,W,1,,,226.5,M,,M,,*7D
$GPRMC,020550.0,A,3443.4916,N,08633.1241,W,,,230119,,*19
$GPGGA,020620.0,3443.4915,N,08633.1241,W,1,,,226.6,M,,M,,*79
$GPRMC,020620.0,A,3443.4915,N,08633.1241,W,,,230119,,*1E
$GPGGA,020650.0,3443.4915,N,08633.1242,W,1,,,226.7,M,,M,,*7C
$GPRMC,020650.0,A,3443.4915,N,08633.1242,W,,,230119,,*1A
$GPGGA,020720.0,3443.4915,N,08633.1242,W,1,,,226.6,M,,M,,*7B
$GPRMC,020720.0,A,3443.4915,N,08633.1242,W,,,230119,,*1C
$GPGGA,020750.0,3443.4915,N,08633.1242,W,1,,,226.4,M,,M,,*7E
$GPRMC,020750.0,A,3443.4915,N,08633.1242,W,,,230119,,*1B
$GPGGA,020820.0,3443.4915,N,08633.1243,W,1,,,226.1,M,,M,,*72
$GPRMC,020820.0,A,3443.4915,N,08633.1243,W,,,230119,,*12
$GPGGA,020850.0,3443.4915,N,08633.1244,W,1,,,226.7,M,,M,,*74
$GPRMC,020850.0,A,3443.4915,N,08633.1244,W,,,230119,,*12
$GPGGA,020920.0,3443.4915,N,08633.1245,W,1,,,226.4,M,,M,,*70
$GPRMC,020920.0,A,3443.4915,N,08633.1245,W,,,230119,,*15
$GPGGA,020950.0,3443.4915,N,08633.1245,W,1,,,226.3,M,,M,,*70
$GPRMC,020950.0,A,3443.4915,N,08633.1245,W,,,230119,,*12
$GPGGA,021020.0,3443.4916,N,08633.1245,W,1,,,224.7,M,,M,,*7A
$GPRMC,021020.0,A,3443.4916,N,08633.1245,W,,,230119,,*1E
$GPGGA,021050.0,3443.4916,N,08633.1246,W,1,,,225.3,M,,M,,*7B
$GPRMC,021050.0,A,3443.4916,N,08633.1246,W,,,230119,,*1A
$GPGGA,021120.0,3443.4916,N,08633.1246,W,1,,,224.8,M,,M,,*77
$GPRMC,021120.0,A,3443.4916,N,08633.1246,W,,,230119,,*1C
$GPGGA,021150.0,3443.4917,N,08633.1245,W,1,,,224.6,M,,M,,*7C
$GPRMC,021150.0,A,3443.4917,N,08633.1245,W,,,230119,,*19
$GPGGA,021220.0,3443.4917,N,08633.1246,W,1,,,224.6,M,,M,,*7B
$GPRMC,021220.0,A,3443.4917,N,08633.1246,W,,,230119,,*1E
$GPGGA,021250.0,3443.4917,N,08633.1246,W,1,,,224.1,M,,M,,*7B
$GPRMC,021250.0,A,3443.4917,N,08633.1246,W,,,230119,,*19
$GPGGA,021320.0,3443.4917,N,08633.1247,W,1,,,223.0,M,,M,,*7A
$GPRMC,021320.0,A,3443.4917,N,08633.1247,W,,,230119,,*1E
$GPGGA,021350.0,3443.4917,N,08633.1248,W,1,,,222.2,M,,M,,*71
$GPRMC,021350.0,A,3443.4917,N,08633.1248,W,,,230119,,*16
$GPGGA,021420.0,3443.4918,N,08633.1248,W,1,,,221.9,M,,M,,*76
$GPRMC,021420.0,A,3443.4918,N,08633.1248,W,,,230119,,*19
$GPGGA,021450.0,3443.4918,N,08633.1248,W,1,,,221.9,M,,M,,*71
$GPRMC,021450.0,A,3443.4918,N,08633.1248,W,,,230119,,*1E
$GPGGA,021520.0,3443.4918,N,08633.1248,W,1,,,222.0,M,,M,,*7D
$GPRMC,021520.0,A,3443.4918,N,08633.1248,W,,,230119,,*18
$GPGGA,021550.0,3443.4918,N,08633.1249,W,1,,,222.0,M,,M,,*7B
$GPRMC,021550.0,A,3443.4918,N,08633.1249,W,,,230119,,*1E
$GPGGA,021620.0,3443.4920,N,08633.1248,W,1,,,220.4,M,,M,,*73
$GPRMC,021620.0,A,3443.4920,N,08633.1248,W,,,230119,,*10
$GPGGA,021650.0,3443.4920,N,08633.1249,W,1,,,220.4,M,,M,,*75
$GPRMC,021650.0,A,3443.4920,N,08633.1249,W,,,230119,,*16
$GPGGA,021720.0,3443.4920,N,08633.1250,W,1,,,220.2,M,,M,,*7D
$GPRMC,021720.0,A,3443.4920,N,08633.1250,W,,,230119,,*18
$GPGGA,021750.0,3443.4920,N,08633.1250,W,1,,,220.1,M,,M,,*79
$GPRMC,021750.0,A,3443.4920,N,08633.1250,W,,,230119,,*1F
$GPGGA,021820.0,3443.4920,N,08633.1251,W,1,,,220.0,M,,M,,*71
$GPRMC,021820.0,A,3443.4920,N,08633.1251,W,,,230119,,*16
$GPGGA,021850.0,3443.4920,N,08633.1251,W,1,,,220.1,M,,M,,*77
$GPRMC,021850.0,A,3443.4920,N,08633.1251,W,,,230119,,*11
$GPGGA,021920.0,3443.4919,N,08633.1263,W,1,,,224.8,M,,M,,*77
$GPRMC,021920.0,A,3443.4919,N,08633.1263,W,,,230119,,*1C
$GPGGA,021950.0,3443.4918,N,08633.1263,W,1,,,224.7,M,,M,,*7E
$GPRMC,021950.0,A,3443.4918,N,08633.1263,W,,,230119,,*1A
$GPGGA,022020.0,3443.4918,N,08633.1264,W,1,,,224.7,M,,M,,*74
$GPRMC,022020.0,A,3443.4918,N,08633.1264,W,,,230119,,*10
$GPGGA,022050.0,3443.4918,N,08633.1264,W,1,,,224.7,M,,M,,*73
$GPRMC,022050.0,A,3443.4918,N,08633.1264,W,,,230119,,*17
$GPGGA,022120.0,3443.4917,N,08633.1264,W,1,,,224.8,M,,M,,*75
$GPRMC,022120.0,A,3443.4917,N,08633.1264,W,,,230119,,*1E
$GPGGA,022150.0,3443.4918,N,08633.1264,W,1,,,225.0,M,,M,,*74
$GPRMC,022150.0,A,3443.4918,N,08633.1264,W,,,230119,,*16
$GPGGA,022220.0,3443.4918,N,08633.1264,W,1,,,225.1,M,,M,,*71
$GPRMC,022220.0,A,3443.4918,N,08633.1264,W,,,230119,,*12
$GPGGA,022250.0,3443.4918,N,08633.1264,W,1,,,225.0,M,,M,,*77
$GPRMC,022250.0,A,3443.4918,N,08633.1264,W,,,230119,,*15
$GPGGA,022320.0,3443.4922,N,08633.1269,W,1,,,227.0,M,,M,,*77
$GPRMC,022320.0,A,3443.4922,N,08633.1269,W,,,230119,,*17
$GPGGA,022350.0,3443.4928,N,08633.1270,W,1,,,227.1,M,,M,,*73
$GPRMC,022350.0,A,3443.4928,N,08633.1270,W,,,230119,,*12
$GPGGA,022420.0,3443.4927,N,08633.1269,W,1,,,227.1,M,,M,,*74
$GPRMC,022420.0,A,3443.4927,N,08633.1269,W,,,230119,,*15
$GPGGA,022450.0,3443.4926,N,08633.1271,W,1,,,228.4,M,,M,,*71
$GPRMC,022450.0,A,3443.4926,N,08633.1271,W,,,230119,,*1A
$GPGGA,022520.0,3443.4927,N,08633.1271,W,1,,,228.5,M,,M,,*77
$GPRMC,022520.0,A,3443.4927,N,08633.1271,W,,,230119,,*1D
$GPGGA,022550.0,3443.4927,N,08633.1271,W,1,,,228.6,M,,M,,*73
$GPRMC,022550.0,A,3443.4927,N,08633.1271,W,,,230119,,*1A
$GPGGA,022620.0,3443.4927,N,08633.1271,W,1,,,228.5,M,,M,,*74
$GPRMC,022620.0,A,3443.4927,N,08633.1271,W,,,230119,,*1E
$GPGGA,022650.0,3443.4927,N,08633.1271,W,1,,,228.3,M,,M,,*75
$GPRMC,022650.0,A,3443.4927,N,08633.1271,W,,,230119,,*19
$GPGGA,022720.0,3443.4926,N,08633.1274,W,1,,,229.7,M,,M,,*72
$GPRMC,022720.0,A,3443.4926,N,08633.1274,W,,,230119,,*1B
$GPGGA,022750.0,3443.4926,N,08633.1274,W,1,,,229.7,M,,M,,*75
$GPRMC,022750.0,A,3443.4926,N,08633.1274,W,,,230119,,*1C
$GPGGA,022820.0,3443.4926,N,08633.1274,W,1,,,229.7,M,,M,,*7D
$GPRMC,022820.0,A,3443.4926,N,08633.1274,W,,,230119,,*14
$GPGGA,022850.0,3443.4926,N,08633.1274,W,1,,,229.4,M,,M,,*79
$GPRMC,022850.0,A,3443.4926,N,08633.1274,W,,,230119,,*13
$GPGGA,022920.0,3443.4926,N,08633.1274,W,1,,,229.4,M,,M,,*7F
$GPRMC,022920.0,A,3443.4926,N,08633.1274,W,,,230119,,*15
$GPGGA,022950.0,3443.4927,N,08633.1269,W,1,,,225.9,M,,M,,*74
$GPRMC,022950.0,A,3443.4927,N,08633.1269,W,,,230119,,*1F
$GPGGA,023020.0,3443.4927,N,08633.1268,W,1,,,225.8,M,,M,,*7B
$GPRMC,023020.0,A,3443.4927,N,08633.1268,W,,,230119,,*11
$GPGGA,023050.0,3443.4927,N,08633.1268,W,1,,,225.8,M,,M,,*7C
$GPRMC,023050.0,A,3443.4927,N,08633.1268,W,,,230119,,*16
$GPGGA,023120.0,3443.4927,N,08633.1268,W,1,,,225.6,M,,M,,*74
$GPRMC,023120.0,A,3443.4927,N,08633.1268,W,,,230119,,*10
$GPGGA,023150.0,3443.4927,N,08633.1268,W,1,,,225.3,M,,M,,*76
$GPRMC,023150.0,A,3443.4927,N,08633.1268,W,,,230119,,*17
$GPGGA,023220.0,3443.4927,N,08633.1268,W,1,,,225.1,M,,M,,*70
$GPRMC,023220.0,A,3443.4927,N,08633.1268,W,,,230119,,*13
$GPGGA,023250.0,3443.4928,N,08633.1267,W,1,,,224.6,M,,M,,*71
$GPRMC,023250.0,A,3443.4928,N,08633.1267,W,,,230119,,*14
$GPGGA,023320.0,3443.4928,N,08633.1267,W,1,,,224.3,M,,M,,*72
$GPRMC,023320.0,A,3443.4928,N,08633.1267,W,,,230119,,*12
$GPGGA,023350.0,3443.4928,N,08633.1267,W,1,,,224.1,M,,M,,*77
$GPRMC,023350.0,A,3443.4928,N,08633.1267,W,,,230119,,*15
$GPGGA,023420.0,3443.4928,N,08633.1267,W,1,,,223.9,M,,M,,*78
$GPRMC,023420.0,A,3443.4928,N,08633.1267,W,,,230119,,*15
$GPGGA,023450.0,3443.4928,N,08633.1267,W,1,,,223.5,M,,M,,*73
$GPRMC,023450.0,A,3443.4928,N,08633.1267,W,,,230119,,*12
$GPGGA,023520.0,3443.4928,N,08633.1267,W,1,,,223.1,M,,M,,*71
$GPRMC,023520.0,A,3443.4928,N,08633.1267,W,,,230119,,*14
$GPGGA,023550.0,3443.4928,N,08633.1267,W,1,,,222.8,M,,M,,*7E
$GPRMC,023550.0,A,3443.4928,N,08633.1267,W,,,230119,,*13
$GPGGA,023620.0,3443.4928,N,08633.1267,W,1,,,222.8,M,,M,,*7A
$GPRMC,023620.0,A,3443.4928,N,08633.1267,W,,,230119,,*17
$GPGGA,023650.0,3443.4933,N,08633.1268,W,1,,,222.2,M,,M,,*72
$GPRMC,023650.0,A,3443.4933,N,08633.1268,W,,,230119,,*15
$GPGGA,023720.0,3443.4932,N,08633.1268,W,1,,,222.1,M,,M,,*76
$GPRMC,023720.0,A,3443.4932,N,08633.1268,W,,,230119,,*12
$GPGGA,023750.0,3443.4939,N,08633.1269,W,1,,,221.9,M,,M,,*70
$GPRMC,023750.0,A,3443.4939,N,08633.1269,W,,,230119,,*1F
$GPGGA,023820.0,3443.4932,N,08633.1266,W,1,,,222.7,M,,M,,*71
$GPRMC,023820.0,A,3443.4932,N,08633.1266,W,,,230119,,*13
$GPGGA,023850.0,3443.4932,N,08633.1266,W,1,,,222.6,M,,M,,*77
$GPRMC,023850.0,A,3443.4932,N,08633.1266,W,,,230119,,*14
$GPGGA,023920.0,3443.4932,N,08633.1265,W,1,,,222.5,M,,M,,*71
$GPRMC,023920.0,A,3443.4932,N,08633.1265,W,,,230119,,*11
$GPGGA,023950.0,3443.4932,N,08633.1265,W,1,,,222.5,M,,M,,*76
$GPRMC,023950.0,A,3443.4932,N,08633.1265,W,,,230119,,*16
$GPGGA,024020.0,3443.4932,N,08633.1265,W,1,,,222.5,M,,M,,*7F
$GPRMC,024020.0,A,3443.4932,N,08633.1265,W,,,230119,,*1F
$GPGGA,024050.0,3443.4931,N,08633.1265,W,1,,,222.6,M,,M,,*78
$GPRMC,024050.0,A,3443.4931,N,08633.1265,W,,,230119,,*1B
$GPGGA,024120.0,3443.4931,N,08633.1265,W,1,,,222.5,M,,M,,*7D
$GPRMC,024120.0,A,3443.4931,N,08633.1265,W,,,230119,,*1D
$GPGGA,024150.0,3443.4931,N,08633.1264,W,1,,,222.4,M,,M,,*7A
$GPRMC,024150.0,A,3443.4931,N,08633.1264,W,,,230119,,*1B
$GPGGA,024220.0,3443.4916,N,08633.1256,W,1,,,222.1,M,,M,,*7F
$GPRMC,024220.0,A,3443.4916,N,08633.1256,W,,,230119,,*1B
$GPGGA,024250.1,3443.4916,N,08633.1256,W,1,,,222.2,M,,M,,*7A
$GPRMC,024250.1,A,3443.4916,N,08633.1256,W,,,230119,,*1D
$GPGGA,024320.0,3443.4916,N,08633.1256,W,1,,,222.3,M,,M,,*7C
$GPRMC,024320.0,A,3443.4916,N,08633.1256,W,,,230119,,*1A
$GPGGA,024350.0,3443.4916,N,08633.1256,W,1,,,222.3,M,,M,,*7B
$GPRMC,024350.0,A,3443.4916,N,08633.1256,W,,,230119,,*1D
$GPGGA,024420.0,3443.4916,N,08633.1256,W,1,,,222.1,M,,M,,*79
$GPRMC,024420.0,A,3443.4916,N,08633.1256,W,,,230119,,*1D
$GPGGA,024450.0,3443.4916,N,08633.1256,W,1,,,222.1,M,,M,,*7E
$GPRMC,024450.0,A,3443.4916,N,08633.1256,W,,,230119,,*1A
$GPGGA,024520.0,3443.4923,N,08633.1248,W,1,,,231.0,M,,M,,*72
$GPRMC,024520.0,A,3443.4923,N,08633.1248,W,,,230119,,*15
$GPGGA,024550.0,3443.4923,N,08633.1248,W,1,,,230.1,M,,M,,*75
$GPRMC,024550.0,A,3443.4923,N,08633.1248,W,,,230119,,*12
$GPGGA,024620.0,3443.4923,N,08633.1248,W,1,,,229.6,M,,M,,*7E
$GPRMC,024620.0,A,3443.4923,N,08633.1248,W,,,230119,,*16
$GPGGA,024650.0,3443.4923,N,08633.1246,W,1,,,228.8,M,,M,,*78
$GPRMC,024650.0,A,3443.4923,N,08633.1246,W,,,230119,,*1F
$GPGGA,024720.0,3443.4930,N,08633.1249,W,1,,,223.4,M,,M,,*74
$GPRMC,024720.0,A,3443.4930,N,08633.1249,W,,,230119,,*14
$GPGGA,024750.0,3443.4931,N,08633.1249,W,1,,,217.9,M,,M,,*78
$GPRMC,024750.0,A,3443.4931,N,08633.1249,W,,,230119,,*12
$GPGGA,024820.0,3443.4931,N,08633.1248,W,1,,,216.0,M,,M,,*79
$GPRMC,024820.0,A,3443.4931,N,08633.1248,W,,,230119,,*1B
$GPGGA,024850.0,3443.4931,N,08633.1248,W,1,,,216.3,M,,M,,*7D
$GPRMC,024850.0,A,3443.4931,N,08633.1248,W,,,230119,,*1C
$GPGGA,024920.0,3443.4931,N,08633.1247,W,1,,,215.3,M,,M,,*77
$GPRMC,024920.0,A,3443.4931,N,08633.1247,W,,,230119,,*15
$GPGGA,024950.0,3443.4939,N,08633.1250,W,1,,,211.0,M,,M,,*79
$GPRMC,024950.0,A,3443.4939,N,08633.1250,W,,,230119,,*1C
$GPGGA,025020.0,3443.4935,N,08633.1247,W,1,,,209.1,M,,M,,*74
$GPRMC,025020.0,A,3443.4935,N,08633.1247,W,,,230119,,*19
$GPGGA,025050.0,3443.4935,N,08633.1247,W,1,,,209.0,M,,M,,*72
$GPRMC,025050.0,A,3443.4935,N,08633.1247,W,,,230119,,*1E
$GPGGA,025120.0,3443.4934,N,08633.1248,W,1,,,211.4,M,,M,,*77
$GPRMC,025120.0,A,3443.4934,N,08633.1248,W,,,230119,,*16
$GPGGA,025150.0,3443.4933,N,08633.1247,W,1,,,213.1,M,,M,,*7F
$GPRMC,025150.0,A,3443.4933,N,08633.1247,W,,,230119,,*19
$GPGGA,025220.0,3443.4933,N,08633.1247,W,1,,,213.6,M,,M,,*7C
$GPRMC,025220.0,A,3443.4933,N,08633.1247,W,,,230119,,*1D
$GPGGA,025250.0,3443.4933,N,08633.1247,W,1,,,214.3,M,,M,,*79
$GPRMC,025250.0,A,3443.4933,N,08633.1247,W,,,230119,,*1A
$GPGGA,025320.0,3443.4933,N,08633.1247,W,1,,,214.9,M,,M,,*75
$GPRMC,025320.0,A,3443.4933,N,08633.1247,W,,,230119,,*1C
$GPGGA,025350.0,3443.4933,N,08633.1247,W,1,,,215.2,M,,M,,*78
$GPRMC,025350.0,A,3443.4933,N,08633.1247,W,,,230119,,*1B
$GPGGA,025420.0,3443.4932,N,08633.1248,W,1,,,215.6,M,,M,,*72
$GPRMC,025420.0,A,3443.4932,N,08633.1248,W,,,230119,,*15
$GPGGA,025450.0,3443.4932,N,08633.1248,W,1,,,216.1,M,,M,,*71
$GPRMC,025450.0,A,3443.4932,N,08633.1248,W,,,230119,,*12
$GPGGA,025520.0,3443.4925,N,08633.1242,W,1,,,218.1,M,,M,,*75
$GPRMC,025520.0,A,3443.4925,N,08633.1242,W,,,230119,,*18
$GPGGA,025550.0,3443.4925,N,08633.1242,W,1,,,218.8,M,,M,,*7B
$GPRMC,025550.0,A,3443.4925,N,08633.1242,W,,,230119,,*1F
$GPGGA,025620.0,3443.4925,N,08633.1243,W,1,,,219.0,M,,M,,*77
$GPRMC,025620.0,A,3443.4925,N,08633.1243,W,,,230119,,*1A
$GPGGA,025650.0,3443.4920,N,08633.1240,W,1,,,219.3,M,,M,,*75
$GPRMC,025650.0,A,3443.4920,N,08633.1240,W,,,230119,,*1B
$GPGGA,025720.0,3443.4920,N,08633.1240,W,1,,,219.6,M,,M,,*76
$GPRMC,025720.0,A,3443.4920,N,08633.1240,W,,,230119,,*1D
$GPGGA,025750.0,3443.4919,N,08633.1240,W,1,,,220.0,M,,M,,*77
$GPRMC,025750.0,A,3443.4919,N,08633.1240,W,,,230119,,*10
$GPGGA,025820.0,3443.4919,N,08633.1240,W,1,,,220.6,M,,M,,*79
$GPRMC,025820.0,A,3443.4919,N,08633.1240,W,,,230119,,*18
$GPGGA,025850.0,3443.4918,N,08633.1240,W,1,,,220.6,M,,M,,*7F
$GPRMC,025850.0,A,3443.4918,N,08633.1240,W,,,230119,,*1E
$GPGGA,025920.0,3443.4918,N,08633.1239,W,1,,,220.7,M,,M,,*76
$GPRMC,025920.0,A,3443.4918,N,08633.1239,W,,,230119,,*16
$GPGGA,025950.0,3443.4918,N,08633.1239,W,1,,,221.0,M,,M,,*77
$GPRMC,025950.0,A,3443.4918,N,08633.1239,W,,,230119,,*11
$GPGGA,030020.0,3443.4920,N,08633.1249,W,1,,,221.0,M,,M,,*71
$GPRMC,030020.0,A,3443.4920,N,08633.1249,W,,,230119,,*17
$GPGGA,030050.0,3443.4920,N,08633.1249,W,1,,,221.1,M,,M,,*77
$GPRMC,030050.0,A,3443.4920,N,08633.1249,W,,,230119,,*10
$GPGGA,030120.0,3443.4920,N,08633.1249,W,1,,,221.2,M,,M,,*72
$GPRMC,030120.0,A,3443.4920,N,08633.1249,W,,,230119,,*16
$GPGGA,030150.0,3443.4917,N,08633.1248,W,1,,,222.7,M,,M,,*76
$GPRMC,030150.0,A,3443.4917,N,08633.1248,W,,,230119,,*14
$GPGGA,030220.0,3443.4917,N,08633.1248,W,1,,,222.6,M,,M,,*73
$GPRMC,030220.0,A,3443.4917,N,08633.1248,W,,,230119,,*10
$GPGGA,030250.0,3443.4917,N,08633.1248,W,1,,,222.4,M,,M,,*76
$GPRMC,030250.0,A,3443.4917,N,08633.1248,W,,,230119,,*17
$GPGGA,030320.0,3443.4917,N,08633.1249,W,1,,,222.5,M,,M,,*70
$GPRMC,030320.0,A,3443.4917,N,08633.1249,W,,,230119,,*10
$GPGGA,030350.0,3443.4918,N,08633.1250,W,1,,,222.4,M,,M,,*71
$GPRMC,030350.0,A,3443.4918,N,08633.1250,W,,,230119,,*10
$GPGGA,030420.0,3443.4918,N,08633.1250,W,1,,,222.7,M,,M,,*72
$GPRMC,030420.0,A,3443.4918,N,08633.1250,W,,,230119,,*10
$GPGGA,030450.0,3443.4918,N,08633.1251,W,1,,,222.9,M,,M,,*7A
$GPRMC,030450.0,A,3443.4918,N,08633.1251,W,,,230119,,*16
$GPGGA,030520.0,3443.4918,N,08633.1251,W,1,,,222.9,M,,M,,*7C
$GPRMC,030520.0,A,3443.4918,N,08633.1251,W,,,230119,,*10
$GPGGA,030550.0,3443.4918,N,08633.1251,W,1,,,222.8,M,,M,,*7A
$GPRMC,030550.0,A,3443.4918,N,08633.1251,W,,,230119,,*17
$GPGGA,030620.0,3443.4918,N,08633.1251,W,1,,,222.8,M,,M,,*7E
$GPRMC,030620.0,A,3443.4918,N,08633.1251,W,,,230119,,*13
$GPGGA,030650.0,3443.4920,N,08633.1254,W,1,,,221.0,M,,M,,*7C
$GPRMC,030650.0,A,3443.4920,N,08633.1254,W,,,230119,,*1A
$GPGGA,030720.0,3443.4920,N,08633.1255,W,1,,,220.9,M,,M,,*73
$GPRMC,030720.0,A,3443.4920,N,08633.1255,W,,,230119,,*1D
$GPGGA,030750.0,3443.4919,N,08633.1254,W,1,,,220.8,M,,M,,*7E
$GPRMC,030750.0,A,3443.4919,N,08633.1254,W,,,230119,,*11
$GPGGA,030820.0,3443.4919,N,08633.1254,W,1,,,220.8,M,,M,,*76
$GPRMC,030820.0,A,3443.4919,N,08633.1254,W,,,230119,,*19
$GPGGA,030850.0,3443.4919,N,08633.1254,W,1,,,220.8,M,,M,,*71
$GPRMC,030850.0,A,3443.4919,N,08633.1254,W,,,230119,,*1E
$GPGGA,030920.0,3443.4919,N,08633.1255,W,1,,,220.9,M,,M,,*77
$GPRMC,030920.0,A,3443.4919,N,08633.1255,W,,,230119,,*19
$GPGGA,030950.0,3443.4920,N,08633.1255,W,1,,,220.9,M,,M,,*7A
$GPRMC,030950.0,A,3443.4920,N,08633.1255,W,,,230119,,*14
$GPGGA,031020.0,3443.4920,N,08633.1255,W,1,,,221.1,M,,M,,*7C
$GPRMC,031020.0,A,3443.4920,N,08633.1255,W,,,230119,,*1B
$GPGGA,031050.0,3443.4920,N,08633.1255,W,1,,,221.2,M,,M,,*78
$GPRMC,031050.0,A,3443.4920,N,08633.1255,W,,,230119,,*1C
$GPGGA,031120.0,3443.4920,N,08633.1255,W,1,,,221.5,M,,M,,*79
$GPRMC,031120.0,A,3443.4920,N,08633.1255,W,,,230119,,*1A
$GPGGA,031150.0,3443.4920,N,08633.1255,W,1,,,221.8,M,,M,,*73
$GPRMC,031150.0,A,3443.4920,N,08633.1255,W,,,230119,,*1D
$GPGGA,031220.0,3443.4920,N,08633.1255,W,1,,,221.8,M,,M,,*77
$GPRMC,031220.0,A,3443.4920,N,08633.1255,W,,,230119,,*19
$GPGGA,031250.0,3443.4919,N,08633.1255,W,1,,,222.0,M,,M,,*71
$GPRMC,031250.0,A,3443.4919,N,08633.1255,W,,,230119,,*14
$GPGGA,031320.0,3443.4919,N,08633.1255,W,1,,,222.1,M,,M,,*76
$GPRMC,031320.0,A,3443.4919,N,08633.1255,W,,,230119,,*12
$GPGGA,031350.0,3443.4921,N,08633.1255,W,1,,,221.8,M,,M,,*70
$GPRMC,031350.0,A,3443.4921,N,08633.1255,W,,,230119,,*1E
$GPGGA,031420.0,3443.4926,N,08633.1254,W,1,,,220.8,M,,M,,*77
$GPRMC,031420.0,A,3443.4926,N,08633.1254,W,,,230119,,*18
$GPGGA,031450.0,3443.4926,N,08633.1254,W,1,,,221.0,M,,M,,*79
$GPRMC,031450.0,A,3443.4926,N,08633.1254,W,,,230119,,*1F
$GPGGA,031520.0,3443.4926,N,08633.1254,W,1,,,221.5,M,,M,,*7A
$GPRMC,031520.0,A,3443.4926,N,08633.1254,W,,,230119,,*19
$GPGGA,031550.0,3443.4926,N,08633.1255,W,1,,,221.5,M,,M,,*7C
$GPRMC,031550.0,A,3443.4926,N,08633.1255,W,,,230119,,*1F
$GPGGA,031620.0,3443.4926,N,08633.1255,W,1,,,221.6,M,,M,,*7B
$GPRMC,031620.0,A,3443.4926,N,08633.1255,W,,,230119,,*1B
$GPGGA,031650.0,3443.4926,N,08633.1255,W,1,,,221.6,M,,M,,*7C
$GPRMC,031650.0,A,3443.4926,N,08633.1255,W,,,230119,,*1C
$GPGGA,031720.0,3443.4925,N,08633.1255,W,1,,,221.7,M,,M,,*78
$GPRMC,031720.0,A,3443.4925,N,08633.1255,W,,,230119,,*19
$GPGGA,031750.0,3443.4917,N,08633.1251,W,1,,,222.8,M,,M,,*76
$GPRMC,031750.0,A,3443.4917,N,08633.1251,W,,,230119,,*1B
$GPGGA,031820.0,3443.4917,N,08633.1250,W,1,,,223.1,M,,M,,*77
$GPRMC,031820.0,A,3443.4917,N,08633.1250,W,,,230119,,*12
$GPGGA,031850.0,3443.4917,N,08633.1250,W,1,,,223.3,M,,M,,*72
$GPRMC,031850.0,A,3443.4917,N,08633.1250,W,,,230119,,*15
$GPGGA,031920.0,3443.4917,N,08633.1250,W,1,,,223.6,M,,M,,*71
$GPRMC,031920.0,A,3443.4917,N,08633.1250,W,,,230119,,*13
$GPGGA,031950.4,3443.4917,N,08633.1251,W,1,,,223.8,M,,M,,*7D
$GPRMC,031950.4,A,3443.4917,N,08633.1251,W,,,230119,,*11
$GPGGA,032020.0,3443.4917,N,08633.1250,W,1,,,223.8,M,,M,,*75
$GPRMC,032020.0,A,3443.4917,N,08633.1250,W,,,230119,,*19
$GPGGA,032050.0,3443.4923,N,08633.1249,W,1,,,222.2,M,,M,,*76
$GPRMC,032050.0,A,3443.4923,N,08633.1249,W,,,230119,,*11
$GPGGA,032120.1,3443.4923,N,08633.1249,W,1,,,222.2,M,,M,,*71
$GPRMC,032120.1,A,3443.4923,N,08633.1249,W,,,230119,,*16
$GPGGA,032150.0,3443.4923,N,08633.1249,W,1,,,222.1,M,,M,,*74
$GPRMC,032150.0,A,3443.4923,N,08633.1249,W,,,230119,,*10
$GPGGA,032220.0,3443.4923,N,08633.1249,W,1,,,222.1,M,,M,,*70
$GPRMC,032220.0,A,3443.4923,N,08633.1249,W,,,230119,,*14
$GPGGA,032250.0,3443.4923,N,08633.1249,W,1,,,222.0,M,,M,,*76
$GPRMC,032250.0,A,3443.4923,N,08633.1249,W,,,230119,,*13
$GPGGA,032320.0,3443.4923,N,08633.1249,W,1,,,222.1,M,,M,,*71
$GPRMC,032320.0,A,3443.4923,N,08633.1249,W,,,230119,,*15
$GPGGA,032350.0,3443.4923,N,08633.1249,W,1,,,222.1,M,,M,,*76
$GPRMC,032350.0,A,3443.4923,N,08633.1249,W,,,230119,,*12
$GPGGA,032420.0,3443.4933,N,08633.1244,W,1,,,218.0,M,,M,,*72
$GPRMC,032420.0,A,3443.4933,N,08633.1244,W,,,230119,,*1E
$GPGGA,032450.0,3443.4933,N,08633.1244,W,1,,,218.2,M,,M,,*77
$GPRMC,032450.0,A,3443.4933,N,08633.1244,W,,,230119,,*19
$GPGGA,032520.2,3443.4933,N,08633.1244,W,1,,,218.2,M,,M,,*73
$GPRMC,032520.2,A,3443.4933,N,08633.1244,W,,,230119,,*1D
$GPGGA,032550.0,3443.4933,N,08633.1244,W,1,,,218.2,M,,M,,*76
$GPRMC,032550.0,A,3443.4933,N,08633.1244,W,,,230119,,*18
$GPGGA,032620.0,3443.4933,N,08633.1244,W,1,,,218.2,M,,M,,*72
$GPRMC,032620.0,A,3443.4933,N,08633.1244,W,,,230119,,*1C
$GPGGA,032650.0,3443.4933,N,08633.1244,W,1,,,218.3,M,,M,,*74
$GPRMC,032650.0,A,3443.4933,N,08633.1244,W,,,230119,,*1B
$GPGGA,032720.0,3443.4933,N,08633.1244,W,1,,,218.4,M,,M,,*75
$GPRMC,032720.0,A,3443.4933,N,08633.1244,W,,,230119,,*1D
$GPGGA,032750.0,3443.4933,N,08633.1244,W,1,,,218.4,M,,M,,*72
$GPRMC,032750.0,A,3443.4933,N,08633.1244,W,,,230119,,*1A
$GPGGA,032820.0,3443.4933,N,08633.1244,W,1,,,218.5,M,,M,,*7B
$GPRMC,032820.0,A,3443.4933,N,08633.1244,W,,,230119,,*12
$GPGGA,032850.0,3443.4928,N,08633.1243,W,1,,,219.7,M,,M,,*72
$GPRMC,032850.0,A,3443.4928,N,08633.1243,W,,,230119,,*18
$GPGGA,032920.0,3443.4927,N,08633.1243,W,1,,,220.2,M,,M,,*74
$GPRMC,032920.0,A,3443.4927,N,08633.1243,W,,,230119,,*11
$GPGGA,032950.0,3443.4927,N,08633.1243,W,1,,,220.2,M,,M,,*73
$GPRMC,032950.0,A,3443.4927,N,08633.1243,W,,,230119,,*16
$GPGGA,033020.0,3443.4927,N,08633.1243,W,1,,,220.2,M,,M,,*7C
$GPRMC,033020.0,A,3443.4927,N,08633.1243,W,,,230119,,*19
$GPGGA,033050.0,3443.4927,N,08633.1243,W,1,,,220.2,M,,M,,*7B
$GPRMC,033050.0,A,3443.4927,N,08633.1243,W,,,230119,,*1E
$GPGGA,033120.0,3443.4909,N,08633.1238,W,1,,,222.1,M,,M,,*7C
$GPRMC,033120.0,A,3443.4909,N,08633.1238,W,,,230119,,*18
$GPGGA,033150.0,3443.4909,N,08633.1238,W,1,,,222.1,M,,M,,*7B
$GPRMC,033150.0,A,3443.4909,N,08633.1238,W,,,230119,,*1F
$GPGGA,033220.0,3443.4896,N,08633.1233,W,1,,,223.4,M,,M,,*77
$GPRMC,033220.0,A,3443.4896,N,08633.1233,W,,,230119,,*17
$GPGGA,033250.0,3443.4896,N,08633.1233,W,1,,,223.4,M,,M,,*70
$GPRMC,033250.0,A,3443.4896,N,08633.1233,W,,,230119,,*10
$GPGGA,033320.0,3443.4896,N,08633.1233,W,1,,,223.4,M,,M,,*76
$GPRMC,033320.0,A,3443.4896,N,08633.1233,W,,,230119,,*16
$GPGGA,033350.0,3443.4896,N,08633.1234,W,1,,,223.4,M,,M,,*76
$GPRMC,033350.0,A,3443.4896,N,08633.1234,W,,,230119,,*16
$GPGGA,033420.0,3443.4896,N,08633.1234,W,1,,,223.4,M,,M,,*76
$GPRMC,033420.0,A,3443.4896,N,08633.1234,W,,,230119,,*16
$GPGGA,033450.0,3443.4896,N,08633.1234,W,1,,,223.4,M,,M,,*71
$GPRMC,033450.0,A,3443.4896,N,08633.1234,W,,,230119,,*11
$GPGGA,033520.0,3443.4896,N,08633.1234,W,1,,,223.4,M,,M,,*77
$GPRMC,033520.0,A,3443.4896,N,08633.1234,W,,,230119,,*17
$GPGGA,033550.0,3443.4905,N,08633.1230,W,1,,,221.6,M,,M,,*7F
$GPRMC,033550.0,A,3443.4905,N,08633.1230,W,,,230119,,*1F
$GPGGA,033620.0,3443.4905,N,08633.1231,W,1,,,221.7,M,,M,,*7B
$GPRMC,033620.0,A,3443.4905,N,08633.1231,W,,,230119,,*1A
$GPGGA,033650.0,3443.4905,N,08633.1231,W,1,,,221.7,M,,M,,*7C
$GPRMC,033650.0,A,3443.4905,N,08633.1231,W,,,230119,,*1D
$GPGGA,033720.0,3443.4905,N,08633.1231,W,1,,,221.7,M,,M,,*7A
$GPRMC,033720.0,A,3443.4905,N,08633.1231,W,,,230119,,*1B
$GPGGA,033750.0,3443.4901,N,08633.1237,W,1,,,225.5,M,,M,,*79
$GPRMC,033750.0,A,3443.4901,N,08633.1237,W,,,230119,,*1E
$GPGGA,033820.0,3443.4901,N,08633.1237,W,1,,,225.9,M,,M,,*7D
$GPRMC,033820.0,A,3443.4901,N,08633.1237,W,,,230119,,*16
$GPGGA,033850.0,3443.4901,N,08633.1237,W,1,,,226.4,M,,M,,*74
$GPRMC,033850.0,A,3443.4901,N,08633.1237,W,,,230119,,*11
$GPGGA,033920.0,3443.4897,N,08633.1236,W,1,,,227.9,M,,M,,*71
$GPRMC,033920.0,A,3443.4897,N,08633.1236,W,,,230119,,*18
$GPGGA,033950.0,3443.4897,N,08633.1236,W,1,,,228.5,M,,M,,*75
$GPRMC,033950.0,A,3443.4897,N,08633.1236,W,,,230119,,*1F
$GPGGA,034020.0,3443.4897,N,08633.1236,W,1,,,228.6,M,,M,,*7F
$GPRMC,034020.0,A,3443.4897,N,08633.1236,W,,,230119,,*16
$GPGGA,034050.0,3443.4897,N,08633.1236,W,1,,,228.5,M,,M,,*7B
$GPRMC,034050.0,A,3443.4897,N,08633.1236,W,,,230119,,*11
$GPGGA,034120.0,3443.4897,N,08633.1237,W,1,,,228.5,M,,M,,*7C
$GPRMC,034120.0,A,3443.4897,N,08633.1237,W,,,230119,,*16
$GPGGA,034150.0,3443.4897,N,08633.1237,W,1,,,228.3,M,,M,,*7D
$GPRMC,034150.0,A,3443.4897,N,08633.1237,W,,,230119,,*11
$GPGGA,034220.0,3443.4897,N,08633.1237,W,1,,,228.1,M,,M,,*7B
$GPRMC,034220.0,A,3443.4897,N,08633.1237,W,,,230119,,*15
$GPGGA,034250.0,3443.4897,N,08633.1237,W,1,,,228.0,M,,M,,*7D
$GPRMC,034250.0,A,3443.4897,N,08633.1237,W,,,230119,,*12
$GPGGA,034320.0,3443.4897,N,08633.1237,W,1,,,228.0,M,,M,,*7B
$GPRMC,034320.0,A,3443.4897,N,08633.1237,W,,,230119,,*14
$GPGGA,034350.0,3443.4897,N,08633.1237,W,1,,,227.9,M,,M,,*7A
$GPRMC,034350.0,A,3443.4897,N,08633.1237,W,,,230119,,*13
$GPGGA,034420.0,3443.4898,N,08633.1238,W,1,,,227.7,M,,M,,*74
$GPRMC,034420.0,A,3443.4898,N,08633.1238,W,,,230119,,*13
$GPGGA,034450.0,3443.4901,N,08633.1242,W,1,,,222.7,M,,M,,*7A
$GPRMC,034450.0,A,3443.4901,N,08633.1242,W,,,230119,,*18
$GPGGA,034520.0,3443.4902,N,08633.1243,W,1,,,216.9,M,,M,,*77
$GPRMC,034520.0,A,3443.4902,N,08633.1243,W,,,230119,,*1C
$GPGGA,034550.0,3443.4902,N,08633.1243,W,1,,,215.7,M,,M,,*7D
$GPRMC,034550.0,A,3443.4902,N,08633.1243,W,,,230119,,*1B
$GPGGA,034620.0,3443.4902,N,08633.1243,W,1,,,213.5,M,,M,,*7D
$GPRMC,034620.0,A,3443.4902,N,08633.1243,W,,,230119,,*1F
$GPGGA,034650.0,3443.4902,N,08633.1243,W,1,,,212.5,M,,M,,*7B
$GPRMC,034650.0,A,3443.4902,N,08633.1243,W,,,230119,,*18
$GPGGA,034720.0,3443.4902,N,08633.1243,W,1,,,212.8,M,,M,,*70
$GPRMC,034720.0,A,3443.4902,N,08633.1243,W,,,230119,,*1E
$GPGGA,034750.0,3443.4902,N,08633.1243,W,1,,,213.9,M,,M,,*77
$GPRMC,034750.0,A,3443.4902,N,08633.1243,W,,,230119,,*19
$GPGGA,034820.0,3443.4919,N,08633.1248,W,1,,,206.9,M,,M,,*7A
$GPRMC,034820.0,A,3443.4919,N,08633.1248,W,,,230119,,*10
$GPGGA,034850.0,3443.4919,N,08633.1248,W,1,,,208.8,M,,M,,*72
$GPRMC,034850.0,A,3443.4919,N,08633.1248,W,,,230119,,*17
$GPGGA,034920.0,3443.4920,N,08633.1242,W,1,,,209.7,M,,M,,*7A
$GPRMC,034920.0,A,3443.4920,N,08633.1242,W,,,230119,,*11
$GPGGA,034950.0,3443.4920,N,08633.1241,W,1,,,212.2,M,,M,,*71
$GPRMC,034950.0,A,3443.4920,N,08633.1241,W,,,230119,,*15
$GPGGA,035020.0,3443.4921,N,08633.1234,W,1,,,215.6,M,,M,,*7E
$GPRMC,035020.0,A,3443.4921,N,08633.1234,W,,,230119,,*19
$GPGGA,035050.0,3443.4921,N,08633.1234,W,1,,,217.8,M,,M,,*75
$GPRMC,035050.0,A,3443.4921,N,08633.1234,W,,,230119,,*1E
$GPGGA,035120.0,3443.4921,N,08633.1233,W,1,,,220.7,M,,M,,*7F
$GPRMC,035120.0,A,3443.4921,N,08633.1233,W,,,230119,,*1F
$GPGGA,035150.0,3443.4920,N,08633.1233,W,1,,,225.0,M,,M,,*7B
$GPRMC,035150.0,A,3443.4920,N,08633.1233,W,,,230119,,*19
$GPGGA,035220.0,3443.4920,N,08633.1233,W,1,,,228.4,M,,M,,*76
$GPRMC,035220.0,A,3443.4920,N,08633.1233,W,,,230119,,*1D
$GPGGA,035250.0,3443.4920,N,08633.1234,W,1,,,229.3,M,,M,,*70
$GPRMC,035250.0,A,3443.4920,N,08633.1234,W,,,230119,,*1D
$GPGGA,035320.0,3443.4920,N,08633.1234,W,1,,,230.1,M,,M,,*7C
$GPRMC,035320.0,A,3443.4920,N,08633.1234,W,,,230119,,*1B
$GPGGA,035350.0,3443.4919,N,08633.1234,W,1,,,232.5,M,,M,,*77
$GPRMC,035350.0,A,3443.4919,N,08633.1234,W,,,230119,,*16
$GPGGA,035420.0,3443.4919,N,08633.1234,W,1,,,233.6,M,,M,,*75
$GPRMC,035420.0,A,3443.4919,N,08633.1234,W,,,230119,,*16
$GPGGA,035450.0,3443.4918,N,08633.1234,W,1,,,233.7,M,,M,,*72
$GPRMC,035450.0,A,3443.4918,N,08633.1234,W,,,230119,,*10
$GPGGA,035520.0,3443.4918,N,08633.1234,W,1,,,232.9,M,,M,,*7B
$GPRMC,035520.0,A,3443.4918,N,08633.1234,W,,,230119,,*16
$GPGGA,035550.0,3443.4918,N,08633.1234,W,1,,,232.7,M,,M,,*72
$GPRMC,035550.0,A,3443.4918,N,08633.1234,W,,,230119,,*11
$GPGGA,035620.0,3443.4918,N,08633.1234,W,1,,,232.0,M,,M,,*71
$GPRMC,035620.0,A,3443.4918,N,08633.1234,W,,,230119,,*15
$GPGGA,035650.0,3443.4918,N,08633.1235,W,1,,,231.2,M,,M,,*76
$GPRMC,035650.0,A,3443.4918,N,08633.1235,W,,,230119,,*13
$GPGGA,035720.0,3443.4919,N,08633.1235,W,1,,,229.9,M,,M,,*73
$GPRMC,035720.0,A,3443.4919,N,08633.1235,W,,,230119,,*14
$GPGGA,035750.0,3443.4920,N,08633.1236,W,1,,,229.1,M,,M,,*75
$GPRMC,035750.0,A,3443.4920,N,08633.1236,W,,,230119,,*1A
$GPGGA,035820.0,3443.4920,N,08633.1236,W,1,,,229.7,M,,M,,*7B
$GPRMC,035820.0,A,3443.4920,N,08633.1236,W,,,230119,,*12
$GPGGA,035850.0,3443.4919,N,08633.1236,W,1,,,230.2,M,,M,,*7B
$GPRMC,035850.0,A,3443.4919,N,08633.1236,W,,,230119,,*1F
$GPGGA,035920.0,3443.4912,N,08633.1239,W,1,,,230.5,M,,M,,*7E
$GPRMC,035920.0,A,3443.4912,N,08633.1239,W,,,230119,,*1D
$GPGGA,035950.0,3443.4912,N,08633.1241,W,1,,,231.0,M,,M,,*72
$GPRMC,035950.0,A,3443.4912,N,08633.1241,W,,,230119,,*15
$GPGGA,040020.0,3443.4911,N,08633.1243,W,1,,,231.0,M,,M,,*7F
$GPRMC,040020.0,A,3443.4911,N,08633.1243,W,,,230119,,*18
$GPGGA,040050.0,3443.4911,N,08633.1243,W,1,,,230.9,M,,M,,*70
$GPRMC,040050.0,A,3443.4911,N,08633.1243,W,,,230119,,*1F
$GPGGA,040120.0,3443.4911,N,08633.1243,W,1,,,230.7,M,,M,,*78
$GPRMC,040120.0,A,3443.4911,N,08633.1243,W,,,230119,,*19
$GPGGA,040150.0,3443.4912,N,08633.1243,W,1,,,230.4,M,,M,,*7F
$GPRMC,040150.0,A,3443.4912,N,08633.1243,W,,,230119,,*1D
$GPGGA,040220.0,3443.4901,N,08633.1240,W,1,,,228.9,M,,M,,*7E
$GPRMC,040220.0,A,3443.4901,N,08633.1240,W,,,230119,,*18
$GPGGA,040250.0,3443.4901,N,08633.1241,W,1,,,228.2,M,,M,,*73
$GPRMC,040250.0,A,3443.4901,N,08633.1241,W,,,230119,,*1E
$GPGGA,040320.0,3443.4900,N,08633.1243,W,1,,,227.4,M,,M,,*7F
$GPRMC,040320.0,A,3443.4900,N,08633.1243,W,,,230119,,*1B
$GPGGA,040350.0,3443.4900,N,08633.1244,W,1,,,227.2,M,,M,,*79
$GPRMC,040350.0,A,3443.4900,N,08633.1244,W,,,230119,,*1B
$GPGGA,040420.0,3443.4900,N,08633.1244,W,1,,,227.4,M,,M,,*7F
$GPRMC,040420.0,A,3443.4900,N,08633.1244,W,,,230119,,*1B
$GPGGA,040450.0,3443.4904,N,08633.1249,W,1,,,224.9,M,,M,,*7F
$GPRMC,040450.0,A,3443.4904,N,08633.1249,W,,,230119,,*15
$GPGGA,040520.0,3443.4904,N,08633.1239,W,1,,,222.7,M,,M,,*76
$GPRMC,040520.0,A,3443.4904,N,08633.1239,W,,,230119,,*14
$GPGGA,040550.0,3443.4903,N,08633.1239,W,1,,,222.5,M,,M,,*74
$GPRMC,040550.0,A,3443.4903,N,08633.1239,W,,,230119,,*14
$GPGGA,040620.0,3443.4903,N,08633.1239,W,1,,,222.7,M,,M,,*72
$GPRMC,040620.0,A,3443.4903,N,08633.1239,W,,,230119,,*10
$GPGGA,040650.0,3443.4909,N,08633.1238,W,1,,,226.5,M,,M,,*78
$GPRMC,040650.0,A,3443.4909,N,08633.1238,W,,,230119,,*1C
$GPGGA,040720.0,3443.4909,N,08633.1238,W,1,,,226.7,M,,M,,*7C
$GPRMC,040720.0,A,3443.4909,N,08633.1238,W,,,230119,,*1A
$GPGGA,040750.0,3443.4909,N,08633.1238,W,1,,,226.8,M,,M,,*74
$GPRMC,040750.0,A,3443.4909,N,08633.1238,W,,,230119,,*1D
$GPGGA,040820.0,3443.4909,N,08633.1238,W,1,,,227.0,M,,M,,*75
$GPRMC,040820.0,A,3443.4909,N,08633.1238,W,,,230119,,*15
$GPGGA,040850.0,3443.4909,N,08633.1238,W,1,,,227.1,M,,M,,*73
$GPRMC,040850.0,A,3443.4909,N,08633.1238,W,,,230119,,*12
$GPGGA,040920.0,3443.4908,N,08633.1238,W,1,,,226.9,M,,M,,*7D
$GPRMC,040920.0,A,3443.4908,N,08633.1238,W,,,230119,,*15
$GPGGA,040950.0,3443.4908,N,08633.1238,W,1,,,226.6,M,,M,,*75
$GPRMC,040950.0,A,3443.4908,N,08633.1238,W,,,230119,,*12
$GPGGA,041020.0,3443.4912,N,08633.1228,W,1,,,225.9,M,,M,,*7C
$GPRMC,041020.0,A,3443.4912,N,08633.1228,W,,,230119,,*17
$GPGGA,041050.0,3443.4915,N,08633.1234,W,1,,,223.7,M,,M,,*79
$GPRMC,041050.0,A,3443.4915,N,08633.1234,W,,,230119,,*1A
$GPGGA,041120.0,3443.4924,N,08633.1237,W,1,,,219.3,M,,M,,*73
$GPRMC,041120.0,A,3443.4924,N,08633.1237,W,,,230119,,*1D
$GPGGA,041150.0,3443.4924,N,08633.1237,W,1,,,219.3,M,,M,,*74
$GPRMC,041150.0,A,3443.4924,N,08633.1237,W,,,230119,,*1A
$GPGGA,041220.0,3443.4924,N,08633.1237,W,1,,,219.4,M,,M,,*77
$GPRMC,041220.0,A,3443.4924,N,08633.1237,W,,,230119,,*1E
$GPGGA,041250.0,3443.4925,N,08633.1236,W,1,,,219.5,M,,M,,*71
$GPRMC,041250.0,A,3443.4925,N,08633.1236,W,,,230119,,*19
$GPGGA,041320.0,3443.4925,N,08633.1236,W,1,,,219.5,M,,M,,*77
$GPRMC,041320.0,A,3443.4925,N,08633.1236,W,,,230119,,*1F
$GPGGA,041350.0,3443.4926,N,08633.1236,W,1,,,219.6,M,,M,,*70
$GPRMC,041350.0,A,3443.4926,N,08633.1236,W,,,230119,,*1B
$GPGGA,041420.0,3443.4927,N,08633.1236,W,1,,,219.6,M,,M,,*71
$GPRMC,041420.0,A,3443.4927,N,08633.1236,W,,,230119,,*1A
$GPGGA,041450.0,3443.4928,N,08633.1236,W,1,,,219.8,M,,M,,*77
$GPRMC,041450.0,A,3443.4928,N,08633.1236,W,,,230119,,*12
$GPGGA,041520.0,3443.4928,N,08633.1237,W,1,,,219.8,M,,M,,*70
$GPRMC,041520.0,A,3443.4928,N,08633.1237,W,,,230119,,*15
$GPGGA,041550.0,3443.4928,N,08633.1237,W,1,,,219.8,M,,M,,*77
$GPRMC,041550.0,A,3443.4928,N,08633.1237,W,,,230119,,*12
$GPGGA,041620.0,3443.4927,N,08633.1238,W,1,,,219.8,M,,M,,*73
$GPRMC,041620.0,A,3443.4927,N,08633.1238,W,,,230119,,*16
$GPGGA,041650.0,3443.4927,N,08633.1239,W,1,,,220.0,M,,M,,*77
$GPRMC,041650.0,A,3443.4927,N,08633.1239,W,,,230119,,*10
$GPGGA,041720.0,3443.4927,N,08633.1240,W,1,,,220.1,M,,M,,*7E
$GPRMC,041720.0,A,3443.4927,N,08633.1240,W,,,230119,,*18
$GPGGA,041750.0,3443.4926,N,08633.1241,W,1,,,220.2,M,,M,,*7A
$GPRMC,041750.0,A,3443.4926,N,08633.1241,W,,,230119,,*1F
$GPGGA,041820.0,3443.4926,N,08633.1242,W,1,,,220.2,M,,M,,*71
$GPRMC,041820.0,A,3443.4926,N,08633.1242,W,,,230119,,*14
$GPGGA,041850.0,3443.4927,N,08633.1242,W,1,,,220.3,M,,M,,*76
$GPRMC,041850.0,A,3443.4927,N,08633.1242,W,,,230119,,*12
$GPGGA,041920.0,3443.4926,N,08633.1242,W,1,,,220.4,M,,M,,*76
$GPRMC,041920.0,A,3443.4926,N,08633.1242,W,,,230119,,*15
$GPGGA,041950.0,3443.4926,N,08633.1242,W,1,,,220.5,M,,M,,*70
$GPRMC,041950.0,A,3443.4926,N,08633.1242,W,,,230119,,*12
$GPGGA,042020.0,3443.4926,N,08633.1242,W,1,,,220.7,M,,M,,*7F
$GPRMC,042020.0,A,3443.4926,N,08633.1242,W,,,230119,,*1F
$GPGGA,042050.0,3443.4926,N,08633.1242,W,1,,,220.8,M,,M,,*77
$GPRMC,042050.0,A,3443.4926,N,08633.1242,W,,,230119,,*18
$GPGGA,042120.0,3443.4925,N,08633.1242,W,1,,,220.8,M,,M,,*72
$GPRMC,042120.0,A,3443.4925,N,08633.1242,W,,,230119,,*1D
$GPGGA,042150.0,3443.4925,N,08633.1242,W,1,,,220.8,M,,M,,*75
$GPRMC,042150.0,A,3443.4925,N,08633.1242,W,,,230119,,*1A
$GPGGA,042220.0,3443.4924,N,08633.1242,W,1,,,220.8,M,,M,,*70
$GPRMC,042220.0,A,3443.4924,N,08633.1242,W,,,230119,,*1F
$GPGGA,042250.0,3443.4924,N,08633.1242,W,1,,,220.8,M,,M,,*77
$GPRMC,042250.0,A,3443.4924,N,08633.1242,W,,,230119,,*18
$GPGGA,042320.0,3443.4924,N,08633.1243,W,1,,,221.2,M,,M,,*7B
$GPRMC,042320.0,A,3443.4924,N,08633.1243,W,,,230119,,*1F
$GPGGA,042350.0,3443.4916,N,08633.1228,W,1,,,221.5,M,,M,,*77
$GPRMC,042350.0,A,3443.4916,N,08633.1228,W,,,230119,,*14
$GPGGA,042420.0,3443.4917,N,08633.1228,W,1,,,219.5,M,,M,,*7D
$GPRMC,042420.0,A,3443.4917,N,08633.1228,W,,,230119,,*15
$GPGGA,042450.0,3443.4909,N,08633.1228,W,1,,,214.6,M,,M,,*7B
$GPRMC,042450.0,A,3443.4909,N,08633.1228,W,,,230119,,*1D
$GPGGA,042520.0,3443.4910,N,08633.1228,W,1,,,215.1,M,,M,,*73
$GPRMC,042520.0,A,3443.4910,N,08633.1228,W,,,230119,,*13
$GPGGA,042550.0,3443.4911,N,08633.1227,W,1,,,214.9,M,,M,,*73
$GPRMC,042550.0,A,3443.4911,N,08633.1227,W,,,230119,,*1A
$GPGGA,042620.0,3443.4912,N,08633.1227,W,1,,,215.4,M,,M,,*78
$GPRMC,042620.0,A,3443.4912,N,08633.1227,W,,,230119,,*1D
$GPGGA,042650.0,3443.4913,N,08633.1228,W,1,,,216.2,M,,M,,*74
$GPRMC,042650.0,A,3443.4913,N,08633.1228,W,,,230119,,*14
$GPGGA,042720.0,3443.4913,N,08633.1229,W,1,,,216.2,M,,M,,*73
$GPRMC,042720.0,A,3443.4913,N,08633.1229,W,,,230119,,*13
$GPGGA,042750.0,3443.4913,N,08633.1230,W,1,,,216.3,M,,M,,*7D
$GPRMC,042750.0,A,3443.4913,N,08633.1230,W,,,230119,,*1C
$GPGGA,042820.0,3443.4914,N,08633.1237,W,1,,,211.0,M,,M,,*71
$GPRMC,042820.0,A,3443.4914,N,08633.1237,W,,,230119,,*14
$GPGGA,042850.0,3443.4913,N,08633.1238,W,1,,,214.0,M,,M,,*7B
$GPRMC,042850.0,A,3443.4913,N,08633.1238,W,,,230119,,*1B
$GPGGA,042920.0,3443.4913,N,08633.1238,W,1,,,215.2,M,,M,,*7E
$GPRMC,042920.0,A,3443.4913,N,08633.1238,W,,,230119,,*1D
$GPGGA,042950.0,3443.4912,N,08633.1238,W,1,,,215.8,M,,M,,*72
$GPRMC,042950.0,A,3443.4912,N,08633.1238,W,,,230119,,*1B
$GPGGA,043020.0,3443.4916,N,08633.1245,W,1,,,214.6,M,,M,,*7C
$GPRMC,043020.0,A,3443.4916,N,08633.1245,W,,,230119,,*1A
$GPGGA,043050.0,3443.4916,N,08633.1245,W,1,,,214.9,M,,M,,*74
$GPRMC,043050.0,A,3443.4916,N,08633.1245,W,,,230119,,*1D
$GPGGA,043120.0,3443.4915,N,08633.1246,W,1,,,218.9,M,,M,,*7E
$GPRMC,043120.0,A,3443.4915,N,08633.1246,W,,,230119,,*1B
$GPGGA,043150.0,3443.4915,N,08633.1246,W,1,,,219.0,M,,M,,*71
$GPRMC,043150.0,A,3443.4915,N,08633.1246,W,,,230119,,*1C
$GPGGA,043220.0,3443.4915,N,08633.1246,W,1,,,219.0,M,,M,,*75
$GPRMC,043220.0,A,3443.4915,N,08633.1246,W,,,230119,,*18
$GPGGA,043250.0,3443.4914,N,08633.1245,W,1,,,218.6,M,,M,,*77
$GPRMC,043250.0,A,3443.4914,N,08633.1245,W,,,230119,,*1D
$GPGGA,043320.0,3443.4914,N,08633.1245,W,1,,,219.2,M,,M,,*74
$GPRMC,043320.0,A,3443.4914,N,08633.1245,W,,,230119,,*1B
$GPGGA,043350.0,3443.4914,N,08633.1245,W,1,,,220.1,M,,M,,*7A
$GPRMC,043350.0,A,3443.4914,N,08633.1245,W,,,230119,,*1C
$GPGGA,043420.0,3443.4914,N,08633.1245,W,1,,,220.3,M,,M,,*78
$GPRMC,043420.0,A,3443.4914,N,08633.1245,W,,,230119,,*1C
$GPGGA,043450.0,3443.4919,N,08633.1256,W,1,,,222.1,M,,M,,*70
$GPRMC,043450.0,A,3443.4919,N,08633.1256,W,,,230119,,*14
$GPGGA,043520.0,3443.4919,N,08633.1256,W,1,,,222.4,M,,M,,*73
$GPRMC,043520.0,A,3443.4919,N,08633.1256,W,,,230119,,*12
$GPGGA,043550.0,3443.4919,N,08633.1256,W,1,,,222.6,M,,M,,*76
$GPRMC,043550.0,A,3443.4919,N,08633.1256,W,,,230119,,*15
$GPGGA,043620.0,3443.4919,N,08633.1256,W,1,,,223.4,M,,M,,*71
$GPRMC,043620.0,A,3443.4919,N,08633.1256,W,,,230119,,*11
$GPGGA,043650.0,3443.4919,N,08633.1256,W,1,,,224.2,M,,M,,*77
$GPRMC,043650.0,A,3443.4919,N,08633.1256,W,,,230119,,*16
$GPGGA,043720.0,3443.4919,N,08633.1255,W,1,,,224.5,M,,M,,*75
$GPRMC,043720.0,A,3443.4919,N,08633.1255,W,,,230119,,*13
$GPGGA,043750.0,3443.4919,N,08633.1256,W,1,,,224.7,M,,M,,*73
$GPRMC,043750.0,A,3443.4919,N,08633.1256,W,,,230119,,*17
$GPGGA,043820.0,3443.4918,N,08633.1256,W,1,,,224.8,M,,M,,*75
$GPRMC,043820.0,A,3443.4918,N,08633.1256,W,,,230119,,*1E
$GPGGA,043850.0,3443.4917,N,08633.1256,W,1,,,224.8,M,,M,,*7D
$GPRMC,043850.0,A,3443.4917,N,08633.1256,W,,,230119,,*16
$GPGGA,043920.0,3443.4916,N,08633.1255,W,1,,,224.8,M,,M,,*79
$GPRMC,043920.0,A,3443.4916,N,08633.1255,W,,,230119,,*12
$GPGGA,043950.0,3443.4915,N,08633.1255,W,1,,,224.8,M,,M,,*7D
$GPRMC,043950.0,A,3443.4915,N,08633.1255,W,,,230119,,*16
$GPGGA,044020.0,3443.4915,N,08633.1255,W,1,,,224.8,M,,M,,*74
$GPRMC,044020.0,A,3443.4915,N,08633.1255,W,,,230119,,*1F
$GPGGA,044050.0,3443.4914,N,08633.1255,W,1,,,224.8,M,,M,,*72
$GPRMC,044050.0,A,3443.4914,N,08633.1255,W,,,230119,,*19
$GPGGA,044120.0,3443.4914,N,08633.1254,W,1,,,226.3,M,,M,,*7C
$GPRMC,044120.0,A,3443.4914,N,08633.1254,W,,,230119,,*1E
$GPGGA,044150.0,3443.4913,N,08633.1248,W,1,,,224.7,M,,M,,*77
$GPRMC,044150.0,A,3443.4913,N,08633.1248,W,,,230119,,*13
$GPGGA,044220.0,3443.4913,N,08633.1248,W,1,,,225.0,M,,M,,*75
$GPRMC,044220.0,A,3443.4913,N,08633.1248,W,,,230119,,*17
$GPGGA,044250.0,3443.4913,N,08633.1248,W,1,,,225.1,M,,M,,*73
$GPRMC,044250.0,A,3443.4913,N,08633.1248,W,,,230119,,*10
$GPGGA,044320.0,3443.4912,N,08633.1248,W,1,,,225.1,M,,M,,*74
$GPRMC,044320.0,A,3443.4912,N,08633.1248,W,,,230119,,*17
$GPGGA,044350.0,3443.4912,N,08633.1248,W,1,,,224.9,M,,M,,*7A
$GPRMC,044350.0,A,3443.4912,N,08633.1248,W,,,230119,,*10
$GPGGA,044420.0,3443.4910,N,08633.1249,W,1,,,224.8,M,,M,,*78
$GPRMC,044420.0,A,3443.4910,N,08633.1249,W,,,230119,,*13
$GPGGA,044450.0,3443.4909,N,08633.1249,W,1,,,224.7,M,,M,,*78
$GPRMC,044450.0,A,3443.4909,N,08633.1249,W,,,230119,,*1C
$GPGGA,044520.0,3443.4908,N,08633.1249,W,1,,,224.4,M,,M,,*7C
$GPRMC,044520.0,A,3443.4908,N,08633.1249,W,,,230119,,*1B
$GPGGA,044550.0,3443.4907,N,08633.1249,W,1,,,224.1,M,,M,,*71
$GPRMC,044550.0,A,3443.4907,N,08633.1249,W,,,230119,,*13
$GPGGA,044620.0,3443.4906,N,08633.1249,W,1,,,224.0,M,,M,,*75
$GPRMC,044620.0,A,3443.4906,N,08633.1249,W,,,230119,,*16
$GPGGA,044650.0,3443.4906,N,08633.1249,W,1,,,224.0,M,,M,,*72
$GPRMC,044650.0,A,3443.4906,N,08633.1249,W,,,230119,,*11
$GPGGA,044720.0,3443.4906,N,08633.1249,W,1,,,223.9,M,,M,,*7A
$GPRMC,044720.0,A,3443.4906,N,08633.1249,W,,,230119,,*17
$GPGGA,044750.0,3443.4906,N,08633.1249,W,1,,,224.0,M,,M,,*73
$GPRMC,044750.0,A,3443.4906,N,08633.1249,W,,,230119,,*10
$GPGGA,044820.0,3443.4877,N,08633.1259,W,1,,,218.2,M,,M,,*70
$GPRMC,044820.0,A,3443.4877,N,08633.1259,W,,,230119,,*1E
$GPGGA,044850.0,3443.4886,N,08633.1253,W,1,,,219.5,M,,M,,*75
$GPRMC,044850.0,A,3443.4886,N,08633.1253,W,,,230119,,*1D
$GPGGA,044920.0,3443.4887,N,08633.1253,W,1,,,219.8,M,,M,,*7F
$GPRMC,044920.0,A,3443.4887,N,08633.1253,W,,,230119,,*1A
$GPGGA,044950.0,3443.4887,N,08633.1253,W,1,,,220.4,M,,M,,*7E
$GPRMC,044950.0,A,3443.4887,N,08633.1253,W,,,230119,,*1D
$GPGGA,045020.0,3443.4887,N,08633.1253,W,1,,,221.8,M,,M,,*7C
$GPRMC,045020.0,A,3443.4887,N,08633.1253,W,,,230119,,*12
$GPGGA,045050.0,3443.4887,N,08633.1253,W,1,,,223.0,M,,M,,*71
$GPRMC,045050.0,A,3443.4887,N,08633.1253,W,,,230119,,*15
$GPGGA,045120.0,3443.4887,N,08633.1253,W,1,,,223.4,M,,M,,*73
$GPRMC,045120.0,A,3443.4887,N,08633.1253,W,,,230119,,*13
$GPGGA,045150.0,3443.4881,N,08633.1215,W,1,,,234.5,M,,M,,*77
$GPRMC,045150.0,A,3443.4881,N,08633.1215,W,,,230119,,*10
$GPGGA,045220.0,3443.4879,N,08633.1216,W,1,,,234.5,M,,M,,*77
$GPRMC,045220.0,A,3443.4879,N,08633.1216,W,,,230119,,*10
$GPGGA,045250.0,3443.4882,N,08633.1231,W,1,,,235.2,M,,M,,*77
$GPRMC,045250.0,A,3443.4882,N,08633.1231,W,,,230119,,*16
$GPGGA,045320.0,3443.4880,N,08633.1226,W,1,,,234.4,M,,M,,*72
$GPRMC,045320.0,A,3443.4880,N,08633.1226,W,,,230119,,*14
$GPGGA,045350.0,3443.4880,N,08633.1226,W,1,,,233.9,M,,M,,*7F
$GPRMC,045350.0,A,3443.4880,N,08633.1226,W,,,230119,,*13
$GPGGA,045420.0,3443.4880,N,08633.1226,W,1,,,233.9,M,,M,,*7F
$GPRMC,045420.0,A,3443.4880,N,08633.1226,W,,,230119,,*13
$GPGGA,045450.0,3443.4880,N,08633.1225,W,1,,,232.4,M,,M,,*77
$GPRMC,045450.0,A,3443.4880,N,08633.1225,W,,,230119,,*17
$GPGGA,045520.0,3443.4894,N,08633.1240,W,1,,,229.5,M,,M,,*7C
$GPRMC,045520.0,A,3443.4894,N,08633.1240,W,,,230119,,*17
$GPGGA,045550.0,3443.4893,N,08633.1240,W,1,,,225.4,M,,M,,*71
$GPRMC,045550.0,A,3443.4893,N,08633.1240,W,,,230119,,*17
$GPGGA,045620.0,3443.4893,N,08633.1241,W,1,,,220.6,M,,M,,*73
$GPRMC,045620.0,A,3443.4893,N,08633.1241,W,,,230119,,*12
$GPGGA,045650.0,3443.4893,N,08633.1241,W,1,,,219.7,M,,M,,*7F
$GPRMC,045650.0,A,3443.4893,N,08633.1241,W,,,230119,,*15
$GPGGA,045720.0,3443.4894,N,08633.1241,W,1,,,220.8,M,,M,,*7B
$GPRMC,045720.0,A,3443.4894,N,08633.1241,W,,,230119,,*14
$GPGGA,045750.0,3443.4894,N,08633.1241,W,1,,,221.4,M,,M,,*71
$GPRMC,045750.0,A,3443.4894,N,08633.1241,W,,,230119,,*13
$GPGGA,045820.0,3443.4893,N,08633.1242,W,1,,,222.5,M,,M,,*7F
$GPRMC,045820.0,A,3443.4893,N,08633.1242,W,,,230119,,*1F
$GPGGA,045850.0,3443.4893,N,08633.1242,W,1,,,224.5,M,,M,,*7E
$GPRMC,045850.0,A,3443.4893,N,08633.1242,W,,,230119,,*18
$GPGGA,045920.0,3443.4887,N,08633.1240,W,1,,,224.5,M,,M,,*7F
$GPRMC,045920.0,A,3443.4887,N,08633.1240,W,,,230119,,*19
$GPGGA,045950.0,3443.4887,N,08633.1240,W,1,,,224.8,M,,M,,*75
$GPRMC,045950.0,A,3443.4887,N,08633.1240,W,,,230119,,*1E
$GPGGA,050020.0,3443.4890,N,08633.1232,W,1,,,228.9,M,,M,,*71
$GPRMC,050020.0,A,3443.4890,N,08633.1232,W,,,230119,,*17
$GPGGA,050050.0,3443.4890,N,08633.1233,W,1,,,229.0,M,,M,,*7F
$GPRMC,050050.0,A,3443.4890,N,08633.1233,W,,,230119,,*11
$GPGGA,050120.0,3443.4881,N,08633.1243,W,1,,,232.4,M,,M,,*70
$GPRMC,050120.0,A,3443.4881,N,08633.1243,W,,,230119,,*10
$GPGGA,050150.0,3443.4881,N,08633.1243,W,1,,,232.3,M,,M,,*70
$GPRMC,050150.0,A,3443.4881,N,08633.1243,W,,,230119,,*17
$GPGGA,050220.0,3443.4877,N,08633.1248,W,1,,,233.8,M,,M,,*7C
$GPRMC,050220.0,A,3443.4877,N,08633.1248,W,,,230119,,*11
$GPGGA,050250.0,3443.4877,N,08633.1248,W,1,,,233.0,M,,M,,*73
$GPRMC,050250.0,A,3443.4877,N,08633.1248,W,,,230119,,*16
$GPGGA,050320.0,3443.4877,N,08633.1249,W,1,,,232.5,M,,M,,*70
$GPRMC,050320.0,A,3443.4877,N,08633.1249,W,,,230119,,*11
$GPGGA,050350.0,3443.4878,N,08633.1248,W,1,,,232.4,M,,M,,*78
$GPRMC,050350.0,A,3443.4878,N,08633.1248,W,,,230119,,*18
$GPGGA,050420.0,3443.4878,N,08633.1248,W,1,,,231.8,M,,M,,*77
$GPRMC,050420.0,A,3443.4878,N,08633.1248,W,,,230119,,*18
$GPGGA,050450.0,3443.4877,N,08633.1247,W,1,,,231.4,M,,M,,*7C
$GPRMC,050450.0,A,3443.4877,N,08633.1247,W,,,230119,,*1F
$GPGGA,050520.0,3443.4876,N,08633.1247,W,1,,,230.8,M,,M,,*76
$GPRMC,050520.0,A,3443.4876,N,08633.1247,W,,,230119,,*18
$GPGGA,050550.0,3443.4875,N,08633.1246,W,1,,,230.3,M,,M,,*78
$GPRMC,050550.0,A,3443.4875,N,08633.1246,W,,,230119,,*1D
$GPGGA,050620.0,3443.4879,N,08633.1250,W,1,,,230.4,M,,M,,*70
$GPRMC,050620.0,A,3443.4879,N,08633.1250,W,,,230119,,*12
$GPGGA,050650.0,3443.4879,N,08633.1249,W,1,,,231.1,M,,M,,*7B
$GPRMC,050650.0,A,3443.4879,N,08633.1249,W,,,230119,,*1D
$GPGGA,050720.0,3443.4879,N,08633.1249,W,1,,,231.5,M,,M,,*79
$GPRMC,050720.0,A,3443.4879,N,08633.1249,W,,,230119,,*1B
$GPGGA,050750.0,3443.4879,N,08633.1249,W,1,,,231.8,M,,M,,*73
$GPRMC,050750.0,A,3443.4879,N,08633.1249,W,,,230119,,*1C
$GPGGA,050820.0,3443.4879,N,08633.1249,W,1,,,232.7,M,,M,,*77
$GPRMC,050820.0,A,3443.4879,N,08633.1249,W,,,230119,,*14
$GPGGA,050850.0,3443.4879,N,08633.1250,W,1,,,233.6,M,,M,,*78
$GPRMC,050850.0,A,3443.4879,N,08633.1250,W,,,230119,,*1B
$GPGGA,050920.0,3443.4879,N,08633.1250,W,1,,,233.9,M,,M,,*71
$GPRMC,050920.0,A,3443.4879,N,08633.1250,W,,,230119,,*1D
$GPGGA,050950.0,3443.4879,N,08633.1250,W,1,,,233.6,M,,M,,*79
$GPRMC,050950.0,A,3443.4879,N,08633.1250,W,,,230119,,*1A
$GPGGA,051020.0,3443.4879,N,08633.1249,W,1,,,233.6,M,,M,,*7E
$GPRMC,051020.0,A,3443.4879,N,08633.1249,W,,,230119,,*1D
$GPGGA,051050.0,3443.4879,N,08633.1247,W,1,,,233.6,M,,M,,*77
$GPRMC,051050.0,A,3443.4879,N,08633.1247,W,,,230119,,*14
$GPGGA,051120.0,3443.4879,N,08633.1246,W,1,,,233.2,M,,M,,*74
$GPRMC,051120.0,A,3443.4879,N,08633.1246,W,,,230119,,*13
$GPGGA,051150.0,3443.4884,N,08633.1250,W,1,,,232.5,M,,M,,*70
$GPRMC,051150.0,A,3443.4884,N,08633.1250,W,,,230119,,*11
$GPGGA,051220.0,3443.4884,N,08633.1249,W,1,,,232.2,M,,M,,*7B
$GPRMC,051220.0,A,3443.4884,N,08633.1249,W,,,230119,,*1D
$GPGGA,051250.0,3443.4885,N,08633.1249,W,1,,,232.3,M,,M,,*7C
$GPRMC,051250.0,A,3443.4885,N,08633.1249,W,,,230119,,*1B
$GPGGA,051320.0,3443.4890,N,08633.1251,W,1,,,231.8,M,,M,,*7F
$GPRMC,051320.0,A,3443.4890,N,08633.1251,W,,,230119,,*10
$GPGGA,051350.0,3443.4890,N,08633.1251,W,1,,,231.7,M,,M,,*77
$GPRMC,051350.0,A,3443.4890,N,08633.1251,W,,,230119,,*17
$GPGGA,051420.0,3443.4891,N,08633.1251,W,1,,,231.8,M,,M,,*79
$GPRMC,051420.0,A,3443.4891,N,08633.1251,W,,,230119,,*16
$GPGGA,051450.0,3443.4891,N,08633.1251,W,1,,,231.9,M,,M,,*7F
$GPRMC,051450.0,A,3443.4891,N,08633.1251,W,,,230119,,*11
$GPGGA,051520.0,3443.4884,N,08633.1255,W,1,,,231.7,M,,M,,*77
$GPRMC,051520.0,A,3443.4884,N,08633.1255,W,,,230119,,*17
$GPGGA,051550.0,3443.4893,N,08633.1251,W,1,,,231.5,M,,M,,*70
$GPRMC,051550.0,A,3443.4893,N,08633.1251,W,,,230119,,*12
$GPGGA,051620.0,3443.4893,N,08633.1251,W,1,,,231.2,M,,M,,*73
$GPRMC,051620.0,A,3443.4893,N,08633.1251,W,,,230119,,*16
$GPGGA,051650.0,3443.4893,N,08633.1251,W,1,,,231.1,M,,M,,*77
$GPRMC,051650.0,A,3443.4893,N,08633.1251,W,,,230119,,*11
$GPGGA,051720.0,3443.4893,N,08633.1252,W,1,,,231.4,M,,M,,*77
$GPRMC,051720.0,A,3443.4893,N,08633.1252,W,,,230119,,*14
$GPGGA,051750.0,3443.4893,N,08633.1252,W,1,,,231.7,M,,M,,*73
$GPRMC,051750.0,A,3443.4893,N,08633.1252,W,,,230119,,*13
$GPGGA,051820.0,3443.4893,N,08633.1253,W,1,,,232.0,M,,M,,*7E
$GPRMC,051820.0,A,3443.4893,N,08633.1253,W,,,230119,,*1A
$GPGGA,051850.0,3443.4894,N,08633.1254,W,1,,,232.1,M,,M,,*78
$GPRMC,051850.0,A,3443.4894,N,08633.1254,W,,,230119,,*1D
$GPGGA,051920.0,3443.4894,N,08633.1254,W,1,,,232.2,M,,M,,*7D
$GPRMC,051920.0,A,3443.4894,N,08633.1254,W,,,230119,,*1B
$GPGGA,051950.0,3443.4894,N,08633.1255,W,1,,,232.3,M,,M,,*7A
$GPRMC,051950.0,A,3443.4894,N,08633.1255,W,,,230119,,*1D
$GPGGA,052020.0,3443.4894,N,08633.1256,W,1,,,232.6,M,,M,,*71
$GPRMC,052020.0,A,3443.4894,N,08633.1256,W,,,230119,,*13
$GPGGA,052050.0,3443.4894,N,08633.1256,W,1,,,232.9,M,,M,,*79
$GPRMC,052050.0,A,3443.4894,N,08633.1256,W,,,230119,,*14
$GPGGA,052120.0,3443.4894,N,08633.1256,W,1,,,233.2,M,,M,,*75
$GPRMC,052120.0,A,3443.4894,N,08633.1256,W,,,230119,,*12
$GPGGA,052150.0,3443.4894,N,08633.1256,W,1,,,233.4,M,,M,,*74
$GPRMC,052150.0,A,3443.4894,N,08633.1256,W,,,230119,,*15
$GPGGA,052220.0,3443.4894,N,08633.1257,W,1,,,233.5,M,,M,,*70
$GPRMC,052220.0,A,3443.4894,N,08633.1257,W,,,230119,,*10
$GPGGA,052250.0,3443.4894,N,08633.1257,W,1,,,233.7,M,,M,,*75
$GPRMC,052250.0,A,3443.4894,N,08633.1257,W,,,230119,,*17
$GPGGA,052320.0,3443.4894,N,08633.1256,W,1,,,233.6,M,,M,,*73
$GPRMC,052320.0,A,3443.4894,N,08633.1256,W,,,230119,,*10
$GPGGA,052350.0,3443.4895,N,08633.1257,W,1,,,233.5,M,,M,,*77
$GPRMC,052350.0,A,3443.4895,N,08633.1257,W,,,230119,,*17
$GPGGA,052420.0,3443.4895,N,08633.1257,W,1,,,233.5,M,,M,,*77
$GPRMC,052420.0,A,3443.4895,N,08633.1257,W,,,230119,,*17
$GPGGA,052450.0,3443.4895,N,08633.1257,W,1,,,233.0,M,,M,,*75
$GPRMC,052450.0,A,3443.4895,N,08633.1257,W,,,230119,,*10
$GPGGA,052520.0,3443.4895,N,08633.1257,W,1,,,232.4,M,,M,,*76
$GPRMC,052520.0,A,3443.4895,N,08633.1257,W,,,230119,,*16
$GPGGA,052550.0,3443.4895,N,08633.1256,W,1,,,231.9,M,,M,,*7E
$GPRMC,052550.0,A,3443.4895,N,08633.1256,W,,,230119,,*10
$GPGGA,052620.0,3443.4895,N,08633.1256,W,1,,,231.6,M,,M,,*75
$GPRMC,052620.0,A,3443.4895,N,08633.1256,W,,,230119,,*14
$GPGGA,052650.0,3443.4914,N,08633.1264,W,1,,,230.4,M,,M,,*78
$GPRMC,052650.0,A,3443.4914,N,08633.1264,W,,,230119,,*1A
$GPGGA,052720.0,3443.4913,N,08633.1264,W,1,,,226.5,M,,M,,*7F
$GPRMC,052720.0,A,3443.4913,N,08633.1264,W,,,230119,,*1B
$GPGGA,052750.0,3443.4915,N,08633.1259,W,1,,,224.4,M,,M,,*73
$GPRMC,052750.0,A,3443.4915,N,08633.1259,W,,,230119,,*14
$GPGGA,052820.0,3443.4914,N,08633.1259,W,1,,,224.4,M,,M,,*7A
$GPRMC,052820.0,A,3443.4914,N,08633.1259,W,,,230119,,*1D
$GPGGA,052850.0,3443.4922,N,08633.1263,W,1,,,225.4,M,,M,,*70
$GPRMC,052850.0,A,3443.4922,N,08633.1263,W,,,230119,,*16
$GPGGA,052920.0,3443.4922,N,08633.1263,W,1,,,226.6,M,,M,,*77
$GPRMC,052920.0,A,3443.4922,N,08633.1263,W,,,230119,,*10
$GPGGA,052950.0,3443.4922,N,08633.1263,W,1,,,227.5,M,,M,,*72
$GPRMC,052950.0,A,3443.4922,N,08633.1263,W,,,230119,,*17
$GPGGA,053020.0,3443.4915,N,08633.1263,W,1,,,228.5,M,,M,,*76
$GPRMC,053020.0,A,3443.4915,N,08633.1263,W,,,230119,,*1C
$GPGGA,053050.0,3443.4915,N,08633.1263,W,1,,,228.7,M,,M,,*73
$GPRMC,053050.0,A,3443.4915,N,08633.1263,W,,,230119,,*1B
$GPGGA,053120.0,3443.4915,N,08633.1263,W,1,,,228.0,M,,M,,*72
$GPRMC,053120.0,A,3443.4915,N,08633.1263,W,,,230119,,*1D
$GPGGA,053150.0,3443.4915,N,08633.1262,W,1,,,227.7,M,,M,,*7C
$GPRMC,053150.0,A,3443.4915,N,08633.1262,W,,,230119,,*1B
$GPGGA,053220.0,3443.4915,N,08633.1261,W,1,,,227.0,M,,M,,*7C
$GPRMC,053220.0,A,3443.4915,N,08633.1261,W,,,230119,,*1C
$GPGGA,053250.0,3443.4915,N,08633.1260,W,1,,,226.4,M,,M,,*7F
$GPRMC,053250.0,A,3443.4915,N,08633.1260,W,,,230119,,*1A
$GPGGA,053320.0,3443.4916,N,08633.1258,W,1,,,225.5,M,,M,,*73
$GPRMC,053320.0,A,3443.4916,N,08633.1258,W,,,230119,,*14
$GPGGA,053350.0,3443.4916,N,08633.1257,W,1,,,225.1,M,,M,,*7F
$GPRMC,053350.0,A,3443.4916,N,08633.1257,W,,,230119,,*1C
$GPGGA,053420.0,3443.4902,N,08633.1249,W,1,,,225.0,M,,M,,*74
$GPRMC,053420.0,A,3443.4902,N,08633.1249,W,,,230119,,*16
$GPGGA,053450.0,3443.4913,N,08633.1252,W,1,,,224.4,M,,M,,*7C
$GPRMC,053450.0,A,3443.4913,N,08633.1252,W,,,230119,,*1B
$GPGGA,053520.0,3443.4913,N,08633.1252,W,1,,,224.2,M,,M,,*7C
$GPRMC,053520.0,A,3443.4913,N,08633.1252,W,,,230119,,*1D
$GPGGA,053550.0,3443.4913,N,08633.1252,W,1,,,224.5,M,,M,,*7C
$GPRMC,053550.0,A,3443.4913,N,08633.1252,W,,,230119,,*1A
$GPGGA,053620.0,3443.4909,N,08633.1276,W,1,,,223.7,M,,M,,*70
$GPRMC,053620.0,A,3443.4909,N,08633.1276,W,,,230119,,*13
$GPGGA,053650.0,3443.4911,N,08633.1278,W,1,,,229.5,M,,M,,*78
$GPRMC,053650.0,A,3443.4911,N,08633.1278,W,,,230119,,*13
$GPGGA,053720.0,3443.4911,N,08633.1276,W,1,,,230.3,M,,M,,*7E
$GPRMC,053720.0,A,3443.4911,N,08633.1276,W,,,230119,,*1B
$GPGGA,053750.0,3443.4920,N,08633.1281,W,1,,,234.6,M,,M,,*72
$GPRMC,053750.0,A,3443.4920,N,08633.1281,W,,,230119,,*16
$GPGGA,053820.0,3443.4920,N,08633.1280,W,1,,,236.1,M,,M,,*7E
$GPRMC,053820.0,A,3443.4920,N,08633.1280,W,,,230119,,*1F
$GPGGA,053850.0,3443.4919,N,08633.1279,W,1,,,235.6,M,,M,,*71
$GPRMC,053850.0,A,3443.4919,N,08633.1279,W,,,230119,,*14
$GPGGA,053920.0,3443.4919,N,08633.1277,W,1,,,233.3,M,,M,,*7A
$GPRMC,053920.0,A,3443.4919,N,08633.1277,W,,,230119,,*1C
$GPGGA,053950.0,3443.4919,N,08633.1274,W,1,,,229.7,M,,M,,*71
$GPRMC,053950.0,A,3443.4919,N,08633.1274,W,,,230119,,*18
$GPGGA,054020.0,3443.4918,N,08633.1272,W,1,,,226.1,M,,M,,*76
$GPRMC,054020.0,A,3443.4918,N,08633.1272,W,,,230119,,*16
$GPGGA,054050.0,3443.4918,N,08633.1270,W,1,,,224.8,M,,M,,*78
$GPRMC,054050.0,A,3443.4918,N,08633.1270,W,,,230119,,*13
$GPGGA,054120.0,3443.4906,N,08633.1265,W,1,,,224.8,M,,M,,*75
$GPRMC,054120.0,A,3443.4906,N,08633.1265,W,,,230119,,*1E
$GPGGA,054150.0,3443.4907,N,08633.1265,W,1,,,224.8,M,,M,,*73
$GPRMC,054150.0,A,3443.4907,N,08633.1265,W,,,230119,,*18
$GPGGA,054220.0,3443.4907,N,08633.1265,W,1,,,224.5,M,,M,,*7A
$GPRMC,054220.0,A,3443.4907,N,08633.1265,W,,,230119,,*1C
$GPGGA,054250.0,3443.4902,N,08633.1265,W,1,,,223.5,M,,M,,*7F
$GPRMC,054250.0,A,3443.4902,N,08633.1265,W,,,230119,,*1E
$GPGGA,054320.0,3443.4903,N,08633.1268,W,1,,,223.7,M,,M,,*77
$GPRMC,054320.0,A,3443.4903,N,08633.1268,W,,,230119,,*14
$GPGGA,054350.0,3443.4887,N,08633.1273,W,1,,,221.4,M,,M,,*76
$GPRMC,054350.0,A,3443.4887,N,08633.1273,W,,,230119,,*14
$GPGGA,054420.0,3443.4888,N,08633.1273,W,1,,,221.6,M,,M,,*7B
$GPRMC,054420.0,A,3443.4888,N,08633.1273,W,,,230119,,*1B
$GPGGA,054450.0,3443.4888,N,08633.1273,W,1,,,221.8,M,,M,,*72
$GPRMC,054450.0,A,3443.4888,N,08633.1273,W,,,230119,,*1C
$GPGGA,054520.0,3443.4888,N,08633.1273,W,1,,,221.9,M,,M,,*75
$GPRMC,054520.0,A,3443.4888,N,08633.1273,W,,,230119,,*1A
$GPGGA,054550.0,3443.4888,N,08633.1273,W,1,,,221.7,M,,M,,*7C
$GPRMC,054550.0,A,3443.4888,N,08633.1273,W,,,230119,,*1D
$GPGGA,054620.0,3443.4888,N,08633.1272,W,1,,,221.3,M,,M,,*7D
$GPRMC,054620.0,A,3443.4888,N,08633.1272,W,,,230119,,*18
$GPGGA,054650.0,3443.4888,N,08633.1272,W,1,,,220.8,M,,M,,*70
$GPRMC,054650.0,A,3443.4888,N,08633.1272,W,,,230119,,*1F
$GPGGA,054720.0,3443.4888,N,08633.1271,W,1,,,220.4,M,,M,,*79
$GPRMC,054720.0,A,3443.4888,N,08633.1271,W,,,230119,,*1A
$GPGGA,054750.0,3443.4888,N,08633.1270,W,1,,,220.0,M,,M,,*7B
$GPRMC,054750.0,A,3443.4888,N,08633.1270,W,,,230119,,*1C
$GPGGA,054820.0,3443.4888,N,08633.1270,W,1,,,219.7,M,,M,,*7E
$GPRMC,054820.0,A,3443.4888,N,08633.1270,W,,,230119,,*14
$GPGGA,054850.0,3443.4888,N,08633.1270,W,1,,,219.7,M,,M,,*79
$GPRMC,054850.0,A,3443.4888,N,08633.1270,W,,,230119,,*13
$GPGGA,054920.0,3443.4888,N,08633.1270,W,1,,,219.7,M,,M,,*7F
$GPRMC,054920.0,A,3443.4888,N,08633.1270,W,,,230119,,*15
$GPGGA,054950.0,3443.4892,N,08633.1275,W,1,,,225.0,M,,M,,*7E
$GPRMC,054950.0,A,3443.4892,N,08633.1275,W,,,230119,,*1C
$GPGGA,055020.0,3443.4892,N,08633.1275,W,1,,,225.1,M,,M,,*70
$GPRMC,055020.0,A,3443.4892,N,08633.1275,W,,,230119,,*13
