@Olympus/+0900/+0900
$GPGGA,150007.0,3443.5010,N,08633.1342,W,1,,,238.0,M,,M,,*7A
$GPRMC,150007.0,A,3443.5010,N,08633.1342,W,,,161119,,*13
$GPGGA,150037.0,3443.5010,N,08633.1342,W,1,,,239.7,M,,M,,*7F
$GPRMC,150037.0,A,3443.5010,N,08633.1342,W,,,161119,,*10
$GPGGA,150107.0,3443.5003,N,08633.1340,W,1,,,236.0,M,,M,,*75
$GPRMC,150107.0,A,3443.5003,N,08633.1340,W,,,161119,,*12
$GPGGA,150137.0,3443.4996,N,08633.1332,W,1,,,225.5,M,,M,,*70
$GPRMC,150137.0,A,3443.4996,N,08633.1332,W,,,161119,,*10
$GPGGA,150207.0,3443.4987,N,08633.1325,W,1,,,218.2,M,,M,,*7F
$GPRMC,150207.0,A,3443.4987,N,08633.1325,W,,,161119,,*16
$GPGGA,150237.0,3443.4978,N,08633.1320,W,1,,,214.1,M,,M,,*76
$GPRMC,150237.0,A,3443.4978,N,08633.1320,W,,,161119,,*10
$GPGGA,150307.0,3443.4972,N,08633.1315,W,1,,,211.9,M,,M,,*75
$GPRMC,150307.0,A,3443.4972,N,08633.1315,W,,,161119,,*1E
$GPGGA,150337.0,3443.4971,N,08633.1313,W,1,,,212.2,M,,M,,*7B
$GPRMC,150337.0,A,3443.4971,N,08633.1313,W,,,161119,,*18
$GPGGA,150407.0,3443.4969,N,08633.1311,W,1,,,212.0,M,,M,,*76
$GPRMC,150407.0,A,3443.4969,N,08633.1311,W,,,161119,,*17
$GPGGA,150437.0,3443.4967,N,08633.1310,W,1,,,213.3,M,,M,,*78
$GPRMC,150437.0,A,3443.4967,N,08633.1310,W,,,161119,,*1B
$GPGGA,150507.0,3443.4968,N,08633.1311,W,1,,,215.8,M,,M,,*79
$GPRMC,150507.0,A,3443.4968,N,08633.1311,W,,,161119,,*17
$GPGGA,150537.0,3443.4967,N,08633.1311,W,1,,,218.2,M,,M,,*72
$GPRMC,150537.0,A,3443.4967,N,08633.1311,W,,,161119,,*1B
$GPGGA,150607.0,3443.4966,N,08633.1310,W,1,,,219.4,M,,M,,*75
$GPRMC,150607.0,A,3443.4966,N,08633.1310,W,,,161119,,*1B
$GPGGA,150637.0,3443.4962,N,08633.1308,W,1,,,220.3,M,,M,,*76
$GPRMC,150637.0,A,3443.4962,N,08633.1308,W,,,161119,,*15
$GPGGA,150707.0,3443.4959,N,08633.1306,W,1,,,221.6,M,,M,,*76
$GPRMC,150707.0,A,3443.4959,N,08633.1306,W,,,161119,,*11
$GPGGA,150737.0,3443.4957,N,08633.1305,W,1,,,222.4,M,,M,,*79
$GPRMC,150737.0,A,3443.4957,N,08633.1305,W,,,161119,,*1F
$GPGGA,150807.0,3443.4957,N,08633.1306,W,1,,,223.1,M,,M,,*72
$GPRMC,150807.0,A,3443.4957,N,08633.1306,W,,,161119,,*10
$GPGGA,150837.0,3443.4957,N,08633.1307,W,1,,,225.8,M,,M,,*7F
$GPRMC,150837.0,A,3443.4957,N,08633.1307,W,,,161119,,*12
$GPGGA,150907.0,3443.4958,N,08633.1315,W,1,,,229.2,M,,M,,*77
$GPRMC,150907.0,A,3443.4958,N,08633.1315,W,,,161119,,*1C
$GPGGA,150937.0,3443.4956,N,08633.1315,W,1,,,228.5,M,,M,,*7C
$GPRMC,150937.0,A,3443.4956,N,08633.1315,W,,,161119,,*11
$GPGGA,151007.0,3443.4953,N,08633.1314,W,1,,,227.3,M,,M,,*7A
$GPRMC,151007.0,A,3443.4953,N,08633.1314,W,,,161119,,*1E
$GPGGA,151037.0,3443.4948,N,08633.1315,W,1,,,227.2,M,,M,,*73
$GPRMC,151037.0,A,3443.4948,N,08633.1315,W,,,161119,,*16
$GPGGA,151107.0,3443.4943,N,08633.1317,W,1,,,228.1,M,,M,,*74
$GPRMC,151107.0,A,3443.4943,N,08633.1317,W,,,161119,,*1D
$GPGGA,151137.0,3443.4939,N,08633.1317,W,1,,,227.5,M,,M,,*71
$GPRMC,151137.0,A,3443.4939,N,08633.1317,W,,,161119,,*13
$GPGGA,151207.0,3443.4937,N,08633.1317,W,1,,,226.7,M,,M,,*7C
$GPRMC,151207.0,A,3443.4937,N,08633.1317,W,,,161119,,*1D
$GPGGA,151237.0,3443.4934,N,08633.1318,W,1,,,226.4,M,,M,,*70
$GPRMC,151237.0,A,3443.4934,N,08633.1318,W,,,161119,,*12
$GPGGA,151307.0,3443.4929,N,08633.1317,W,1,,,225.8,M,,M,,*7E
$GPRMC,151307.0,A,3443.4929,N,08633.1317,W,,,161119,,*13
$GPGGA,151337.0,3443.4925,N,08633.1317,W,1,,,225.8,M,,M,,*71
$GPRMC,151337.0,A,3443.4925,N,08633.1317,W,,,161119,,*1C
$GPGGA,151407.0,3443.4924,N,08633.1315,W,1,,,225.0,M,,M,,*7E
$GPRMC,151407.0,A,3443.4924,N,08633.1315,W,,,161119,,*1B
$GPGGA,151437.0,3443.4924,N,08633.1313,W,1,,,223.3,M,,M,,*7E
$GPRMC,151437.0,A,3443.4924,N,08633.1313,W,,,161119,,*1E
$GPGGA,151507.0,3443.4923,N,08633.1311,W,1,,,222.8,M,,M,,*73
$GPRMC,151507.0,A,3443.4923,N,08633.1311,W,,,161119,,*19
$GPGGA,151537.0,3443.4923,N,08633.1309,W,1,,,222.4,M,,M,,*75
$GPRMC,151537.0,A,3443.4923,N,08633.1309,W,,,161119,,*13
$GPGGA,151607.0,3443.4924,N,08633.1306,W,1,,,221.4,M,,M,,*7E
$GPRMC,151607.0,A,3443.4924,N,08633.1306,W,,,161119,,*1B
$GPGGA,151637.0,3443.4923,N,08633.1305,W,1,,,220.5,M,,M,,*79
$GPRMC,151637.0,A,3443.4923,N,08633.1305,W,,,161119,,*1C
$GPGGA,151707.0,3443.4923,N,08633.1304,W,1,,,220.2,M,,M,,*7D
$GPRMC,151707.0,A,3443.4923,N,08633.1304,W,,,161119,,*1F
$GPGGA,151737.0,3443.4922,N,08633.1305,W,1,,,219.1,M,,M,,*77
$GPRMC,151737.0,A,3443.4922,N,08633.1305,W,,,161119,,*1C
$GPGGA,151807.0,3443.4921,N,08633.1305,W,1,,,218.6,M,,M,,*7E
$GPRMC,151807.0,A,3443.4921,N,08633.1305,W,,,161119,,*13
$GPGGA,151837.0,3443.4920,N,08633.1306,W,1,,,218.4,M,,M,,*7D
$GPRMC,151837.0,A,3443.4920,N,08633.1306,W,,,161119,,*12
$GPGGA,151907.0,3443.4918,N,08633.1307,W,1,,,218.1,M,,M,,*70
$GPRMC,151907.0,A,3443.4918,N,08633.1307,W,,,161119,,*1A
$GPGGA,151937.0,3443.4916,N,08633.1308,W,1,,,218.0,M,,M,,*73
$GPRMC,151937.0,A,3443.4916,N,08633.1308,W,,,161119,,*18
$GPGGA,152007.0,3443.4914,N,08633.1308,W,1,,,217.7,M,,M,,*70
$GPRMC,152007.0,A,3443.4914,N,08633.1308,W,,,161119,,*13
$GPGGA,152037.0,3443.4912,N,08633.1308,W,1,,,218.1,M,,M,,*7C
$GPRMC,152037.0,A,3443.4912,N,08633.1308,W,,,161119,,*16
$GPGGA,152107.0,3443.4911,N,08633.1308,W,1,,,218.5,M,,M,,*79
$GPRMC,152107.0,A,3443.4911,N,08633.1308,W,,,161119,,*17
$GPGGA,152137.0,3443.4910,N,08633.1309,W,1,,,219.1,M,,M,,*7F
$GPRMC,152137.0,A,3443.4910,N,08633.1309,W,,,161119,,*14
$GPGGA,152207.0,3443.4910,N,08633.1309,W,1,,,220.1,M,,M,,*75
$GPRMC,152207.0,A,3443.4910,N,08633.1309,W,,,161119,,*14
$GPGGA,152237.0,3443.4910,N,08633.1309,W,1,,,220.8,M,,M,,*7F
$GPRMC,152237.0,A,3443.4910,N,08633.1309,W,,,161119,,*17
$GPGGA,152307.0,3443.4910,N,08633.1310,W,1,,,220.8,M,,M,,*75
$GPRMC,152307.0,A,3443.4910,N,08633.1310,W,,,161119,,*1D
$GPGGA,152337.0,3443.4915,N,08633.1304,W,1,,,220.5,M,,M,,*7B
$GPRMC,152337.0,A,3443.4915,N,08633.1304,W,,,161119,,*1E
$GPGGA,152407.0,3443.4925,N,08633.1295,W,1,,,220.2,M,,M,,*72
$GPRMC,152407.0,A,3443.4925,N,08633.1295,W,,,161119,,*10
$GPGGA,152437.0,3443.4926,N,08633.1295,W,1,,,220.4,M,,M,,*74
$GPRMC,152437.0,A,3443.4926,N,08633.1295,W,,,161119,,*10
$GPGGA,152507.0,3443.4926,N,08633.1296,W,1,,,220.6,M,,M,,*77
$GPRMC,152507.0,A,3443.4926,N,08633.1296,W,,,161119,,*11
$GPGGA,152537.1,3443.4925,N,08633.1297,W,1,,,221.3,M,,M,,*73
$GPRMC,152537.1,A,3443.4925,N,08633.1297,W,,,161119,,*11
$GPGGA,152607.0,3443.4924,N,08633.1297,W,1,,,221.6,M,,M,,*76
$GPRMC,152607.0,A,3443.4924,N,08633.1297,W,,,161119,,*11
$GPGGA,152637.0,3443.4923,N,08633.1297,W,1,,,221.9,M,,M,,*7D
$GPRMC,152637.0,A,3443.4923,N,08633.1297,W,,,161119,,*15
$GPGGA,152707.0,3443.4922,N,08633.1298,W,1,,,222.4,M,,M,,*7F
$GPRMC,152707.0,A,3443.4922,N,08633.1298,W,,,161119,,*19
$GPGGA,152737.0,3443.4922,N,08633.1298,W,1,,,223.1,M,,M,,*78
$GPRMC,152737.0,A,3443.4922,N,08633.1298,W,,,161119,,*1A
$GPGGA,152807.0,3443.4922,N,08633.1298,W,1,,,223.8,M,,M,,*7D
$GPRMC,152807.0,A,3443.4922,N,08633.1298,W,,,161119,,*16
$GPGGA,152837.0,3443.4922,N,08633.1298,W,1,,,224.1,M,,M,,*70
$GPRMC,152837.0,A,3443.4922,N,08633.1298,W,,,161119,,*15
$GPGGA,152907.0,3443.4922,N,08633.1298,W,1,,,224.0,M,,M,,*73
$GPRMC,152907.0,A,3443.4922,N,08633.1298,W,,,161119,,*17
$GPGGA,152937.0,3443.4922,N,08633.1298,W,1,,,223.9,M,,M,,*7E
$GPRMC,152937.0,A,3443.4922,N,08633.1298,W,,,161119,,*14
$GPGGA,153007.0,3443.4922,N,08633.1298,W,1,,,223.9,M,,M,,*75
$GPRMC,153007.0,A,3443.4922,N,08633.1298,W,,,161119,,*1F
$GPGGA,153037.0,3443.4922,N,08633.1299,W,1,,,224.3,M,,M,,*7A
$GPRMC,153037.0,A,3443.4922,N,08633.1299,W,,,161119,,*1D
$GPGGA,153107.0,3443.4920,N,08633.1301,W,1,,,224.9,M,,M,,*70
$GPRMC,153107.0,A,3443.4920,N,08633.1301,W,,,161119,,*1D
$GPGGA,153137.0,3443.4918,N,08633.1302,W,1,,,225.3,M,,M,,*70
$GPRMC,153137.0,A,3443.4918,N,08633.1302,W,,,161119,,*16
$GPGGA,153207.0,3443.4917,N,08633.1303,W,1,,,225.5,M,,M,,*78
$GPRMC,153207.0,A,3443.4917,N,08633.1303,W,,,161119,,*18
$GPGGA,153237.0,3443.4916,N,08633.1304,W,1,,,225.6,M,,M,,*7E
$GPRMC,153237.0,A,3443.4916,N,08633.1304,W,,,161119,,*1D
$GPGGA,153307.0,3443.4915,N,08633.1305,W,1,,,225.9,M,,M,,*71
$GPRMC,153307.0,A,3443.4915,N,08633.1305,W,,,161119,,*1D
$GPGGA,153337.0,3443.4913,N,08633.1305,W,1,,,226.1,M,,M,,*7F
$GPRMC,153337.0,A,3443.4913,N,08633.1305,W,,,161119,,*18
$GPGGA,153407.0,3443.4913,N,08633.1305,W,1,,,226.2,M,,M,,*78
$GPRMC,153407.0,A,3443.4913,N,08633.1305,W,,,161119,,*1C
$GPGGA,153437.0,3443.4911,N,08633.1305,W,1,,,229.3,M,,M,,*77
$GPRMC,153437.0,A,3443.4911,N,08633.1305,W,,,161119,,*1D
$GPGGA,153507.0,3443.4910,N,08633.1305,W,1,,,231.6,M,,M,,*78
$GPRMC,153507.0,A,3443.4910,N,08633.1305,W,,,161119,,*1E
$GPGGA,153537.0,3443.4909,N,08633.1304,W,1,,,232.1,M,,M,,*76
$GPRMC,153537.0,A,3443.4909,N,08633.1304,W,,,161119,,*14
$GPGGA,153607.0,3443.4908,N,08633.1305,W,1,,,235.7,M,,M,,*77
$GPRMC,153607.0,A,3443.4908,N,08633.1305,W,,,161119,,*14
$GPGGA,153637.0,3443.4907,N,08633.1306,W,1,,,234.0,M,,M,,*7E
$GPRMC,153637.0,A,3443.4907,N,08633.1306,W,,,161119,,*1B
$GPGGA,153707.0,3443.4922,N,08633.1317,W,1,,,226.1,M,,M,,*79
$GPRMC,153707.0,A,3443.4922,N,08633.1317,W,,,161119,,*1E
$GPGGA,153737.0,3443.4920,N,08633.1318,W,1,,,227.2,M,,M,,*75
$GPRMC,153737.0,A,3443.4920,N,08633.1318,W,,,161119,,*10
$GPGGA,153807.0,3443.4917,N,08633.1320,W,1,,,227.8,M,,M,,*7C
$GPRMC,153807.0,A,3443.4917,N,08633.1320,W,,,161119,,*13
$GPGGA,153837.0,3443.4918,N,08633.1320,W,1,,,226.4,M,,M,,*7D
$GPRMC,153837.0,A,3443.4918,N,08633.1320,W,,,161119,,*1F
$GPGGA,153907.0,3443.4916,N,08633.1321,W,1,,,227.9,M,,M,,*7C
$GPRMC,153907.0,A,3443.4916,N,08633.1321,W,,,161119,,*12
$GPGGA,153937.0,3443.4916,N,08633.1322,W,1,,,228.5,M,,M,,*7F
$GPRMC,153937.0,A,3443.4916,N,08633.1322,W,,,161119,,*12
$GPGGA,154007.0,3443.4915,N,08633.1322,W,1,,,228.9,M,,M,,*7D
$GPRMC,154007.0,A,3443.4915,N,08633.1322,W,,,161119,,*1C
$GPGGA,154037.0,3443.4915,N,08633.1323,W,1,,,229.5,M,,M,,*72
$GPRMC,154037.0,A,3443.4915,N,08633.1323,W,,,161119,,*1E
$GPGGA,154107.0,3443.4914,N,08633.1324,W,1,,,232.1,M,,M,,*78
$GPRMC,154107.0,A,3443.4914,N,08633.1324,W,,,161119,,*1A
$GPGGA,154137.0,3443.4925,N,08633.1339,W,1,,,227.0,M,,M,,*70
$GPRMC,154137.0,A,3443.4925,N,08633.1339,W,,,161119,,*17
$GPGGA,154207.0,3443.4924,N,08633.1331,W,1,,,230.1,M,,M,,*7E
$GPRMC,154207.0,A,3443.4924,N,08633.1331,W,,,161119,,*1E
$GPGGA,154237.0,3443.4924,N,08633.1331,W,1,,,228.8,M,,M,,*7D
$GPRMC,154237.0,A,3443.4924,N,08633.1331,W,,,161119,,*1D
$GPGGA,154307.0,3443.4923,N,08633.1335,W,1,,,225.8,M,,M,,*71
$GPRMC,154307.0,A,3443.4923,N,08633.1335,W,,,161119,,*1C
$GPGGA,154337.0,3443.4923,N,08633.1335,W,1,,,226.2,M,,M,,*7B
$GPRMC,154337.0,A,3443.4923,N,08633.1335,W,,,161119,,*1F
$GPGGA,154407.0,3443.4919,N,08633.1340,W,1,,,245.4,M,,M,,*77
$GPRMC,154407.0,A,3443.4919,N,08633.1340,W,,,161119,,*10
$GPGGA,154437.0,3443.4917,N,08633.1341,W,1,,,245.6,M,,M,,*79
$GPRMC,154437.0,A,3443.4917,N,08633.1341,W,,,161119,,*1C
$GPGGA,154507.0,3443.4912,N,08633.1338,W,1,,,245.4,M,,M,,*72
$GPRMC,154507.0,A,3443.4912,N,08633.1338,W,,,161119,,*15
$GPGGA,154537.0,3443.4910,N,08633.1338,W,1,,,242.9,M,,M,,*79
$GPRMC,154537.0,A,3443.4910,N,08633.1338,W,,,161119,,*14
$GPGGA,154607.0,3443.4913,N,08633.1338,W,1,,,239.9,M,,M,,*76
$GPRMC,154607.0,A,3443.4913,N,08633.1338,W,,,161119,,*17
$GPGGA,154637.0,3443.4914,N,08633.1336,W,1,,,238.5,M,,M,,*71
$GPRMC,154637.0,A,3443.4914,N,08633.1336,W,,,161119,,*1D
$GPGGA,154707.0,3443.4914,N,08633.1327,W,1,,,237.4,M,,M,,*7D
$GPRMC,154707.0,A,3443.4914,N,08633.1327,W,,,161119,,*1F
$GPGGA,154737.0,3443.4914,N,08633.1320,W,1,,,233.9,M,,M,,*70
$GPRMC,154737.0,A,3443.4914,N,08633.1320,W,,,161119,,*1B
$GPGGA,154807.0,3443.4913,N,08633.1320,W,1,,,230.8,M,,M,,*79
$GPRMC,154807.0,A,3443.4913,N,08633.1320,W,,,161119,,*10
