@Olympus/+0900/+0900
$GPGGA,150007.0,3443.4876,N,08633.1335,W,1,,,236.7,M,,M,,*7A
$GPRMC,150007.0,A,3443.4876,N,08633.1335,W,,,151119,,*19
$GPGGA,150037.0,3443.4879,N,08633.1337,W,1,,,237.5,M,,M,,*77
$GPRMC,150037.0,A,3443.4879,N,08633.1337,W,,,151119,,*17
$GPGGA,150107.0,3443.4883,N,08633.1336,W,1,,,237.2,M,,M,,*76
$GPRMC,150107.0,A,3443.4883,N,08633.1336,W,,,151119,,*11
$GPGGA,150137.0,3443.4884,N,08633.1333,W,1,,,234.3,M,,M,,*75
$GPRMC,150137.0,A,3443.4884,N,08633.1333,W,,,151119,,*10
$GPGGA,150207.0,3443.4885,N,08633.1333,W,1,,,231.8,M,,M,,*7A
$GPRMC,150207.0,A,3443.4885,N,08633.1333,W,,,151119,,*11
$GPGGA,150237.0,3443.4885,N,08633.1333,W,1,,,229.5,M,,M,,*7D
$GPRMC,150237.0,A,3443.4885,N,08633.1333,W,,,151119,,*12
$GPGGA,150307.0,3443.4884,N,08633.1330,W,1,,,222.9,M,,M,,*7A
$GPRMC,150307.0,A,3443.4884,N,08633.1330,W,,,151119,,*12
$GPGGA,150337.0,3443.4881,N,08633.1325,W,1,,,218.5,M,,M,,*7D
$GPRMC,150337.0,A,3443.4881,N,08633.1325,W,,,151119,,*10
$GPGGA,150407.0,3443.4879,N,08633.1323,W,1,,,215.5,M,,M,,*75
$GPRMC,150407.0,A,3443.4879,N,08633.1323,W,,,151119,,*15
$GPGGA,150437.0,3443.4888,N,08633.1331,W,1,,,210.4,M,,M,,*7F
$GPRMC,150437.0,A,3443.4888,N,08633.1331,W,,,151119,,*1B
$GPGGA,150507.0,3443.4887,N,08633.1328,W,1,,,207.7,M,,M,,*7F
$GPRMC,150507.0,A,3443.4887,N,08633.1328,W,,,151119,,*1E
$GPGGA,150537.0,3443.4885,N,08633.1322,W,1,,,203.5,M,,M,,*72
$GPRMC,150537.0,A,3443.4885,N,08633.1322,W,,,151119,,*15
$GPGGA,150607.0,3443.4883,N,08633.1316,W,1,,,201.3,M,,M,,*77
$GPRMC,150607.0,A,3443.4883,N,08633.1316,W,,,151119,,*14
$GPGGA,150637.0,3443.4883,N,08633.1312,W,1,,,202.2,M,,M,,*72
$GPRMC,150637.0,A,3443.4883,N,08633.1312,W,,,151119,,*13
$GPGGA,150707.1,3443.4882,N,08633.1307,W,1,,,202.4,M,,M,,*72
$GPRMC,150707.1,A,3443.4882,N,08633.1307,W,,,151119,,*15
$GPGGA,150737.1,3443.4882,N,08633.1305,W,1,,,202.4,M,,M,,*73
$GPRMC,150737.1,A,3443.4882,N,08633.1305,W,,,151119,,*14
$GPGGA,150807.1,3443.4876,N,08633.1297,W,1,,,197.8,M,,M,,*7D
$GPRMC,150807.1,A,3443.4876,N,08633.1297,W,,,151119,,*19
$GPGGA,150837.1,3443.4876,N,08633.1294,W,1,,,197.3,M,,M,,*76
$GPRMC,150837.1,A,3443.4876,N,08633.1294,W,,,151119,,*19
$GPGGA,150907.1,3443.4877,N,08633.1294,W,1,,,198.0,M,,M,,*79
$GPRMC,150907.1,A,3443.4877,N,08633.1294,W,,,151119,,*1A
$GPGGA,150937.1,3443.4879,N,08633.1293,W,1,,,198.3,M,,M,,*70
$GPRMC,150937.1,A,3443.4879,N,08633.1293,W,,,151119,,*10
$GPGGA,151007.1,3443.4880,N,08633.1292,W,1,,,198.3,M,,M,,*7C
$GPRMC,151007.1,A,3443.4880,N,08633.1292,W,,,151119,,*1C
$GPGGA,151037.1,3443.4879,N,08633.1292,W,1,,,199.5,M,,M,,*7E
$GPRMC,151037.1,A,3443.4879,N,08633.1292,W,,,151119,,*19
$GPGGA,151107.1,3443.4879,N,08633.1290,W,1,,,200.1,M,,M,,*79
$GPRMC,151107.1,A,3443.4879,N,08633.1290,W,,,151119,,*19
$GPGGA,151137.1,3443.4880,N,08633.1291,W,1,,,202.3,M,,M,,*7D
$GPRMC,151137.1,A,3443.4880,N,08633.1291,W,,,151119,,*1D
$GPGGA,151207.1,3443.4881,N,08633.1291,W,1,,,202.9,M,,M,,*76
$GPRMC,151207.1,A,3443.4881,N,08633.1291,W,,,151119,,*1C
$GPGGA,151237.1,3443.4881,N,08633.1291,W,1,,,205.4,M,,M,,*7F
$GPRMC,151237.1,A,3443.4881,N,08633.1291,W,,,151119,,*1F
$GPGGA,151307.1,3443.4882,N,08633.1292,W,1,,,206.4,M,,M,,*7E
$GPRMC,151307.1,A,3443.4882,N,08633.1292,W,,,151119,,*1D
$GPGGA,151337.1,3443.4883,N,08633.1292,W,1,,,206.9,M,,M,,*71
$GPRMC,151337.1,A,3443.4883,N,08633.1292,W,,,151119,,*1F
$GPGGA,151407.1,3443.4883,N,08633.1292,W,1,,,207.6,M,,M,,*7B
$GPRMC,151407.1,A,3443.4883,N,08633.1292,W,,,151119,,*1B
$GPGGA,151437.1,3443.4882,N,08633.1292,W,1,,,208.0,M,,M,,*70
$GPRMC,151437.1,A,3443.4882,N,08633.1292,W,,,151119,,*19
$GPGGA,151507.1,3443.4883,N,08633.1293,W,1,,,208.9,M,,M,,*7B
$GPRMC,151507.1,A,3443.4883,N,08633.1293,W,,,151119,,*1B
$GPGGA,151537.1,3443.4885,N,08633.1294,W,1,,,210.2,M,,M,,*7B
$GPRMC,151537.1,A,3443.4885,N,08633.1294,W,,,151119,,*19
$GPGGA,151607.1,3443.4887,N,08633.1296,W,1,,,211.7,M,,M,,*7F
$GPRMC,151607.1,A,3443.4887,N,08633.1296,W,,,151119,,*19
$GPGGA,151637.1,3443.4888,N,08633.1299,W,1,,,214.1,M,,M,,*7F
$GPRMC,151637.1,A,3443.4888,N,08633.1299,W,,,151119,,*1A
$GPGGA,151707.1,3443.4885,N,08633.1301,W,1,,,214.7,M,,M,,*76
$GPRMC,151707.1,A,3443.4885,N,08633.1301,W,,,151119,,*15
$GPGGA,151737.0,3443.4885,N,08633.1303,W,1,,,215.9,M,,M,,*79
$GPRMC,151737.0,A,3443.4885,N,08633.1303,W,,,151119,,*15
$GPGGA,151807.1,3443.4885,N,08633.1302,W,1,,,216.3,M,,M,,*7C
$GPRMC,151807.1,A,3443.4885,N,08633.1302,W,,,151119,,*19
$GPGGA,151837.1,3443.4886,N,08633.1300,W,1,,,216.8,M,,M,,*75
$GPRMC,151837.1,A,3443.4886,N,08633.1300,W,,,151119,,*1B
$GPGGA,151907.1,3443.4887,N,08633.1299,W,1,,,217.3,M,,M,,*7D
$GPRMC,151907.1,A,3443.4887,N,08633.1299,W,,,151119,,*19
$GPGGA,151937.1,3443.4888,N,08633.1299,W,1,,,217.5,M,,M,,*77
$GPRMC,151937.1,A,3443.4888,N,08633.1299,W,,,151119,,*15
$GPGGA,152007.1,3443.4889,N,08633.1298,W,1,,,217.3,M,,M,,*78
$GPRMC,152007.1,A,3443.4889,N,08633.1298,W,,,151119,,*1C
$GPGGA,152037.1,3443.4889,N,08633.1297,W,1,,,216.4,M,,M,,*72
$GPRMC,152037.1,A,3443.4889,N,08633.1297,W,,,151119,,*10
$GPGGA,152107.1,3443.4890,N,08633.1296,W,1,,,216.0,M,,M,,*7D
$GPRMC,152107.1,A,3443.4890,N,08633.1296,W,,,151119,,*1B
$GPGGA,152137.1,3443.4892,N,08633.1297,W,1,,,215.2,M,,M,,*7C
$GPRMC,152137.1,A,3443.4892,N,08633.1297,W,,,151119,,*1B
$GPGGA,152207.1,3443.4892,N,08633.1297,W,1,,,214.6,M,,M,,*79
$GPRMC,152207.1,A,3443.4892,N,08633.1297,W,,,151119,,*1B
$GPGGA,152237.1,3443.4892,N,08633.1297,W,1,,,214.4,M,,M,,*78
$GPRMC,152237.1,A,3443.4892,N,08633.1297,W,,,151119,,*18
$GPGGA,152307.1,3443.4891,N,08633.1297,W,1,,,214.2,M,,M,,*7F
$GPRMC,152307.1,A,3443.4891,N,08633.1297,W,,,151119,,*19
$GPGGA,152337.1,3443.4891,N,08633.1298,W,1,,,214.4,M,,M,,*75
$GPRMC,152337.1,A,3443.4891,N,08633.1298,W,,,151119,,*15
$GPGGA,152407.1,3443.4892,N,08633.1298,W,1,,,215.1,M,,M,,*76
$GPRMC,152407.1,A,3443.4892,N,08633.1298,W,,,151119,,*12
$GPGGA,152437.1,3443.4890,N,08633.1298,W,1,,,215.4,M,,M,,*72
$GPRMC,152437.1,A,3443.4890,N,08633.1298,W,,,151119,,*13
$GPGGA,152507.1,3443.4889,N,08633.1298,W,1,,,215.8,M,,M,,*74
$GPRMC,152507.1,A,3443.4889,N,08633.1298,W,,,151119,,*19
$GPGGA,152537.1,3443.4894,N,08633.1307,W,1,,,219.2,M,,M,,*7A
$GPRMC,152537.1,A,3443.4894,N,08633.1307,W,,,151119,,*11
$GPGGA,152607.1,3443.4891,N,08633.1308,W,1,,,231.4,M,,M,,*7C
$GPRMC,152607.1,A,3443.4891,N,08633.1308,W,,,151119,,*1B
$GPGGA,152637.1,3443.4892,N,08633.1309,W,1,,,233.6,M,,M,,*7D
$GPRMC,152637.1,A,3443.4892,N,08633.1309,W,,,151119,,*1A
$GPGGA,152707.1,3443.4893,N,08633.1310,W,1,,,233.0,M,,M,,*70
$GPRMC,152707.1,A,3443.4893,N,08633.1310,W,,,151119,,*11
$GPGGA,152737.1,3443.4893,N,08633.1310,W,1,,,232.1,M,,M,,*73
$GPRMC,152737.1,A,3443.4893,N,08633.1310,W,,,151119,,*12
$GPGGA,152807.1,3443.4895,N,08633.1309,W,1,,,227.8,M,,M,,*7C
$GPRMC,152807.1,A,3443.4895,N,08633.1309,W,,,151119,,*10
$GPGGA,152837.1,3443.4895,N,08633.1311,W,1,,,230.5,M,,M,,*7D
$GPRMC,152837.1,A,3443.4895,N,08633.1311,W,,,151119,,*1A
$GPGGA,152907.1,3443.4896,N,08633.1311,W,1,,,231.6,M,,M,,*7E
$GPRMC,152907.1,A,3443.4896,N,08633.1311,W,,,151119,,*1B
$GPGGA,152937.1,3443.4897,N,08633.1312,W,1,,,233.0,M,,M,,*7B
$GPRMC,152937.1,A,3443.4897,N,08633.1312,W,,,151119,,*1A
$GPGGA,153007.1,3443.4914,N,08633.1299,W,1,,,240.6,M,,M,,*7A
$GPRMC,153007.1,A,3443.4914,N,08633.1299,W,,,151119,,*19
$GPGGA,153037.1,3443.4915,N,08633.1297,W,1,,,240.4,M,,M,,*74
$GPRMC,153037.1,A,3443.4915,N,08633.1297,W,,,151119,,*15
$GPGGA,153107.1,3443.4914,N,08633.1297,W,1,,,246.1,M,,M,,*74
$GPRMC,153107.1,A,3443.4914,N,08633.1297,W,,,151119,,*16
$GPGGA,153137.1,3443.4914,N,08633.1299,W,1,,,250.2,M,,M,,*7D
$GPRMC,153137.1,A,3443.4914,N,08633.1299,W,,,151119,,*1B
$GPGGA,153207.1,3443.4914,N,08633.1299,W,1,,,250.4,M,,M,,*7B
$GPRMC,153207.1,A,3443.4914,N,08633.1299,W,,,151119,,*1B
$GPGGA,153237.0,3443.4913,N,08633.1300,W,1,,,251.4,M,,M,,*7E
$GPRMC,153237.0,A,3443.4913,N,08633.1300,W,,,151119,,*1F
$GPGGA,153307.0,3443.4916,N,08633.1303,W,1,,,244.9,M,,M,,*73
$GPRMC,153307.0,A,3443.4916,N,08633.1303,W,,,151119,,*1B
$GPGGA,153337.1,3443.4916,N,08633.1297,W,1,,,231.4,M,,M,,*72
$GPRMC,153337.1,A,3443.4916,N,08633.1297,W,,,151119,,*15
$GPGGA,153407.1,3443.4917,N,08633.1297,W,1,,,229.6,M,,M,,*7C
$GPRMC,153407.1,A,3443.4917,N,08633.1297,W,,,151119,,*10
$GPGGA,153437.1,3443.4916,N,08633.1298,W,1,,,232.3,M,,M,,*7E
$GPRMC,153437.1,A,3443.4916,N,08633.1298,W,,,151119,,*1D
$GPGGA,153507.0,3443.4913,N,08633.1302,W,1,,,238.0,M,,M,,*73
$GPRMC,153507.0,A,3443.4913,N,08633.1302,W,,,151119,,*19
$GPGGA,153537.1,3443.4911,N,08633.1303,W,1,,,237.7,M,,M,,*7A
$GPRMC,153537.1,A,3443.4911,N,08633.1303,W,,,151119,,*18
$GPGGA,153607.0,3443.4911,N,08633.1304,W,1,,,236.3,M,,M,,*79
$GPRMC,153607.0,A,3443.4911,N,08633.1304,W,,,151119,,*1E
$GPGGA,153637.1,3443.4910,N,08633.1305,W,1,,,234.8,M,,M,,*72
$GPRMC,153637.1,A,3443.4910,N,08633.1305,W,,,151119,,*1C
$GPGGA,153707.1,3443.4908,N,08633.1306,W,1,,,235.4,M,,M,,*77
$GPRMC,153707.1,A,3443.4908,N,08633.1306,W,,,151119,,*14
$GPGGA,153737.1,3443.4906,N,08633.1306,W,1,,,235.6,M,,M,,*78
$GPRMC,153737.1,A,3443.4906,N,08633.1306,W,,,151119,,*19
$GPGGA,153807.0,3443.4906,N,08633.1308,W,1,,,236.4,M,,M,,*7A
$GPRMC,153807.0,A,3443.4906,N,08633.1308,W,,,151119,,*1A
$GPGGA,153837.1,3443.4905,N,08633.1308,W,1,,,235.6,M,,M,,*7A
$GPRMC,153837.1,A,3443.4905,N,08633.1308,W,,,151119,,*1B
$GPGGA,153907.0,3443.4904,N,08633.1309,W,1,,,235.8,M,,M,,*77
$GPRMC,153907.0,A,3443.4904,N,08633.1309,W,,,151119,,*18
$GPGGA,153937.1,3443.4904,N,08633.1309,W,1,,,235.5,M,,M,,*78
$GPRMC,153937.1,A,3443.4904,N,08633.1309,W,,,151119,,*1A
$GPGGA,154007.1,3443.4900,N,08633.1303,W,1,,,236.1,M,,M,,*7C
$GPRMC,154007.1,A,3443.4900,N,08633.1303,W,,,151119,,*19
$GPGGA,154037.1,3443.4899,N,08633.1305,W,1,,,237.2,M,,M,,*7A
$GPRMC,154037.1,A,3443.4899,N,08633.1305,W,,,151119,,*1D
$GPGGA,154107.0,3443.4899,N,08633.1305,W,1,,,236.7,M,,M,,*7D
$GPRMC,154107.0,A,3443.4899,N,08633.1305,W,,,151119,,*1E
$GPGGA,154137.1,3443.4898,N,08633.1306,W,1,,,236.9,M,,M,,*73
$GPRMC,154137.1,A,3443.4898,N,08633.1306,W,,,151119,,*1E
$GPGGA,154207.0,3443.4899,N,08633.1307,W,1,,,236.8,M,,M,,*73
$GPRMC,154207.0,A,3443.4899,N,08633.1307,W,,,151119,,*1F
$GPGGA,154237.0,3443.4899,N,08633.1307,W,1,,,236.1,M,,M,,*79
$GPRMC,154237.0,A,3443.4899,N,08633.1307,W,,,151119,,*1C
$GPGGA,154307.1,3443.4900,N,08633.1307,W,1,,,235.6,M,,M,,*7F
$GPRMC,154307.1,A,3443.4900,N,08633.1307,W,,,151119,,*1E
$GPGGA,154337.1,3443.4900,N,08633.1307,W,1,,,235.6,M,,M,,*7C
$GPRMC,154337.1,A,3443.4900,N,08633.1307,W,,,151119,,*1D
$GPGGA,154407.1,3443.4900,N,08633.1307,W,1,,,235.5,M,,M,,*7B
$GPRMC,154407.1,A,3443.4900,N,08633.1307,W,,,151119,,*19
$GPGGA,154437.1,3443.4899,N,08633.1308,W,1,,,235.5,M,,M,,*76
$GPRMC,154437.1,A,3443.4899,N,08633.1308,W,,,151119,,*14
$GPGGA,154507.0,3443.4899,N,08633.1308,W,1,,,235.6,M,,M,,*76
$GPRMC,154507.0,A,3443.4899,N,08633.1308,W,,,151119,,*17
$GPGGA,154537.0,3443.4899,N,08633.1308,W,1,,,236.0,M,,M,,*70
$GPRMC,154537.0,A,3443.4899,N,08633.1308,W,,,151119,,*14
$GPGGA,154607.0,3443.4899,N,08633.1308,W,1,,,235.8,M,,M,,*7B
$GPRMC,154607.0,A,3443.4899,N,08633.1308,W,,,151119,,*14
$GPGGA,154637.0,3443.4896,N,08633.1312,W,1,,,235.7,M,,M,,*73
$GPRMC,154637.0,A,3443.4896,N,08633.1312,W,,,151119,,*13
$GPGGA,154707.0,3443.4883,N,08633.1348,W,1,,,240.4,M,,M,,*7B
$GPRMC,154707.0,A,3443.4883,N,08633.1348,W,,,151119,,*1A
$GPGGA,154737.1,3443.4883,N,08633.1348,W,1,,,240.3,M,,M,,*7E
$GPRMC,154737.1,A,3443.4883,N,08633.1348,W,,,151119,,*18
$GPGGA,154807.0,3443.4882,N,08633.1348,W,1,,,239.0,M,,M,,*7F
$GPRMC,154807.0,A,3443.4882,N,08633.1348,W,,,151119,,*14
$GPGGA,154837.1,3443.4881,N,08633.1347,W,1,,,239.4,M,,M,,*75
$GPRMC,154837.1,A,3443.4881,N,08633.1347,W,,,151119,,*1A
$GPGGA,154907.1,3443.4876,N,08633.1343,W,1,,,241.9,M,,M,,*79
$GPRMC,154907.1,A,3443.4876,N,08633.1343,W,,,151119,,*14
$GPGGA,154937.0,3443.4877,N,08633.1342,W,1,,,239.6,M,,M,,*7B
$GPRMC,154937.0,A,3443.4877,N,08633.1342,W,,,151119,,*16
$GPGGA,155007.1,3443.4879,N,08633.1341,W,1,,,238.0,M,,M,,*7B
$GPRMC,155007.1,A,3443.4879,N,08633.1341,W,,,151119,,*11
$GPGGA,155037.1,3443.4880,N,08633.1338,W,1,,,236.8,M,,M,,*76
$GPRMC,155037.1,A,3443.4880,N,08633.1338,W,,,151119,,*1A
$GPGGA,155107.0,3443.4881,N,08633.1334,W,1,,,235.2,M,,M,,*71
$GPRMC,155107.0,A,3443.4881,N,08633.1334,W,,,151119,,*14
$GPGGA,155137.1,3443.4857,N,08633.1340,W,1,,,241.1,M,,M,,*7B
$GPRMC,155137.1,A,3443.4857,N,08633.1340,W,,,151119,,*1E
$GPGGA,155207.1,3443.4857,N,08633.1340,W,1,,,240.3,M,,M,,*78
$GPRMC,155207.1,A,3443.4857,N,08633.1340,W,,,151119,,*1E
$GPGGA,155237.1,3443.4857,N,08633.1338,W,1,,,248.0,M,,M,,*7F
$GPRMC,155237.1,A,3443.4857,N,08633.1338,W,,,151119,,*12
$GPGGA,155307.1,3443.4857,N,08633.1334,W,1,,,247.8,M,,M,,*76
$GPRMC,155307.1,A,3443.4857,N,08633.1334,W,,,151119,,*1C
$GPGGA,155337.1,3443.4857,N,08633.1331,W,1,,,246.3,M,,M,,*7A
$GPRMC,155337.1,A,3443.4857,N,08633.1331,W,,,151119,,*1A
$GPGGA,155407.1,3443.4858,N,08633.1328,W,1,,,246.0,M,,M,,*7A
$GPRMC,155407.1,A,3443.4858,N,08633.1328,W,,,151119,,*19
$GPGGA,155437.1,3443.4857,N,08633.1325,W,1,,,247.8,M,,M,,*72
$GPRMC,155437.1,A,3443.4857,N,08633.1325,W,,,151119,,*18
$GPGGA,155507.1,3443.4852,N,08633.1322,W,1,,,249.9,M,,M,,*7D
$GPRMC,155507.1,A,3443.4852,N,08633.1322,W,,,151119,,*18
$GPGGA,155537.1,3443.4853,N,08633.1319,W,1,,,250.1,M,,M,,*77
$GPRMC,155537.1,A,3443.4853,N,08633.1319,W,,,151119,,*12
$GPGGA,155607.1,3443.4851,N,08633.1313,W,1,,,251.3,M,,M,,*7C
$GPRMC,155607.1,A,3443.4851,N,08633.1313,W,,,151119,,*1A
$GPGGA,155637.1,3443.4850,N,08633.1310,W,1,,,251.3,M,,M,,*7D
$GPRMC,155637.1,A,3443.4850,N,08633.1310,W,,,151119,,*1B
$GPGGA,155707.1,3443.4851,N,08633.1308,W,1,,,251.0,M,,M,,*74
$GPRMC,155707.1,A,3443.4851,N,08633.1308,W,,,151119,,*11
$GPGGA,155737.1,3443.4852,N,08633.1308,W,1,,,250.4,M,,M,,*71
$GPRMC,155737.1,A,3443.4852,N,08633.1308,W,,,151119,,*11
$GPGGA,155807.1,3443.4853,N,08633.1307,W,1,,,249.8,M,,M,,*77
$GPRMC,155807.1,A,3443.4853,N,08633.1307,W,,,151119,,*13
$GPGGA,155837.1,3443.4854,N,08633.1307,W,1,,,249.4,M,,M,,*7F
$GPRMC,155837.1,A,3443.4854,N,08633.1307,W,,,151119,,*17
$GPGGA,155907.1,3443.4854,N,08633.1308,W,1,,,249.7,M,,M,,*71
$GPRMC,155907.1,A,3443.4854,N,08633.1308,W,,,151119,,*1A
$GPGGA,155937.1,3443.4857,N,08633.1305,W,1,,,248.0,M,,M,,*7A
$GPRMC,155937.1,A,3443.4857,N,08633.1305,W,,,151119,,*17
$GPGGA,160007.1,3443.4858,N,08633.1306,W,1,,,247.6,M,,M,,*73
$GPRMC,160007.1,A,3443.4858,N,08633.1306,W,,,151119,,*17
$GPGGA,160037.1,3443.4865,N,08633.1309,W,1,,,246.6,M,,M,,*70
$GPRMC,160037.1,A,3443.4865,N,08633.1309,W,,,151119,,*15
$GPGGA,160107.1,3443.4865,N,08633.1303,W,1,,,246.2,M,,M,,*7C
$GPRMC,160107.1,A,3443.4865,N,08633.1303,W,,,151119,,*1D
$GPGGA,160137.1,3443.4878,N,08633.1287,W,1,,,238.0,M,,M,,*75
$GPRMC,160137.1,A,3443.4878,N,08633.1287,W,,,151119,,*1F
$GPGGA,160207.1,3443.4885,N,08633.1285,W,1,,,232.2,M,,M,,*7D
$GPRMC,160207.1,A,3443.4885,N,08633.1285,W,,,151119,,*1F
$GPGGA,160237.0,3443.4887,N,08633.1284,W,1,,,222.8,M,,M,,*77
$GPRMC,160237.0,A,3443.4887,N,08633.1284,W,,,151119,,*1E
$GPGGA,160307.1,3443.4889,N,08633.1283,W,1,,,219.1,M,,M,,*7C
$GPRMC,160307.1,A,3443.4889,N,08633.1283,W,,,151119,,*14
$GPGGA,160337.1,3443.4889,N,08633.1283,W,1,,,220.4,M,,M,,*70
$GPRMC,160337.1,A,3443.4889,N,08633.1283,W,,,151119,,*17
$GPGGA,160407.0,3443.4890,N,08633.1282,W,1,,,217.5,M,,M,,*79
$GPRMC,160407.0,A,3443.4890,N,08633.1282,W,,,151119,,*1B
$GPGGA,160437.1,3443.4891,N,08633.1282,W,1,,,217.7,M,,M,,*78
$GPRMC,160437.1,A,3443.4891,N,08633.1282,W,,,151119,,*18
$GPGGA,160507.1,3443.4891,N,08633.1282,W,1,,,217.1,M,,M,,*7C
$GPRMC,160507.1,A,3443.4891,N,08633.1282,W,,,151119,,*1A
$GPGGA,160537.1,3443.4891,N,08633.1283,W,1,,,216.9,M,,M,,*77
$GPRMC,160537.1,A,3443.4891,N,08633.1283,W,,,151119,,*18
$GPGGA,160607.1,3443.4891,N,08633.1282,W,1,,,216.3,M,,M,,*7C
$GPRMC,160607.1,A,3443.4891,N,08633.1282,W,,,151119,,*19
$GPGGA,160637.1,3443.4892,N,08633.1282,W,1,,,215.1,M,,M,,*7D
$GPRMC,160637.1,A,3443.4892,N,08633.1282,W,,,151119,,*19
$GPGGA,160707.1,3443.4891,N,08633.1283,W,1,,,215.3,M,,M,,*7F
$GPRMC,160707.1,A,3443.4891,N,08633.1283,W,,,151119,,*19
$GPGGA,160737.1,3443.4891,N,08633.1283,W,1,,,215.5,M,,M,,*7A
$GPRMC,160737.1,A,3443.4891,N,08633.1283,W,,,151119,,*1A
$GPGGA,160807.1,3443.4891,N,08633.1283,W,1,,,217.2,M,,M,,*73
$GPRMC,160807.1,A,3443.4891,N,08633.1283,W,,,151119,,*16
$GPGGA,160837.0,3443.4891,N,08633.1284,W,1,,,217.2,M,,M,,*76
$GPRMC,160837.0,A,3443.4891,N,08633.1284,W,,,151119,,*13
$GPGGA,160907.1,3443.4891,N,08633.1284,W,1,,,217.6,M,,M,,*71
$GPRMC,160907.1,A,3443.4891,N,08633.1284,W,,,151119,,*10
$GPGGA,160937.0,3443.4891,N,08633.1284,W,1,,,216.6,M,,M,,*72
$GPRMC,160937.0,A,3443.4891,N,08633.1284,W,,,151119,,*12
$GPGGA,161007.1,3443.4892,N,08633.1283,W,1,,,218.2,M,,M,,*76
$GPRMC,161007.1,A,3443.4892,N,08633.1283,W,,,151119,,*1C
$GPGGA,161037.1,3443.4891,N,08633.1284,W,1,,,224.5,M,,M,,*79
$GPRMC,161037.1,A,3443.4891,N,08633.1284,W,,,151119,,*1B
$GPGGA,161107.1,3443.4891,N,08633.1284,W,1,,,228.0,M,,M,,*72
$GPRMC,161107.1,A,3443.4891,N,08633.1284,W,,,151119,,*19
$GPGGA,161137.1,3443.4890,N,08633.1286,W,1,,,231.0,M,,M,,*7A
$GPRMC,161137.1,A,3443.4890,N,08633.1286,W,,,151119,,*19
$GPGGA,161207.1,3443.4888,N,08633.1290,W,1,,,234.6,M,,M,,*77
$GPRMC,161207.1,A,3443.4888,N,08633.1290,W,,,151119,,*17
$GPGGA,161237.1,3443.4888,N,08633.1292,W,1,,,235.9,M,,M,,*78
$GPRMC,161237.1,A,3443.4888,N,08633.1292,W,,,151119,,*16
$GPGGA,161307.1,3443.4888,N,08633.1293,W,1,,,233.7,M,,M,,*73
$GPRMC,161307.1,A,3443.4888,N,08633.1293,W,,,151119,,*15
$GPGGA,161337.1,3443.4889,N,08633.1293,W,1,,,232.7,M,,M,,*70
$GPRMC,161337.1,A,3443.4889,N,08633.1293,W,,,151119,,*17
$GPGGA,161407.0,3443.4889,N,08633.1295,W,1,,,230.3,M,,M,,*75
$GPRMC,161407.0,A,3443.4889,N,08633.1295,W,,,151119,,*14
$GPGGA,161437.1,3443.4888,N,08633.1296,W,1,,,230.1,M,,M,,*77
$GPRMC,161437.1,A,3443.4888,N,08633.1296,W,,,151119,,*14
$GPGGA,161507.1,3443.4887,N,08633.1298,W,1,,,233.5,M,,M,,*73
$GPRMC,161507.1,A,3443.4887,N,08633.1298,W,,,151119,,*17
$GPGGA,161537.1,3443.4884,N,08633.1300,W,1,,,235.5,M,,M,,*75
$GPRMC,161537.1,A,3443.4884,N,08633.1300,W,,,151119,,*17
$GPGGA,161607.1,3443.4883,N,08633.1300,W,1,,,237.1,M,,M,,*74
$GPRMC,161607.1,A,3443.4883,N,08633.1300,W,,,151119,,*10
$GPGGA,161637.1,3443.4881,N,08633.1302,W,1,,,238.7,M,,M,,*7E
$GPRMC,161637.1,A,3443.4881,N,08633.1302,W,,,151119,,*13
$GPGGA,161707.1,3443.4880,N,08633.1302,W,1,,,237.1,M,,M,,*74
$GPRMC,161707.1,A,3443.4880,N,08633.1302,W,,,151119,,*10
$GPGGA,161737.1,3443.4881,N,08633.1303,W,1,,,233.8,M,,M,,*7A
$GPRMC,161737.1,A,3443.4881,N,08633.1303,W,,,151119,,*13
$GPGGA,161807.1,3443.4882,N,08633.1306,W,1,,,230.9,M,,M,,*72
$GPRMC,161807.1,A,3443.4882,N,08633.1306,W,,,151119,,*19
$GPGGA,161837.1,3443.4881,N,08633.1309,W,1,,,230.2,M,,M,,*76
$GPRMC,161837.1,A,3443.4881,N,08633.1309,W,,,151119,,*16
$GPGGA,161907.0,3443.4883,N,08633.1310,W,1,,,227.7,M,,M,,*7C
$GPRMC,161907.0,A,3443.4883,N,08633.1310,W,,,151119,,*1F
$GPGGA,161937.1,3443.4885,N,08633.1309,W,1,,,225.3,M,,M,,*76
$GPRMC,161937.1,A,3443.4885,N,08633.1309,W,,,151119,,*13
$GPGGA,162007.1,3443.4885,N,08633.1311,W,1,,,224.6,M,,M,,*72
$GPRMC,162007.1,A,3443.4885,N,08633.1311,W,,,151119,,*13
$GPGGA,162037.0,3443.4887,N,08633.1312,W,1,,,222.7,M,,M,,*76
$GPRMC,162037.0,A,3443.4887,N,08633.1312,W,,,151119,,*10
$GPGGA,162107.1,3443.4888,N,08633.1312,W,1,,,220.6,M,,M,,*79
$GPRMC,162107.1,A,3443.4888,N,08633.1312,W,,,151119,,*1C
$GPGGA,162137.1,3443.4888,N,08633.1311,W,1,,,220.2,M,,M,,*7D
$GPRMC,162137.1,A,3443.4888,N,08633.1311,W,,,151119,,*1C
$GPGGA,162207.1,3443.4887,N,08633.1309,W,1,,,219.9,M,,M,,*7A
$GPRMC,162207.1,A,3443.4887,N,08633.1309,W,,,151119,,*1A
$GPGGA,162237.1,3443.4887,N,08633.1309,W,1,,,219.3,M,,M,,*73
$GPRMC,162237.1,A,3443.4887,N,08633.1309,W,,,151119,,*19
$GPGGA,162307.1,3443.4888,N,08633.1307,W,1,,,219.0,M,,M,,*73
$GPRMC,162307.1,A,3443.4888,N,08633.1307,W,,,151119,,*1A
$GPGGA,162337.1,3443.4887,N,08633.1308,W,1,,,219.1,M,,M,,*71
$GPRMC,162337.1,A,3443.4887,N,08633.1308,W,,,151119,,*19
$GPGGA,162407.1,3443.4888,N,08633.1308,W,1,,,218.6,M,,M,,*7C
$GPRMC,162407.1,A,3443.4888,N,08633.1308,W,,,151119,,*12
$GPGGA,162437.1,3443.4889,N,08633.1307,W,1,,,218.0,M,,M,,*77
$GPRMC,162437.1,A,3443.4889,N,08633.1307,W,,,151119,,*1F
$GPGGA,162507.1,3443.4889,N,08633.1307,W,1,,,217.6,M,,M,,*7C
$GPRMC,162507.1,A,3443.4889,N,08633.1307,W,,,151119,,*1D
$GPGGA,162537.1,3443.4889,N,08633.1307,W,1,,,217.6,M,,M,,*7F
$GPRMC,162537.1,A,3443.4889,N,08633.1307,W,,,151119,,*1E
$GPGGA,162607.1,3443.4888,N,08633.1308,W,1,,,218.0,M,,M,,*78
$GPRMC,162607.1,A,3443.4888,N,08633.1308,W,,,151119,,*10
$GPGGA,162637.1,3443.4888,N,08633.1309,W,1,,,218.1,M,,M,,*7B
$GPRMC,162637.1,A,3443.4888,N,08633.1309,W,,,151119,,*12
$GPGGA,162707.1,3443.4888,N,08633.1309,W,1,,,218.1,M,,M,,*79
$GPRMC,162707.1,A,3443.4888,N,08633.1309,W,,,151119,,*10
$GPGGA,162737.1,3443.4888,N,08633.1310,W,1,,,218.3,M,,M,,*70
$GPRMC,162737.1,A,3443.4888,N,08633.1310,W,,,151119,,*1B
$GPGGA,162807.1,3443.4888,N,08633.1311,W,1,,,218.2,M,,M,,*7C
$GPRMC,162807.1,A,3443.4888,N,08633.1311,W,,,151119,,*16
$GPGGA,162837.1,3443.4887,N,08633.1312,W,1,,,218.7,M,,M,,*76
$GPRMC,162837.1,A,3443.4887,N,08633.1312,W,,,151119,,*19
$GPGGA,162907.1,3443.4890,N,08633.1310,W,1,,,217.5,M,,M,,*7D
$GPRMC,162907.1,A,3443.4890,N,08633.1310,W,,,151119,,*1F
$GPGGA,162937.1,3443.4890,N,08633.1310,W,1,,,217.6,M,,M,,*7D
$GPRMC,162937.1,A,3443.4890,N,08633.1310,W,,,151119,,*1C
$GPGGA,163007.1,3443.4890,N,08633.1310,W,1,,,217.5,M,,M,,*75
$GPRMC,163007.1,A,3443.4890,N,08633.1310,W,,,151119,,*17
$GPGGA,163037.1,3443.4890,N,08633.1310,W,1,,,217.6,M,,M,,*75
$GPRMC,163037.1,A,3443.4890,N,08633.1310,W,,,151119,,*14
$GPGGA,163107.1,3443.4888,N,08633.1313,W,1,,,218.3,M,,M,,*77
$GPRMC,163107.1,A,3443.4888,N,08633.1313,W,,,151119,,*1C
$GPGGA,163137.1,3443.4887,N,08633.1315,W,1,,,218.1,M,,M,,*7F
$GPRMC,163137.1,A,3443.4887,N,08633.1315,W,,,151119,,*16
$GPGGA,163207.0,3443.4888,N,08633.1315,W,1,,,217.7,M,,M,,*78
$GPRMC,163207.0,A,3443.4888,N,08633.1315,W,,,151119,,*18
$GPGGA,163237.1,3443.4887,N,08633.1315,W,1,,,217.6,M,,M,,*74
$GPRMC,163237.1,A,3443.4887,N,08633.1315,W,,,151119,,*15
$GPGGA,163307.1,3443.4887,N,08633.1315,W,1,,,217.3,M,,M,,*73
$GPRMC,163307.1,A,3443.4887,N,08633.1315,W,,,151119,,*17
$GPGGA,163337.1,3443.4888,N,08633.1315,W,1,,,217.3,M,,M,,*7F
$GPRMC,163337.1,A,3443.4888,N,08633.1315,W,,,151119,,*1B
$GPGGA,163407.1,3443.4888,N,08633.1315,W,1,,,217.3,M,,M,,*7B
$GPRMC,163407.1,A,3443.4888,N,08633.1315,W,,,151119,,*1F
$GPGGA,163437.1,3443.4886,N,08633.1316,W,1,,,218.4,M,,M,,*7D
$GPRMC,163437.1,A,3443.4886,N,08633.1316,W,,,151119,,*11
$GPGGA,163507.1,3443.4884,N,08633.1316,W,1,,,219.7,M,,M,,*7F
$GPRMC,163507.1,A,3443.4884,N,08633.1316,W,,,151119,,*11
$GPGGA,163537.1,3443.4881,N,08633.1318,W,1,,,221.1,M,,M,,*7A
$GPRMC,163537.1,A,3443.4881,N,08633.1318,W,,,151119,,*19
$GPGGA,163607.1,3443.4878,N,08633.1319,W,1,,,222.4,M,,M,,*7B
$GPRMC,163607.1,A,3443.4878,N,08633.1319,W,,,151119,,*1E
$GPGGA,163637.1,3443.4876,N,08633.1319,W,1,,,223.3,M,,M,,*70
$GPRMC,163637.1,A,3443.4876,N,08633.1319,W,,,151119,,*13
$GPGGA,163707.1,3443.4876,N,08633.1319,W,1,,,223.2,M,,M,,*73
$GPRMC,163707.1,A,3443.4876,N,08633.1319,W,,,151119,,*11
$GPGGA,163737.1,3443.4875,N,08633.1320,W,1,,,223.1,M,,M,,*7A
$GPRMC,163737.1,A,3443.4875,N,08633.1320,W,,,151119,,*1B
$GPGGA,163807.1,3443.4875,N,08633.1320,W,1,,,223.2,M,,M,,*75
$GPRMC,163807.1,A,3443.4875,N,08633.1320,W,,,151119,,*17
$GPGGA,163837.1,3443.4871,N,08633.1326,W,1,,,223.2,M,,M,,*74
$GPRMC,163837.1,A,3443.4871,N,08633.1326,W,,,151119,,*16
$GPGGA,163907.1,3443.4871,N,08633.1326,W,1,,,223.6,M,,M,,*72
$GPRMC,163907.1,A,3443.4871,N,08633.1326,W,,,151119,,*14
$GPGGA,163937.1,3443.4870,N,08633.1327,W,1,,,223.8,M,,M,,*7F
$GPRMC,163937.1,A,3443.4870,N,08633.1327,W,,,151119,,*17
$GPGGA,164007.1,3443.4870,N,08633.1328,W,1,,,224.2,M,,M,,*70
$GPRMC,164007.1,A,3443.4870,N,08633.1328,W,,,151119,,*15
$GPGGA,164037.1,3443.4869,N,08633.1329,W,1,,,224.9,M,,M,,*71
$GPRMC,164037.1,A,3443.4869,N,08633.1329,W,,,151119,,*1F
$GPGGA,164107.1,3443.4869,N,08633.1329,W,1,,,224.9,M,,M,,*73
$GPRMC,164107.1,A,3443.4869,N,08633.1329,W,,,151119,,*1D
$GPGGA,164137.1,3443.4869,N,08633.1329,W,1,,,224.9,M,,M,,*70
$GPRMC,164137.1,A,3443.4869,N,08633.1329,W,,,151119,,*1E
$GPGGA,164207.1,3443.4869,N,08633.1329,W,1,,,225.1,M,,M,,*79
$GPRMC,164207.1,A,3443.4869,N,08633.1329,W,,,151119,,*1E
$GPGGA,164237.1,3443.4869,N,08633.1330,W,1,,,225.3,M,,M,,*70
$GPRMC,164237.1,A,3443.4869,N,08633.1330,W,,,151119,,*15
$GPGGA,164307.1,3443.4869,N,08633.1330,W,1,,,225.6,M,,M,,*77
$GPRMC,164307.1,A,3443.4869,N,08633.1330,W,,,151119,,*17
$GPGGA,164337.1,3443.4869,N,08633.1330,W,1,,,225.9,M,,M,,*7B
$GPRMC,164337.1,A,3443.4869,N,08633.1330,W,,,151119,,*14
$GPGGA,164407.1,3443.4868,N,08633.1331,W,1,,,226.2,M,,M,,*77
$GPRMC,164407.1,A,3443.4868,N,08633.1331,W,,,151119,,*10
$GPGGA,164437.1,3443.4868,N,08633.1331,W,1,,,226.6,M,,M,,*70
$GPRMC,164437.1,A,3443.4868,N,08633.1331,W,,,151119,,*13
$GPGGA,164507.1,3443.4868,N,08633.1331,W,1,,,226.8,M,,M,,*7C
$GPRMC,164507.1,A,3443.4868,N,08633.1331,W,,,151119,,*11
$GPGGA,164537.1,3443.4874,N,08633.1316,W,1,,,227.5,M,,M,,*7B
$GPRMC,164537.1,A,3443.4874,N,08633.1316,W,,,151119,,*1A
$GPGGA,164607.1,3443.4875,N,08633.1318,W,1,,,230.2,M,,M,,*75
$GPRMC,164607.1,A,3443.4875,N,08633.1318,W,,,151119,,*15
$GPGGA,164637.1,3443.4875,N,08633.1309,W,1,,,231.7,M,,M,,*72
$GPRMC,164637.1,A,3443.4875,N,08633.1309,W,,,151119,,*16
$GPGGA,164707.1,3443.4875,N,08633.1310,W,1,,,234.8,M,,M,,*72
$GPRMC,164707.1,A,3443.4875,N,08633.1310,W,,,151119,,*1C
$GPGGA,164737.1,3443.4878,N,08633.1317,W,1,,,238.7,M,,M,,*78
$GPRMC,164737.1,A,3443.4878,N,08633.1317,W,,,151119,,*15
$GPGGA,164807.1,3443.4879,N,08633.1308,W,1,,,236.4,M,,M,,*76
$GPRMC,164807.1,A,3443.4879,N,08633.1308,W,,,151119,,*16
$GPGGA,164837.1,3443.4878,N,08633.1313,W,1,,,235.4,M,,M,,*7D
$GPRMC,164837.1,A,3443.4878,N,08633.1313,W,,,151119,,*1E
$GPGGA,164907.1,3443.4877,N,08633.1315,W,1,,,236.7,M,,M,,*76
$GPRMC,164907.1,A,3443.4877,N,08633.1315,W,,,151119,,*15
$GPGGA,164937.1,3443.4877,N,08633.1316,W,1,,,236.3,M,,M,,*72
$GPRMC,164937.1,A,3443.4877,N,08633.1316,W,,,151119,,*15
$GPGGA,165007.1,3443.4876,N,08633.1317,W,1,,,235.3,M,,M,,*7A
$GPRMC,165007.1,A,3443.4876,N,08633.1317,W,,,151119,,*1E
$GPGGA,165037.1,3443.4876,N,08633.1318,W,1,,,235.0,M,,M,,*75
$GPRMC,165037.1,A,3443.4876,N,08633.1318,W,,,151119,,*12
$GPGGA,165107.1,3443.4875,N,08633.1319,W,1,,,233.9,M,,M,,*7A
$GPRMC,165107.1,A,3443.4875,N,08633.1319,W,,,151119,,*12
$GPGGA,165137.1,3443.4849,N,08633.1348,W,1,,,235.9,M,,M,,*74
$GPRMC,165137.1,A,3443.4849,N,08633.1348,W,,,151119,,*1A
$GPGGA,165207.1,3443.4847,N,08633.1352,W,1,,,246.3,M,,M,,*7F
$GPRMC,165207.1,A,3443.4847,N,08633.1352,W,,,151119,,*1F
$GPGGA,165237.1,3443.4846,N,08633.1352,W,1,,,246.3,M,,M,,*7D
$GPRMC,165237.1,A,3443.4846,N,08633.1352,W,,,151119,,*1D
$GPGGA,165307.1,3443.4844,N,08633.1354,W,1,,,240.1,M,,M,,*7F
$GPRMC,165307.1,A,3443.4844,N,08633.1354,W,,,151119,,*1B
$GPGGA,165337.1,3443.4842,N,08633.1355,W,1,,,228.4,M,,M,,*70
$GPRMC,165337.1,A,3443.4842,N,08633.1355,W,,,151119,,*1F
$GPGGA,165407.1,3443.4841,N,08633.1355,W,1,,,227.6,M,,M,,*7A
$GPRMC,165407.1,A,3443.4841,N,08633.1355,W,,,151119,,*18
$GPGGA,165437.1,3443.4841,N,08633.1352,W,1,,,228.1,M,,M,,*76
$GPRMC,165437.1,A,3443.4841,N,08633.1352,W,,,151119,,*1C
$GPGGA,165507.1,3443.4842,N,08633.1350,W,1,,,227.5,M,,M,,*7E
$GPRMC,165507.1,A,3443.4842,N,08633.1350,W,,,151119,,*1F
$GPGGA,165537.1,3443.4842,N,08633.1349,W,1,,,227.3,M,,M,,*73
$GPRMC,165537.1,A,3443.4842,N,08633.1349,W,,,151119,,*14
$GPGGA,165607.1,3443.4842,N,08633.1349,W,1,,,227.3,M,,M,,*73
$GPRMC,165607.1,A,3443.4842,N,08633.1349,W,,,151119,,*14
$GPGGA,165637.1,3443.4842,N,08633.1348,W,1,,,227.4,M,,M,,*76
$GPRMC,165637.1,A,3443.4842,N,08633.1348,W,,,151119,,*16
$GPGGA,165707.1,3443.4844,N,08633.1346,W,1,,,227.8,M,,M,,*70
$GPRMC,165707.1,A,3443.4844,N,08633.1346,W,,,151119,,*1C
$GPGGA,165737.1,3443.4845,N,08633.1344,W,1,,,227.1,M,,M,,*79
$GPRMC,165737.1,A,3443.4845,N,08633.1344,W,,,151119,,*1C
$GPGGA,165807.2,3443.4847,N,08633.1342,W,1,,,226.3,M,,M,,*71
$GPRMC,165807.2,A,3443.4847,N,08633.1342,W,,,151119,,*17
$GPGGA,165837.1,3443.4845,N,08633.1341,W,1,,,226.5,M,,M,,*76
$GPRMC,165837.1,A,3443.4845,N,08633.1341,W,,,151119,,*16
$GPGGA,165907.1,3443.4847,N,08633.1340,W,1,,,226.3,M,,M,,*71
$GPRMC,165907.1,A,3443.4847,N,08633.1340,W,,,151119,,*17
$GPGGA,165937.1,3443.4849,N,08633.1339,W,1,,,226.1,M,,M,,*70
$GPRMC,165937.1,A,3443.4849,N,08633.1339,W,,,151119,,*14
$GPGGA,170007.0,3443.4850,N,08633.1339,W,1,,,225.7,M,,M,,*72
$GPRMC,170007.0,A,3443.4850,N,08633.1339,W,,,151119,,*13
$GPGGA,170037.1,3443.4852,N,08633.1338,W,1,,,225.5,M,,M,,*71
$GPRMC,170037.1,A,3443.4852,N,08633.1338,W,,,151119,,*12
$GPGGA,170107.1,3443.4853,N,08633.1337,W,1,,,224.8,M,,M,,*71
$GPRMC,170107.1,A,3443.4853,N,08633.1337,W,,,151119,,*1E
$GPGGA,170137.1,3443.4854,N,08633.1336,W,1,,,223.9,M,,M,,*72
$GPRMC,170137.1,A,3443.4854,N,08633.1336,W,,,151119,,*1B
$GPGGA,170207.1,3443.4854,N,08633.1335,W,1,,,223.8,M,,M,,*70
$GPRMC,170207.1,A,3443.4854,N,08633.1335,W,,,151119,,*18
$GPGGA,170237.0,3443.4865,N,08633.1351,W,1,,,224.4,M,,M,,*79
$GPRMC,170237.0,A,3443.4865,N,08633.1351,W,,,151119,,*1A
$GPGGA,170307.1,3443.4865,N,08633.1350,W,1,,,222.6,M,,M,,*7F
$GPRMC,170307.1,A,3443.4865,N,08633.1350,W,,,151119,,*18
$GPGGA,170337.1,3443.4866,N,08633.1351,W,1,,,222.3,M,,M,,*7B
$GPRMC,170337.1,A,3443.4866,N,08633.1351,W,,,151119,,*19
$GPGGA,170407.1,3443.4897,N,08633.1354,W,1,,,221.7,M,,M,,*73
$GPRMC,170407.1,A,3443.4897,N,08633.1354,W,,,151119,,*16
$GPGGA,170437.1,3443.4918,N,08633.1356,W,1,,,220.3,M,,M,,*71
$GPRMC,170437.1,A,3443.4918,N,08633.1356,W,,,151119,,*11
$GPGGA,170507.0,3443.4921,N,08633.1356,W,1,,,217.2,M,,M,,*7D
$GPRMC,170507.0,A,3443.4921,N,08633.1356,W,,,151119,,*18
$GPGGA,170537.1,3443.4920,N,08633.1359,W,1,,,225.3,M,,M,,*71
$GPRMC,170537.1,A,3443.4920,N,08633.1359,W,,,151119,,*14
$GPGGA,170607.1,3443.4892,N,08633.1349,W,1,,,227.7,M,,M,,*7E
$GPRMC,170607.1,A,3443.4892,N,08633.1349,W,,,151119,,*1D
$GPGGA,170637.1,3443.4879,N,08633.1343,W,1,,,230.6,M,,M,,*75
$GPRMC,170637.1,A,3443.4879,N,08633.1343,W,,,151119,,*11
$GPGGA,170707.0,3443.4881,N,08633.1335,W,1,,,232.2,M,,M,,*76
$GPRMC,170707.0,A,3443.4881,N,08633.1335,W,,,151119,,*14
$GPGGA,170737.1,3443.4877,N,08633.1348,W,1,,,239.4,M,,M,,*7A
$GPRMC,170737.1,A,3443.4877,N,08633.1348,W,,,151119,,*15
$GPGGA,170807.0,3443.4878,N,08633.1352,W,1,,,243.6,M,,M,,*7C
$GPRMC,170807.0,A,3443.4878,N,08633.1352,W,,,151119,,*1C
$GPGGA,170837.0,3443.4881,N,08633.1350,W,1,,,242.4,M,,M,,*78
$GPRMC,170837.0,A,3443.4881,N,08633.1350,W,,,151119,,*1B
$GPGGA,170907.0,3443.4883,N,08633.1349,W,1,,,243.3,M,,M,,*76
$GPRMC,170907.0,A,3443.4883,N,08633.1349,W,,,151119,,*13
$GPGGA,170937.0,3443.4885,N,08633.1347,W,1,,,243.5,M,,M,,*7B
$GPRMC,170937.0,A,3443.4885,N,08633.1347,W,,,151119,,*18
$GPGGA,171007.0,3443.4885,N,08633.1344,W,1,,,242.6,M,,M,,*71
$GPRMC,171007.0,A,3443.4885,N,08633.1344,W,,,151119,,*10
$GPGGA,171037.0,3443.4886,N,08633.1345,W,1,,,242.1,M,,M,,*77
$GPRMC,171037.0,A,3443.4886,N,08633.1345,W,,,151119,,*11
$GPGGA,171107.0,3443.4887,N,08633.1345,W,1,,,240.6,M,,M,,*71
$GPRMC,171107.0,A,3443.4887,N,08633.1345,W,,,151119,,*12
$GPGGA,171137.0,3443.4886,N,08633.1345,W,1,,,238.7,M,,M,,*7D
$GPRMC,171137.0,A,3443.4886,N,08633.1345,W,,,151119,,*10
$GPGGA,171207.0,3443.4885,N,08633.1344,W,1,,,235.8,M,,M,,*7D
$GPRMC,171207.0,A,3443.4885,N,08633.1344,W,,,151119,,*12
$GPGGA,171237.0,3443.4883,N,08633.1346,W,1,,,235.9,M,,M,,*7B
$GPRMC,171237.0,A,3443.4883,N,08633.1346,W,,,151119,,*15
$GPGGA,171307.0,3443.4882,N,08633.1346,W,1,,,234.8,M,,M,,*78
$GPRMC,171307.0,A,3443.4882,N,08633.1346,W,,,151119,,*16
$GPGGA,171337.0,3443.4882,N,08633.1346,W,1,,,232.8,M,,M,,*7D
$GPRMC,171337.0,A,3443.4882,N,08633.1346,W,,,151119,,*15
$GPGGA,171407.1,3443.4881,N,08633.1347,W,1,,,232.5,M,,M,,*77
$GPRMC,171407.1,A,3443.4881,N,08633.1347,W,,,151119,,*12
$GPGGA,171437.1,3443.4881,N,08633.1346,W,1,,,232.6,M,,M,,*76
$GPRMC,171437.1,A,3443.4881,N,08633.1346,W,,,151119,,*10
$GPGGA,171507.1,3443.4879,N,08633.1345,W,1,,,232.9,M,,M,,*7F
$GPRMC,171507.1,A,3443.4879,N,08633.1345,W,,,151119,,*16
$GPGGA,171537.1,3443.4878,N,08633.1343,W,1,,,233.0,M,,M,,*73
$GPRMC,171537.1,A,3443.4878,N,08633.1343,W,,,151119,,*12
$GPGGA,171607.1,3443.4877,N,08633.1342,W,1,,,232.8,M,,M,,*74
$GPRMC,171607.1,A,3443.4877,N,08633.1342,W,,,151119,,*1C
$GPGGA,171637.1,3443.4877,N,08633.1342,W,1,,,232.0,M,,M,,*7F
$GPRMC,171637.1,A,3443.4877,N,08633.1342,W,,,151119,,*1F
$GPGGA,171707.1,3443.4877,N,08633.1343,W,1,,,231.4,M,,M,,*7B
$GPRMC,171707.1,A,3443.4877,N,08633.1343,W,,,151119,,*1C
$GPGGA,171737.1,3443.4877,N,08633.1346,W,1,,,231.6,M,,M,,*7F
$GPRMC,171737.1,A,3443.4877,N,08633.1346,W,,,151119,,*1A
$GPGGA,171807.1,3443.4873,N,08633.1354,W,1,,,231.2,M,,M,,*70
$GPRMC,171807.1,A,3443.4873,N,08633.1354,W,,,151119,,*11
$GPGGA,171837.1,3443.4877,N,08633.1366,W,1,,,229.0,M,,M,,*7D
$GPRMC,171837.1,A,3443.4877,N,08633.1366,W,,,151119,,*17
$GPGGA,171907.1,3443.4877,N,08633.1366,W,1,,,229.1,M,,M,,*7E
$GPRMC,171907.1,A,3443.4877,N,08633.1366,W,,,151119,,*15
$GPGGA,171937.1,3443.4877,N,08633.1365,W,1,,,228.8,M,,M,,*76
$GPRMC,171937.1,A,3443.4877,N,08633.1365,W,,,151119,,*15
$GPGGA,172007.1,3443.4877,N,08633.1364,W,1,,,228.7,M,,M,,*71
$GPRMC,172007.1,A,3443.4877,N,08633.1364,W,,,151119,,*1D
$GPGGA,172037.1,3443.4876,N,08633.1365,W,1,,,228.3,M,,M,,*76
$GPRMC,172037.1,A,3443.4876,N,08633.1365,W,,,151119,,*1E
$GPGGA,172107.1,3443.4876,N,08633.1363,W,1,,,228.3,M,,M,,*72
$GPRMC,172107.1,A,3443.4876,N,08633.1363,W,,,151119,,*1A
$GPGGA,172137.1,3443.4876,N,08633.1360,W,1,,,228.1,M,,M,,*70
$GPRMC,172137.1,A,3443.4876,N,08633.1360,W,,,151119,,*1A
$GPGGA,172207.1,3443.4876,N,08633.1357,W,1,,,227.7,M,,M,,*7D
$GPRMC,172207.1,A,3443.4876,N,08633.1357,W,,,151119,,*1E
$GPGGA,172237.1,3443.4877,N,08633.1353,W,1,,,227.9,M,,M,,*75
$GPRMC,172237.1,A,3443.4877,N,08633.1353,W,,,151119,,*18
$GPGGA,172307.1,3443.4877,N,08633.1350,W,1,,,228.7,M,,M,,*75
$GPRMC,172307.1,A,3443.4877,N,08633.1350,W,,,151119,,*19
$GPGGA,172337.1,3443.4878,N,08633.1348,W,1,,,228.6,M,,M,,*71
$GPRMC,172337.1,A,3443.4878,N,08633.1348,W,,,151119,,*1C
$GPGGA,172407.1,3443.4878,N,08633.1347,W,1,,,228.2,M,,M,,*7E
$GPRMC,172407.1,A,3443.4878,N,08633.1347,W,,,151119,,*17
$GPGGA,172437.1,3443.4878,N,08633.1343,W,1,,,227.8,M,,M,,*7C
$GPRMC,172437.1,A,3443.4878,N,08633.1343,W,,,151119,,*10
$GPGGA,172507.1,3443.4878,N,08633.1339,W,1,,,226.9,M,,M,,*73
$GPRMC,172507.1,A,3443.4878,N,08633.1339,W,,,151119,,*1F
$GPGGA,172537.1,3443.4880,N,08633.1336,W,1,,,225.9,M,,M,,*7B
$GPRMC,172537.1,A,3443.4880,N,08633.1336,W,,,151119,,*14
$GPGGA,172607.1,3443.4881,N,08633.1334,W,1,,,225.7,M,,M,,*76
$GPRMC,172607.1,A,3443.4881,N,08633.1334,W,,,151119,,*17
$GPGGA,172637.1,3443.4882,N,08633.1333,W,1,,,225.9,M,,M,,*7F
$GPRMC,172637.1,A,3443.4882,N,08633.1333,W,,,151119,,*10
$GPGGA,172707.1,3443.4880,N,08633.1332,W,1,,,226.1,M,,M,,*75
$GPRMC,172707.1,A,3443.4880,N,08633.1332,W,,,151119,,*11
$GPGGA,172737.1,3443.4880,N,08633.1331,W,1,,,226.0,M,,M,,*74
$GPRMC,172737.1,A,3443.4880,N,08633.1331,W,,,151119,,*11
$GPGGA,172807.1,3443.4885,N,08633.1335,W,1,,,226.8,M,,M,,*71
$GPRMC,172807.1,A,3443.4885,N,08633.1335,W,,,151119,,*1C
$GPGGA,172837.1,3443.4886,N,08633.1334,W,1,,,222.0,M,,M,,*7C
$GPRMC,172837.1,A,3443.4886,N,08633.1334,W,,,151119,,*1D
$GPGGA,172907.1,3443.4887,N,08633.1332,W,1,,,217.1,M,,M,,*7E
$GPRMC,172907.1,A,3443.4887,N,08633.1332,W,,,151119,,*18
$GPGGA,172937.1,3443.4886,N,08633.1317,W,1,,,209.2,M,,M,,*77
$GPRMC,172937.1,A,3443.4886,N,08633.1317,W,,,151119,,*1D
$GPGGA,173007.1,3443.4885,N,08633.1304,W,1,,,196.7,M,,M,,*7D
$GPRMC,173007.1,A,3443.4885,N,08633.1304,W,,,151119,,*17
$GPGGA,173037.1,3443.4885,N,08633.1304,W,1,,,199.8,M,,M,,*7E
$GPRMC,173037.1,A,3443.4885,N,08633.1304,W,,,151119,,*14
$GPGGA,173107.1,3443.4884,N,08633.1303,W,1,,,201.4,M,,M,,*74
$GPRMC,173107.1,A,3443.4884,N,08633.1303,W,,,151119,,*10
$GPGGA,173137.1,3443.4883,N,08633.1300,W,1,,,203.0,M,,M,,*75
$GPRMC,173137.1,A,3443.4883,N,08633.1300,W,,,151119,,*17
$GPGGA,173207.1,3443.4884,N,08633.1297,W,1,,,201.9,M,,M,,*76
$GPRMC,173207.1,A,3443.4884,N,08633.1297,W,,,151119,,*1F
$GPGGA,173237.1,3443.4884,N,08633.1294,W,1,,,202.1,M,,M,,*7D
$GPRMC,173237.1,A,3443.4884,N,08633.1294,W,,,151119,,*1F
$GPGGA,173307.1,3443.4880,N,08633.1289,W,1,,,203.6,M,,M,,*71
$GPRMC,173307.1,A,3443.4880,N,08633.1289,W,,,151119,,*15
$GPGGA,173337.1,3443.4879,N,08633.1286,W,1,,,205.0,M,,M,,*7B
$GPRMC,173337.1,A,3443.4879,N,08633.1286,W,,,151119,,*1F
$GPGGA,173407.1,3443.4879,N,08633.1285,W,1,,,205.5,M,,M,,*79
$GPRMC,173407.1,A,3443.4879,N,08633.1285,W,,,151119,,*18
$GPGGA,173437.1,3443.4879,N,08633.1283,W,1,,,205.7,M,,M,,*7E
$GPRMC,173437.1,A,3443.4879,N,08633.1283,W,,,151119,,*1D
$GPGGA,173507.1,3443.4880,N,08633.1282,W,1,,,206.2,M,,M,,*7D
$GPRMC,173507.1,A,3443.4880,N,08633.1282,W,,,151119,,*18
$GPGGA,173537.1,3443.4880,N,08633.1282,W,1,,,206.3,M,,M,,*7F
$GPRMC,173537.1,A,3443.4880,N,08633.1282,W,,,151119,,*1B
$GPGGA,173607.1,3443.4881,N,08633.1281,W,1,,,205.5,M,,M,,*78
$GPRMC,173607.1,A,3443.4881,N,08633.1281,W,,,151119,,*19
$GPGGA,173637.2,3443.4881,N,08633.1279,W,1,,,204.8,M,,M,,*73
$GPRMC,173637.2,A,3443.4881,N,08633.1279,W,,,151119,,*1E
$GPGGA,173707.1,3443.4882,N,08633.1277,W,1,,,204.0,M,,M,,*77
$GPRMC,173707.1,A,3443.4882,N,08633.1277,W,,,151119,,*12
$GPGGA,173737.0,3443.4884,N,08633.1277,W,1,,,203.3,M,,M,,*77
$GPRMC,173737.0,A,3443.4884,N,08633.1277,W,,,151119,,*16
$GPGGA,173807.1,3443.4885,N,08633.1277,W,1,,,202.8,M,,M,,*71
$GPRMC,173807.1,A,3443.4885,N,08633.1277,W,,,151119,,*1A
$GPGGA,173837.1,3443.4883,N,08633.1267,W,1,,,202.4,M,,M,,*79
$GPRMC,173837.1,A,3443.4883,N,08633.1267,W,,,151119,,*1E
$GPGGA,173907.1,3443.4883,N,08633.1268,W,1,,,202.7,M,,M,,*77
$GPRMC,173907.1,A,3443.4883,N,08633.1268,W,,,151119,,*13
$GPGGA,173937.1,3443.4883,N,08633.1270,W,1,,,203.6,M,,M,,*7D
$GPRMC,173937.1,A,3443.4883,N,08633.1270,W,,,151119,,*19
$GPGGA,174007.1,3443.4888,N,08633.1271,W,1,,,200.9,M,,M,,*76
$GPRMC,174007.1,A,3443.4888,N,08633.1271,W,,,151119,,*1E
$GPGGA,174037.1,3443.4891,N,08633.1272,W,1,,,201.4,M,,M,,*72
$GPRMC,174037.1,A,3443.4891,N,08633.1272,W,,,151119,,*16
$GPGGA,174107.1,3443.4893,N,08633.1274,W,1,,,201.9,M,,M,,*79
$GPRMC,174107.1,A,3443.4893,N,08633.1274,W,,,151119,,*10
$GPGGA,174137.1,3443.4894,N,08633.1276,W,1,,,202.9,M,,M,,*7C
$GPRMC,174137.1,A,3443.4894,N,08633.1276,W,,,151119,,*16
$GPGGA,174207.1,3443.4895,N,08633.1277,W,1,,,203.9,M,,M,,*7D
$GPRMC,174207.1,A,3443.4895,N,08633.1277,W,,,151119,,*16
$GPGGA,174237.1,3443.4895,N,08633.1278,W,1,,,204.2,M,,M,,*7D
$GPRMC,174237.1,A,3443.4895,N,08633.1278,W,,,151119,,*1A
$GPGGA,174307.1,3443.4896,N,08633.1278,W,1,,,204.3,M,,M,,*7D
$GPRMC,174307.1,A,3443.4896,N,08633.1278,W,,,151119,,*1B
$GPGGA,174337.1,3443.4895,N,08633.1280,W,1,,,206.7,M,,M,,*7C
$GPRMC,174337.1,A,3443.4895,N,08633.1280,W,,,151119,,*1C
$GPGGA,174407.1,3443.4895,N,08633.1280,W,1,,,206.9,M,,M,,*76
$GPRMC,174407.1,A,3443.4895,N,08633.1280,W,,,151119,,*18
$GPGGA,174437.1,3443.4895,N,08633.1279,W,1,,,207.0,M,,M,,*7B
$GPRMC,174437.1,A,3443.4895,N,08633.1279,W,,,151119,,*1D
$GPGGA,174507.1,3443.4896,N,08633.1280,W,1,,,207.3,M,,M,,*7F
$GPRMC,174507.1,A,3443.4896,N,08633.1280,W,,,151119,,*1A
$GPGGA,174537.1,3443.4897,N,08633.1281,W,1,,,208.1,M,,M,,*71
$GPRMC,174537.1,A,3443.4897,N,08633.1281,W,,,151119,,*19
$GPGGA,174607.1,3443.4898,N,08633.1282,W,1,,,208.9,M,,M,,*75
$GPRMC,174607.1,A,3443.4898,N,08633.1282,W,,,151119,,*15
$GPGGA,174637.1,3443.4899,N,08633.1283,W,1,,,209.2,M,,M,,*7C
$GPRMC,174637.1,A,3443.4899,N,08633.1283,W,,,151119,,*16
$GPGGA,174707.0,3443.4901,N,08633.1283,W,1,,,209.0,M,,M,,*7D
$GPRMC,174707.0,A,3443.4901,N,08633.1283,W,,,151119,,*15
$GPGGA,174737.1,3443.4902,N,08633.1284,W,1,,,208.9,M,,M,,*73
$GPRMC,174737.1,A,3443.4902,N,08633.1284,W,,,151119,,*13
$GPGGA,174807.1,3443.4903,N,08633.1283,W,1,,,209.1,M,,M,,*70
$GPRMC,174807.1,A,3443.4903,N,08633.1283,W,,,151119,,*19
$GPGGA,174837.1,3443.4904,N,08633.1284,W,1,,,209.1,M,,M,,*73
$GPRMC,174837.1,A,3443.4904,N,08633.1284,W,,,151119,,*1A
$GPGGA,174907.1,3443.4905,N,08633.1284,W,1,,,208.9,M,,M,,*79
$GPRMC,174907.1,A,3443.4905,N,08633.1284,W,,,151119,,*19
$GPGGA,174937.1,3443.4905,N,08633.1285,W,1,,,208.9,M,,M,,*7B
$GPRMC,174937.1,A,3443.4905,N,08633.1285,W,,,151119,,*1B
$GPGGA,175007.1,3443.4905,N,08633.1285,W,1,,,209.1,M,,M,,*79
$GPRMC,175007.1,A,3443.4905,N,08633.1285,W,,,151119,,*10
$GPGGA,175037.1,3443.4905,N,08633.1286,W,1,,,209.3,M,,M,,*7B
$GPRMC,175037.1,A,3443.4905,N,08633.1286,W,,,151119,,*10
$GPGGA,175107.1,3443.4905,N,08633.1287,W,1,,,210.0,M,,M,,*73
$GPRMC,175107.1,A,3443.4905,N,08633.1287,W,,,151119,,*13
$GPGGA,175137.1,3443.4906,N,08633.1287,W,1,,,211.0,M,,M,,*72
$GPRMC,175137.1,A,3443.4906,N,08633.1287,W,,,151119,,*13
$GPGGA,175207.1,3443.4908,N,08633.1278,W,1,,,211.6,M,,M,,*7A
$GPRMC,175207.1,A,3443.4908,N,08633.1278,W,,,151119,,*1D
$GPGGA,175237.1,3443.4908,N,08633.1278,W,1,,,211.6,M,,M,,*79
$GPRMC,175237.1,A,3443.4908,N,08633.1278,W,,,151119,,*1E
$GPGGA,175307.0,3443.4908,N,08633.1278,W,1,,,212.0,M,,M,,*7F
$GPRMC,175307.0,A,3443.4908,N,08633.1278,W,,,151119,,*1D
$GPGGA,175337.0,3443.4907,N,08633.1278,W,1,,,212.0,M,,M,,*73
$GPRMC,175337.0,A,3443.4907,N,08633.1278,W,,,151119,,*11
$GPGGA,175407.1,3443.4890,N,08633.1293,W,1,,,215.2,M,,M,,*79
$GPRMC,175407.1,A,3443.4890,N,08633.1293,W,,,151119,,*1E
$GPGGA,175437.0,3443.4883,N,08633.1289,W,1,,,215.6,M,,M,,*76
$GPRMC,175437.0,A,3443.4883,N,08633.1289,W,,,151119,,*15
$GPGGA,175507.0,3443.4883,N,08633.1289,W,1,,,215.7,M,,M,,*75
$GPRMC,175507.0,A,3443.4883,N,08633.1289,W,,,151119,,*17
$GPGGA,175537.1,3443.4882,N,08633.1296,W,1,,,217.0,M,,M,,*7D
$GPRMC,175537.1,A,3443.4882,N,08633.1296,W,,,151119,,*1A
$GPGGA,175607.0,3443.4884,N,08633.1297,W,1,,,217.9,M,,M,,*72
$GPRMC,175607.0,A,3443.4884,N,08633.1297,W,,,151119,,*1C
$GPGGA,175637.1,3443.4884,N,08633.1297,W,1,,,218.7,M,,M,,*71
$GPRMC,175637.1,A,3443.4884,N,08633.1297,W,,,151119,,*1E
$GPGGA,175707.1,3443.4894,N,08633.1303,W,1,,,220.8,M,,M,,*7A
$GPRMC,175707.1,A,3443.4894,N,08633.1303,W,,,151119,,*11
$GPGGA,175737.1,3443.4894,N,08633.1303,W,1,,,221.7,M,,M,,*77
$GPRMC,175737.1,A,3443.4894,N,08633.1303,W,,,151119,,*12
$GPGGA,175807.0,3443.4893,N,08633.1305,W,1,,,223.6,M,,M,,*78
$GPRMC,175807.0,A,3443.4893,N,08633.1305,W,,,151119,,*1E
$GPGGA,175837.1,3443.4892,N,08633.1305,W,1,,,224.1,M,,M,,*7B
$GPRMC,175837.1,A,3443.4892,N,08633.1305,W,,,151119,,*1D
$GPGGA,175907.1,3443.4891,N,08633.1306,W,1,,,225.2,M,,M,,*7B
$GPRMC,175907.1,A,3443.4891,N,08633.1306,W,,,151119,,*1F
$GPGGA,175937.1,3443.4891,N,08633.1306,W,1,,,224.8,M,,M,,*73
$GPRMC,175937.1,A,3443.4891,N,08633.1306,W,,,151119,,*1C
$GPGGA,180007.1,3443.4890,N,08633.1307,W,1,,,225.0,M,,M,,*7A
$GPRMC,180007.1,A,3443.4890,N,08633.1307,W,,,151119,,*1C
$GPGGA,180037.1,3443.4887,N,08633.1307,W,1,,,224.1,M,,M,,*7F
$GPRMC,180037.1,A,3443.4887,N,08633.1307,W,,,151119,,*19
$GPGGA,180107.1,3443.4886,N,08633.1307,W,1,,,222.8,M,,M,,*73
$GPRMC,180107.1,A,3443.4886,N,08633.1307,W,,,151119,,*1A
$GPGGA,180137.1,3443.4885,N,08633.1307,W,1,,,222.3,M,,M,,*78
$GPRMC,180137.1,A,3443.4885,N,08633.1307,W,,,151119,,*1A
$GPGGA,180207.0,3443.4885,N,08633.1308,W,1,,,224.2,M,,M,,*71
$GPRMC,180207.0,A,3443.4885,N,08633.1308,W,,,151119,,*14
$GPGGA,180237.0,3443.4885,N,08633.1309,W,1,,,225.2,M,,M,,*72
$GPRMC,180237.0,A,3443.4885,N,08633.1309,W,,,151119,,*16
$GPGGA,180307.0,3443.4885,N,08633.1310,W,1,,,226.9,M,,M,,*70
$GPRMC,180307.0,A,3443.4885,N,08633.1310,W,,,151119,,*1C
$GPGGA,180337.1,3443.4884,N,08633.1310,W,1,,,227.1,M,,M,,*7A
$GPRMC,180337.1,A,3443.4884,N,08633.1310,W,,,151119,,*1F
$GPGGA,180407.1,3443.4885,N,08633.1310,W,1,,,226.8,M,,M,,*77
$GPRMC,180407.1,A,3443.4885,N,08633.1310,W,,,151119,,*1A
$GPGGA,180437.1,3443.4885,N,08633.1310,W,1,,,227.1,M,,M,,*7C
$GPRMC,180437.1,A,3443.4885,N,08633.1310,W,,,151119,,*19
$GPGGA,180507.1,3443.4886,N,08633.1310,W,1,,,226.4,M,,M,,*79
$GPRMC,180507.1,A,3443.4886,N,08633.1310,W,,,151119,,*18
$GPGGA,180537.1,3443.4886,N,08633.1310,W,1,,,226.4,M,,M,,*7A
$GPRMC,180537.1,A,3443.4886,N,08633.1310,W,,,151119,,*1B
$GPGGA,180607.1,3443.4886,N,08633.1312,W,1,,,227.0,M,,M,,*7D
$GPRMC,180607.1,A,3443.4886,N,08633.1312,W,,,151119,,*19
$GPGGA,180637.1,3443.4886,N,08633.1314,W,1,,,226.9,M,,M,,*70
$GPRMC,180637.1,A,3443.4886,N,08633.1314,W,,,151119,,*1C
$GPGGA,180707.0,3443.4886,N,08633.1316,W,1,,,226.9,M,,M,,*71
$GPRMC,180707.0,A,3443.4886,N,08633.1316,W,,,151119,,*1D
$GPGGA,180737.1,3443.4886,N,08633.1317,W,1,,,227.8,M,,M,,*72
$GPRMC,180737.1,A,3443.4886,N,08633.1317,W,,,151119,,*1E
$GPGGA,180807.1,3443.4886,N,08633.1318,W,1,,,229.3,M,,M,,*74
$GPRMC,180807.1,A,3443.4886,N,08633.1318,W,,,151119,,*1D
$GPGGA,180837.1,3443.4885,N,08633.1319,W,1,,,231.0,M,,M,,*7F
$GPRMC,180837.1,A,3443.4885,N,08633.1319,W,,,151119,,*1C
$GPGGA,180907.0,3443.4885,N,08633.1319,W,1,,,230.9,M,,M,,*74
$GPRMC,180907.0,A,3443.4885,N,08633.1319,W,,,151119,,*1F
$GPGGA,180937.1,3443.4885,N,08633.1319,W,1,,,230.2,M,,M,,*7D
$GPRMC,180937.1,A,3443.4885,N,08633.1319,W,,,151119,,*1D
$GPGGA,181007.0,3443.4886,N,08633.1319,W,1,,,229.4,M,,M,,*7A
$GPRMC,181007.0,A,3443.4886,N,08633.1319,W,,,151119,,*14
$GPGGA,181037.1,3443.4885,N,08633.1319,W,1,,,228.0,M,,M,,*7E
$GPRMC,181037.1,A,3443.4885,N,08633.1319,W,,,151119,,*15
$GPGGA,181107.1,3443.4885,N,08633.1320,W,1,,,226.3,M,,M,,*7B
$GPRMC,181107.1,A,3443.4885,N,08633.1320,W,,,151119,,*1D
$GPGGA,181137.1,3443.4885,N,08633.1320,W,1,,,226.4,M,,M,,*7F
$GPRMC,181137.1,A,3443.4885,N,08633.1320,W,,,151119,,*1E
$GPGGA,181207.1,3443.4885,N,08633.1320,W,1,,,226.1,M,,M,,*7A
$GPRMC,181207.1,A,3443.4885,N,08633.1320,W,,,151119,,*1E
$GPGGA,181237.1,3443.4885,N,08633.1321,W,1,,,225.8,M,,M,,*72
$GPRMC,181237.1,A,3443.4885,N,08633.1321,W,,,151119,,*1C
$GPGGA,181307.1,3443.4885,N,08633.1322,W,1,,,226.0,M,,M,,*78
$GPRMC,181307.1,A,3443.4885,N,08633.1322,W,,,151119,,*1D
$GPGGA,181337.1,3443.4884,N,08633.1322,W,1,,,225.8,M,,M,,*71
$GPRMC,181337.1,A,3443.4884,N,08633.1322,W,,,151119,,*1F
$GPGGA,181407.1,3443.4884,N,08633.1322,W,1,,,225.8,M,,M,,*75
$GPRMC,181407.1,A,3443.4884,N,08633.1322,W,,,151119,,*1B
$GPGGA,181437.1,3443.4884,N,08633.1322,W,1,,,225.3,M,,M,,*7D
$GPRMC,181437.1,A,3443.4884,N,08633.1322,W,,,151119,,*18
$GPGGA,181507.1,3443.4884,N,08633.1323,W,1,,,225.0,M,,M,,*7D
$GPRMC,181507.1,A,3443.4884,N,08633.1323,W,,,151119,,*1B
$GPGGA,181537.1,3443.4882,N,08633.1313,W,1,,,223.4,M,,M,,*79
$GPRMC,181537.1,A,3443.4882,N,08633.1313,W,,,151119,,*1D
$GPGGA,181607.1,3443.4883,N,08633.1314,W,1,,,223.8,M,,M,,*73
$GPRMC,181607.1,A,3443.4883,N,08633.1314,W,,,151119,,*1B
$GPGGA,181637.1,3443.4883,N,08633.1315,W,1,,,224.1,M,,M,,*7F
$GPRMC,181637.1,A,3443.4883,N,08633.1315,W,,,151119,,*19
$GPGGA,181707.1,3443.4883,N,08633.1315,W,1,,,224.1,M,,M,,*7D
$GPRMC,181707.1,A,3443.4883,N,08633.1315,W,,,151119,,*1B
$GPGGA,181737.1,3443.4883,N,08633.1316,W,1,,,224.9,M,,M,,*75
$GPRMC,181737.1,A,3443.4883,N,08633.1316,W,,,151119,,*1B
$GPGGA,181807.0,3443.4883,N,08633.1317,W,1,,,225.3,M,,M,,*72
$GPRMC,181807.0,A,3443.4883,N,08633.1317,W,,,151119,,*17
$GPGGA,181837.1,3443.4883,N,08633.1317,W,1,,,224.9,M,,M,,*7B
$GPRMC,181837.1,A,3443.4883,N,08633.1317,W,,,151119,,*15
$GPGGA,181907.1,3443.4884,N,08633.1317,W,1,,,224.3,M,,M,,*74
$GPRMC,181907.1,A,3443.4884,N,08633.1317,W,,,151119,,*10
$GPGGA,181937.1,3443.4885,N,08633.1318,W,1,,,223.9,M,,M,,*74
$GPRMC,181937.1,A,3443.4885,N,08633.1318,W,,,151119,,*1D
$GPGGA,182007.1,3443.4885,N,08633.1318,W,1,,,223.7,M,,M,,*73
$GPRMC,182007.1,A,3443.4885,N,08633.1318,W,,,151119,,*14
$GPGGA,182037.2,3443.4887,N,08633.1318,W,1,,,223.8,M,,M,,*7E
$GPRMC,182037.2,A,3443.4887,N,08633.1318,W,,,151119,,*16
$GPGGA,182107.1,3443.4887,N,08633.1318,W,1,,,223.9,M,,M,,*7E
$GPRMC,182107.1,A,3443.4887,N,08633.1318,W,,,151119,,*17
$GPGGA,182137.0,3443.4887,N,08633.1318,W,1,,,224.3,M,,M,,*71
$GPRMC,182137.0,A,3443.4887,N,08633.1318,W,,,151119,,*15
$GPGGA,182207.1,3443.4888,N,08633.1317,W,1,,,224.2,M,,M,,*71
$GPRMC,182207.1,A,3443.4888,N,08633.1317,W,,,151119,,*14
$GPGGA,182237.1,3443.4887,N,08633.1318,W,1,,,225.0,M,,M,,*71
$GPRMC,182237.1,A,3443.4887,N,08633.1318,W,,,151119,,*17
$GPGGA,182307.1,3443.4888,N,08633.1318,W,1,,,225.5,M,,M,,*79
$GPRMC,182307.1,A,3443.4888,N,08633.1318,W,,,151119,,*1A
$GPGGA,182337.1,3443.4890,N,08633.1314,W,1,,,222.1,M,,M,,*7C
$GPRMC,182337.1,A,3443.4890,N,08633.1314,W,,,151119,,*1C
$GPGGA,182407.1,3443.4890,N,08633.1314,W,1,,,222.2,M,,M,,*7B
$GPRMC,182407.1,A,3443.4890,N,08633.1314,W,,,151119,,*18
$GPGGA,182437.1,3443.4891,N,08633.1314,W,1,,,222.9,M,,M,,*72
$GPRMC,182437.1,A,3443.4891,N,08633.1314,W,,,151119,,*1A
$GPGGA,182507.1,3443.4891,N,08633.1315,W,1,,,223.8,M,,M,,*71
$GPRMC,182507.1,A,3443.4891,N,08633.1315,W,,,151119,,*19
$GPGGA,182537.1,3443.4891,N,08633.1314,W,1,,,223.4,M,,M,,*7F
$GPRMC,182537.1,A,3443.4891,N,08633.1314,W,,,151119,,*1B
$GPGGA,182607.1,3443.4891,N,08633.1313,W,1,,,222.8,M,,M,,*75
$GPRMC,182607.1,A,3443.4891,N,08633.1313,W,,,151119,,*1C
$GPGGA,182637.0,3443.4891,N,08633.1312,W,1,,,222.5,M,,M,,*7B
$GPRMC,182637.0,A,3443.4891,N,08633.1312,W,,,151119,,*1F
$GPGGA,182707.1,3443.4891,N,08633.1312,W,1,,,222.6,M,,M,,*7B
$GPRMC,182707.1,A,3443.4891,N,08633.1312,W,,,151119,,*1C
$GPGGA,182737.1,3443.4891,N,08633.1311,W,1,,,222.3,M,,M,,*7E
$GPRMC,182737.1,A,3443.4891,N,08633.1311,W,,,151119,,*1C
$GPGGA,182807.1,3443.4891,N,08633.1311,W,1,,,221.5,M,,M,,*77
$GPRMC,182807.1,A,3443.4891,N,08633.1311,W,,,151119,,*10
$GPGGA,182837.1,3443.4891,N,08633.1311,W,1,,,220.8,M,,M,,*78
$GPRMC,182837.1,A,3443.4891,N,08633.1311,W,,,151119,,*13
$GPGGA,182907.1,3443.4892,N,08633.1312,W,1,,,219.8,M,,M,,*70
$GPRMC,182907.1,A,3443.4892,N,08633.1312,W,,,151119,,*11
$GPGGA,182937.2,3443.4892,N,08633.1311,W,1,,,218.2,M,,M,,*78
$GPRMC,182937.2,A,3443.4892,N,08633.1311,W,,,151119,,*12
$GPGGA,183007.1,3443.4893,N,08633.1312,W,1,,,217.3,M,,M,,*7C
$GPRMC,183007.1,A,3443.4893,N,08633.1312,W,,,151119,,*18
$GPGGA,183037.1,3443.4893,N,08633.1312,W,1,,,217.2,M,,M,,*7E
$GPRMC,183037.1,A,3443.4893,N,08633.1312,W,,,151119,,*1B
$GPGGA,183107.1,3443.4894,N,08633.1312,W,1,,,216.1,M,,M,,*79
$GPRMC,183107.1,A,3443.4894,N,08633.1312,W,,,151119,,*1E
$GPGGA,183137.2,3443.4894,N,08633.1312,W,1,,,215.5,M,,M,,*7E
$GPRMC,183137.2,A,3443.4894,N,08633.1312,W,,,151119,,*1E
$GPGGA,183207.2,3443.4894,N,08633.1312,W,1,,,213.9,M,,M,,*74
$GPRMC,183207.2,A,3443.4894,N,08633.1312,W,,,151119,,*1E
$GPGGA,183237.1,3443.4895,N,08633.1311,W,1,,,212.1,M,,M,,*7F
$GPRMC,183237.1,A,3443.4895,N,08633.1311,W,,,151119,,*1C
$GPGGA,183307.1,3443.4896,N,08633.1310,W,1,,,210.2,M,,M,,*7E
$GPRMC,183307.1,A,3443.4896,N,08633.1310,W,,,151119,,*1C
$GPGGA,183337.1,3443.4897,N,08633.1308,W,1,,,209.0,M,,M,,*7F
$GPRMC,183337.1,A,3443.4897,N,08633.1308,W,,,151119,,*17
$GPGGA,183407.2,3443.4898,N,08633.1308,W,1,,,208.0,M,,M,,*76
$GPRMC,183407.2,A,3443.4898,N,08633.1308,W,,,151119,,*1F
$GPGGA,183437.3,3443.4898,N,08633.1308,W,1,,,207.7,M,,M,,*7C
$GPRMC,183437.3,A,3443.4898,N,08633.1308,W,,,151119,,*1D
$GPGGA,183507.1,3443.4898,N,08633.1307,W,1,,,207.4,M,,M,,*70
$GPRMC,183507.1,A,3443.4898,N,08633.1307,W,,,151119,,*12
$GPGGA,183537.1,3443.4898,N,08633.1307,W,1,,,207.2,M,,M,,*75
$GPRMC,183537.1,A,3443.4898,N,08633.1307,W,,,151119,,*11
$GPGGA,183607.1,3443.4899,N,08633.1307,W,1,,,206.9,M,,M,,*7E
$GPRMC,183607.1,A,3443.4899,N,08633.1307,W,,,151119,,*10
$GPGGA,183637.1,3443.4899,N,08633.1307,W,1,,,206.7,M,,M,,*73
$GPRMC,183637.1,A,3443.4899,N,08633.1307,W,,,151119,,*13
$GPGGA,183707.1,3443.4899,N,08633.1307,W,1,,,207.0,M,,M,,*77
$GPRMC,183707.1,A,3443.4899,N,08633.1307,W,,,151119,,*11
$GPGGA,183737.1,3443.4900,N,08633.1306,W,1,,,206.1,M,,M,,*74
$GPRMC,183737.1,A,3443.4900,N,08633.1306,W,,,151119,,*12
$GPGGA,183807.1,3443.4900,N,08633.1305,W,1,,,205.5,M,,M,,*7C
$GPRMC,183807.1,A,3443.4900,N,08633.1305,W,,,151119,,*1D
$GPGGA,183837.1,3443.4902,N,08633.1304,W,1,,,204.3,M,,M,,*7B
$GPRMC,183837.1,A,3443.4902,N,08633.1304,W,,,151119,,*1D
$GPGGA,183907.1,3443.4900,N,08633.1306,W,1,,,204.7,M,,M,,*7D
$GPRMC,183907.1,A,3443.4900,N,08633.1306,W,,,151119,,*1F
$GPGGA,183937.1,3443.4899,N,08633.1307,W,1,,,205.8,M,,M,,*70
$GPRMC,183937.1,A,3443.4899,N,08633.1307,W,,,151119,,*1C
$GPGGA,184007.1,3443.4899,N,08633.1307,W,1,,,206.1,M,,M,,*77
$GPRMC,184007.1,A,3443.4899,N,08633.1307,W,,,151119,,*11
$GPGGA,184037.1,3443.4899,N,08633.1308,W,1,,,206.1,M,,M,,*7B
$GPRMC,184037.1,A,3443.4899,N,08633.1308,W,,,151119,,*1D
$GPGGA,184107.1,3443.4899,N,08633.1308,W,1,,,206.2,M,,M,,*7A
$GPRMC,184107.1,A,3443.4899,N,08633.1308,W,,,151119,,*1F
$GPGGA,184137.1,3443.4898,N,08633.1307,W,1,,,206.2,M,,M,,*77
$GPRMC,184137.1,A,3443.4898,N,08633.1307,W,,,151119,,*12
$GPGGA,184207.1,3443.4898,N,08633.1307,W,1,,,206.4,M,,M,,*71
$GPRMC,184207.1,A,3443.4898,N,08633.1307,W,,,151119,,*12
$GPGGA,184237.1,3443.4898,N,08633.1307,W,1,,,207.3,M,,M,,*74
$GPRMC,184237.1,A,3443.4898,N,08633.1307,W,,,151119,,*11
$GPGGA,184307.1,3443.4897,N,08633.1306,W,1,,,207.3,M,,M,,*78
$GPRMC,184307.1,A,3443.4897,N,08633.1306,W,,,151119,,*1D
$GPGGA,184337.1,3443.4908,N,08633.1307,W,1,,,203.2,M,,M,,*78
$GPRMC,184337.1,A,3443.4908,N,08633.1307,W,,,151119,,*18
$GPGGA,184407.1,3443.4907,N,08633.1307,W,1,,,208.1,M,,M,,*7B
$GPRMC,184407.1,A,3443.4907,N,08633.1307,W,,,151119,,*13
$GPGGA,184437.1,3443.4905,N,08633.1309,W,1,,,211.6,M,,M,,*7B
$GPRMC,184437.1,A,3443.4905,N,08633.1309,W,,,151119,,*1C
$GPGGA,184507.1,3443.4905,N,08633.1309,W,1,,,211.2,M,,M,,*7D
$GPRMC,184507.1,A,3443.4905,N,08633.1309,W,,,151119,,*1E
$GPGGA,184537.1,3443.4905,N,08633.1309,W,1,,,211.9,M,,M,,*75
$GPRMC,184537.1,A,3443.4905,N,08633.1309,W,,,151119,,*1D
$GPGGA,184607.1,3443.4905,N,08633.1309,W,1,,,210.6,M,,M,,*7B
$GPRMC,184607.1,A,3443.4905,N,08633.1309,W,,,151119,,*1D
$GPGGA,184637.1,3443.4900,N,08633.1316,W,1,,,212.0,M,,M,,*77
$GPRMC,184637.1,A,3443.4900,N,08633.1316,W,,,151119,,*15
$GPGGA,184707.1,3443.4900,N,08633.1316,W,1,,,212.3,M,,M,,*76
$GPRMC,184707.1,A,3443.4900,N,08633.1316,W,,,151119,,*17
$GPGGA,184737.1,3443.4899,N,08633.1317,W,1,,,212.1,M,,M,,*77
$GPRMC,184737.1,A,3443.4899,N,08633.1317,W,,,151119,,*14
$GPGGA,184807.1,3443.4898,N,08633.1318,W,1,,,212.2,M,,M,,*76
$GPRMC,184807.1,A,3443.4898,N,08633.1318,W,,,151119,,*16
$GPGGA,184837.1,3443.4897,N,08633.1318,W,1,,,211.6,M,,M,,*7D
$GPRMC,184837.1,A,3443.4897,N,08633.1318,W,,,151119,,*1A
$GPGGA,184907.1,3443.4898,N,08633.1318,W,1,,,211.3,M,,M,,*75
$GPRMC,184907.1,A,3443.4898,N,08633.1318,W,,,151119,,*17
$GPGGA,184937.1,3443.4898,N,08633.1318,W,1,,,211.1,M,,M,,*74
$GPRMC,184937.1,A,3443.4898,N,08633.1318,W,,,151119,,*14
$GPGGA,185007.1,3443.4898,N,08633.1318,W,1,,,211.0,M,,M,,*7E
$GPRMC,185007.1,A,3443.4898,N,08633.1318,W,,,151119,,*1F
$GPGGA,185037.1,3443.4898,N,08633.1317,W,1,,,210.7,M,,M,,*74
$GPRMC,185037.1,A,3443.4898,N,08633.1317,W,,,151119,,*13
$GPGGA,185107.1,3443.4899,N,08633.1309,W,1,,,207.5,M,,M,,*7C
$GPRMC,185107.1,A,3443.4899,N,08633.1309,W,,,151119,,*1F
$GPGGA,185137.1,3443.4900,N,08633.1307,W,1,,,198.4,M,,M,,*74
$GPRMC,185137.1,A,3443.4900,N,08633.1307,W,,,151119,,*13
$GPGGA,185207.1,3443.4893,N,08633.1311,W,1,,,199.7,M,,M,,*7A
$GPRMC,185207.1,A,3443.4893,N,08633.1311,W,,,151119,,*1F
$GPGGA,185237.1,3443.4892,N,08633.1311,W,1,,,202.5,M,,M,,*7B
$GPRMC,185237.1,A,3443.4892,N,08633.1311,W,,,151119,,*1D
$GPGGA,185307.1,3443.4892,N,08633.1311,W,1,,,204.0,M,,M,,*7A
$GPRMC,185307.1,A,3443.4892,N,08633.1311,W,,,151119,,*1F
$GPGGA,185337.1,3443.4892,N,08633.1311,W,1,,,204.6,M,,M,,*7F
$GPRMC,185337.1,A,3443.4892,N,08633.1311,W,,,151119,,*1C
$GPGGA,185407.1,3443.4891,N,08633.1310,W,1,,,205.8,M,,M,,*76
$GPRMC,185407.1,A,3443.4891,N,08633.1310,W,,,151119,,*1A
$GPGGA,185437.1,3443.4891,N,08633.1310,W,1,,,206.5,M,,M,,*7B
$GPRMC,185437.1,A,3443.4891,N,08633.1310,W,,,151119,,*19
$GPGGA,185507.1,3443.4891,N,08633.1310,W,1,,,206.7,M,,M,,*7B
$GPRMC,185507.1,A,3443.4891,N,08633.1310,W,,,151119,,*1B
$GPGGA,185537.1,3443.4891,N,08633.1310,W,1,,,207.7,M,,M,,*79
$GPRMC,185537.1,A,3443.4891,N,08633.1310,W,,,151119,,*18
$GPGGA,185607.1,3443.4891,N,08633.1309,W,1,,,209.9,M,,M,,*71
$GPRMC,185607.1,A,3443.4891,N,08633.1309,W,,,151119,,*10
$GPGGA,185637.1,3443.4877,N,08633.1310,W,1,,,214.3,M,,M,,*74
$GPRMC,185637.1,A,3443.4877,N,08633.1310,W,,,151119,,*13
$GPGGA,185707.1,3443.4870,N,08633.1314,W,1,,,221.3,M,,M,,*73
$GPRMC,185707.1,A,3443.4870,N,08633.1314,W,,,151119,,*12
$GPGGA,185737.1,3443.4870,N,08633.1314,W,1,,,223.7,M,,M,,*76
$GPRMC,185737.1,A,3443.4870,N,08633.1314,W,,,151119,,*11
$GPGGA,185807.1,3443.4870,N,08633.1314,W,1,,,225.4,M,,M,,*7F
$GPRMC,185807.1,A,3443.4870,N,08633.1314,W,,,151119,,*1D
$GPGGA,185837.1,3443.4870,N,08633.1314,W,1,,,224.3,M,,M,,*7A
$GPRMC,185837.1,A,3443.4870,N,08633.1314,W,,,151119,,*1E
$GPGGA,185907.1,3443.4868,N,08633.1316,W,1,,,224.8,M,,M,,*78
$GPRMC,185907.1,A,3443.4868,N,08633.1316,W,,,151119,,*17
$GPGGA,185937.1,3443.4866,N,08633.1322,W,1,,,226.0,M,,M,,*78
$GPRMC,185937.1,A,3443.4866,N,08633.1322,W,,,151119,,*1D
$GPGGA,190007.1,3443.4866,N,08633.1324,W,1,,,229.2,M,,M,,*7D
$GPRMC,190007.1,A,3443.4866,N,08633.1324,W,,,151119,,*15
$GPGGA,190037.1,3443.4865,N,08633.1325,W,1,,,232.5,M,,M,,*71
$GPRMC,190037.1,A,3443.4865,N,08633.1325,W,,,151119,,*14
$GPGGA,190107.1,3443.4865,N,08633.1325,W,1,,,232.8,M,,M,,*7E
$GPRMC,190107.1,A,3443.4865,N,08633.1325,W,,,151119,,*16
$GPGGA,190137.1,3443.4865,N,08633.1325,W,1,,,234.4,M,,M,,*77
$GPRMC,190137.1,A,3443.4865,N,08633.1325,W,,,151119,,*15
$GPGGA,190207.1,3443.4862,N,08633.1325,W,1,,,232.5,M,,M,,*77
$GPRMC,190207.1,A,3443.4862,N,08633.1325,W,,,151119,,*12
$GPGGA,190237.1,3443.4860,N,08633.1324,W,1,,,234.9,M,,M,,*7D
$GPRMC,190237.1,A,3443.4860,N,08633.1324,W,,,151119,,*12
$GPGGA,190307.1,3443.4859,N,08633.1323,W,1,,,236.3,M,,M,,*7A
$GPRMC,190307.1,A,3443.4859,N,08633.1323,W,,,151119,,*1D
$GPGGA,190337.1,3443.4859,N,08633.1324,W,1,,,236.7,M,,M,,*7A
$GPRMC,190337.1,A,3443.4859,N,08633.1324,W,,,151119,,*19
$GPGGA,190407.1,3443.4859,N,08633.1324,W,1,,,236.8,M,,M,,*71
$GPRMC,190407.1,A,3443.4859,N,08633.1324,W,,,151119,,*1D
$GPGGA,190437.1,3443.4859,N,08633.1323,W,1,,,238.0,M,,M,,*73
$GPRMC,190437.1,A,3443.4859,N,08633.1323,W,,,151119,,*19
$GPGGA,190507.1,3443.4859,N,08633.1323,W,1,,,238.4,M,,M,,*75
$GPRMC,190507.1,A,3443.4859,N,08633.1323,W,,,151119,,*1B
$GPGGA,190537.1,3443.4859,N,08633.1323,W,1,,,238.9,M,,M,,*7B
$GPRMC,190537.1,A,3443.4859,N,08633.1323,W,,,151119,,*18
$GPGGA,190607.1,3443.4859,N,08633.1323,W,1,,,238.5,M,,M,,*77
$GPRMC,190607.1,A,3443.4859,N,08633.1323,W,,,151119,,*18
$GPGGA,190637.1,3443.4860,N,08633.1323,W,1,,,235.7,M,,M,,*71
$GPRMC,190637.1,A,3443.4860,N,08633.1323,W,,,151119,,*11
$GPGGA,190707.1,3443.4860,N,08633.1318,W,1,,,235.9,M,,M,,*75
$GPRMC,190707.1,A,3443.4860,N,08633.1318,W,,,151119,,*1B
$GPGGA,190737.1,3443.4852,N,08633.1309,W,1,,,236.7,M,,M,,*7A
$GPRMC,190737.1,A,3443.4852,N,08633.1309,W,,,151119,,*19
$GPGGA,190807.1,3443.4849,N,08633.1309,W,1,,,238.6,M,,M,,*73
$GPRMC,190807.1,A,3443.4849,N,08633.1309,W,,,151119,,*1F
$GPGGA,190837.1,3443.4848,N,08633.1308,W,1,,,240.3,M,,M,,*7A
$GPRMC,190837.1,A,3443.4848,N,08633.1308,W,,,151119,,*1C
$GPGGA,190907.1,3443.4848,N,08633.1308,W,1,,,239.4,M,,M,,*71
$GPRMC,190907.1,A,3443.4848,N,08633.1308,W,,,151119,,*1E
$GPGGA,190937.1,3443.4850,N,08633.1312,W,1,,,238.6,M,,M,,*73
$GPRMC,190937.1,A,3443.4850,N,08633.1312,W,,,151119,,*1F
$GPGGA,191007.1,3443.4850,N,08633.1312,W,1,,,236.6,M,,M,,*76
$GPRMC,191007.1,A,3443.4850,N,08633.1312,W,,,151119,,*14
$GPGGA,191037.1,3443.4838,N,08633.1320,W,1,,,235.6,M,,M,,*79
$GPRMC,191037.1,A,3443.4838,N,08633.1320,W,,,151119,,*18
$GPGGA,191107.1,3443.4838,N,08633.1320,W,1,,,235.0,M,,M,,*7D
$GPRMC,191107.1,A,3443.4838,N,08633.1320,W,,,151119,,*1A
$GPGGA,191137.1,3443.4838,N,08633.1320,W,1,,,234.3,M,,M,,*7C
$GPRMC,191137.1,A,3443.4838,N,08633.1320,W,,,151119,,*19
$GPGGA,191207.1,3443.4836,N,08633.1338,W,1,,,234.9,M,,M,,*71
$GPRMC,191207.1,A,3443.4836,N,08633.1338,W,,,151119,,*1E
$GPGGA,191237.1,3443.4808,N,08633.1367,W,1,,,247.6,M,,M,,*7E
$GPRMC,191237.1,A,3443.4808,N,08633.1367,W,,,151119,,*1A
$GPGGA,191307.1,3443.4808,N,08633.1367,W,1,,,247.2,M,,M,,*78
$GPRMC,191307.1,A,3443.4808,N,08633.1367,W,,,151119,,*18
$GPGGA,191337.1,3443.4808,N,08633.1367,W,1,,,247.4,M,,M,,*7D
$GPRMC,191337.1,A,3443.4808,N,08633.1367,W,,,151119,,*1B
