@Olympus/+0900/+0900
$GPGGA,034848.0,3443.4876,N,08633.1268,W,1,,,211.9,M,,M,,*78
$GPRMC,034848.0,A,3443.4876,N,08633.1268,W,,,151119,,*10
$GPGGA,034918.0,3443.4876,N,08633.1268,W,1,,,213.2,M,,M,,*75
$GPRMC,034918.0,A,3443.4876,N,08633.1268,W,,,151119,,*14
$GPGGA,034948.0,3443.4892,N,08633.1255,W,1,,,208.5,M,,M,,*79
$GPRMC,034948.0,A,3443.4892,N,08633.1255,W,,,151119,,*15
$GPGGA,035018.0,3443.4891,N,08633.1256,W,1,,,208.9,M,,M,,*78
$GPRMC,035018.0,A,3443.4891,N,08633.1256,W,,,151119,,*18
$GPGGA,035048.0,3443.4892,N,08633.1258,W,1,,,209.6,M,,M,,*7E
$GPRMC,035048.0,A,3443.4892,N,08633.1258,W,,,151119,,*10
$GPGGA,035118.0,3443.4892,N,08633.1261,W,1,,,212.1,M,,M,,*7D
$GPRMC,035118.0,A,3443.4892,N,08633.1261,W,,,151119,,*1E
$GPGGA,035148.0,3443.4891,N,08633.1264,W,1,,,214.5,M,,M,,*7C
$GPRMC,035148.0,A,3443.4891,N,08633.1264,W,,,151119,,*1D
$GPGGA,035218.0,3443.4890,N,08633.1267,W,1,,,215.9,M,,M,,*75
$GPRMC,035218.0,A,3443.4890,N,08633.1267,W,,,151119,,*19
$GPGGA,035248.0,3443.4890,N,08633.1269,W,1,,,216.4,M,,M,,*70
$GPRMC,035248.0,A,3443.4890,N,08633.1269,W,,,151119,,*12
$GPGGA,035318.0,3443.4890,N,08633.1271,W,1,,,217.0,M,,M,,*78
$GPRMC,035318.0,A,3443.4890,N,08633.1271,W,,,151119,,*1F
$GPGGA,035348.0,3443.4890,N,08633.1271,W,1,,,216.3,M,,M,,*7F
$GPRMC,035348.0,A,3443.4890,N,08633.1271,W,,,151119,,*1A
$GPGGA,035418.0,3443.4889,N,08633.1270,W,1,,,216.8,M,,M,,*7F
$GPRMC,035418.0,A,3443.4889,N,08633.1270,W,,,151119,,*11
$GPGGA,035448.0,3443.4888,N,08633.1270,W,1,,,217.0,M,,M,,*72
$GPRMC,035448.0,A,3443.4888,N,08633.1270,W,,,151119,,*15
$GPGGA,035518.2,3443.4881,N,08633.1274,W,1,,,217.4,M,,M,,*7D
$GPRMC,035518.2,A,3443.4881,N,08633.1274,W,,,151119,,*1E
$GPGGA,035548.0,3443.4881,N,08633.1274,W,1,,,217.4,M,,M,,*7A
$GPRMC,035548.0,A,3443.4881,N,08633.1274,W,,,151119,,*19
$GPGGA,035618.0,3443.4881,N,08633.1274,W,1,,,217.4,M,,M,,*7C
$GPRMC,035618.0,A,3443.4881,N,08633.1274,W,,,151119,,*1F
$GPGGA,035637.1,3443.4881,N,08633.1274,W,1,,,217.4,M,,M,,*70
$GPRMC,035637.1,A,3443.4881,N,08633.1274,W,,,151119,,*13
$GPGGA,035707.0,3443.4886,N,08633.1356,W,1,,,227.5,M,,M,,*77
$GPRMC,035707.0,A,3443.4886,N,08633.1356,W,,,151119,,*16
$GPGGA,035737.0,3443.4885,N,08633.1363,W,1,,,232.1,M,,M,,*71
$GPRMC,035737.0,A,3443.4885,N,08633.1363,W,,,151119,,*10
$GPGGA,035807.0,3443.4887,N,08633.1365,W,1,,,219.3,M,,M,,*72
$GPRMC,035807.0,A,3443.4887,N,08633.1365,W,,,151119,,*18
$GPGGA,035837.0,3443.4890,N,08633.1363,W,1,,,215.9,M,,M,,*77
$GPRMC,035837.0,A,3443.4890,N,08633.1363,W,,,151119,,*1B
$GPGGA,035907.0,3443.4887,N,08633.1366,W,1,,,218.4,M,,M,,*76
$GPRMC,035907.0,A,3443.4887,N,08633.1366,W,,,151119,,*1A
$GPGGA,035937.0,3443.4876,N,08633.1386,W,1,,,233.1,M,,M,,*79
$GPRMC,035937.0,A,3443.4876,N,08633.1386,W,,,151119,,*19
$GPGGA,040007.0,3443.4875,N,08633.1386,W,1,,,241.9,M,,M,,*7F
$GPRMC,040007.0,A,3443.4875,N,08633.1386,W,,,151119,,*12
$GPGGA,040037.0,3443.4875,N,08633.1384,W,1,,,236.5,M,,M,,*72
$GPRMC,040037.0,A,3443.4875,N,08633.1384,W,,,151119,,*13
$GPGGA,040107.0,3443.4875,N,08633.1383,W,1,,,233.3,M,,M,,*74
$GPRMC,040107.0,A,3443.4875,N,08633.1383,W,,,151119,,*16
$GPGGA,040137.0,3443.4875,N,08633.1383,W,1,,,231.9,M,,M,,*7F
$GPRMC,040137.0,A,3443.4875,N,08633.1383,W,,,151119,,*15
$GPGGA,040207.0,3443.4875,N,08633.1378,W,1,,,232.1,M,,M,,*70
$GPRMC,040207.0,A,3443.4875,N,08633.1378,W,,,151119,,*11
$GPGGA,040237.0,3443.4870,N,08633.1374,W,1,,,236.8,M,,M,,*77
$GPRMC,040237.0,A,3443.4870,N,08633.1374,W,,,151119,,*1B
$GPGGA,040307.0,3443.4867,N,08633.1369,W,1,,,239.8,M,,M,,*70
$GPRMC,040307.0,A,3443.4867,N,08633.1369,W,,,151119,,*13
$GPGGA,040337.0,3443.4869,N,08633.1365,W,1,,,236.5,M,,M,,*73
$GPRMC,040337.0,A,3443.4869,N,08633.1365,W,,,151119,,*12
$GPGGA,040407.0,3443.4872,N,08633.1359,W,1,,,232.5,M,,M,,*76
$GPRMC,040407.0,A,3443.4872,N,08633.1359,W,,,151119,,*13
$GPGGA,040437.0,3443.4873,N,08633.1354,W,1,,,229.6,M,,M,,*70
$GPRMC,040437.0,A,3443.4873,N,08633.1354,W,,,151119,,*1C
$GPGGA,040507.0,3443.4872,N,08633.1353,W,1,,,230.4,M,,M,,*7E
$GPRMC,040507.0,A,3443.4872,N,08633.1353,W,,,151119,,*18
$GPGGA,040537.0,3443.4872,N,08633.1353,W,1,,,231.4,M,,M,,*7C
$GPRMC,040537.0,A,3443.4872,N,08633.1353,W,,,151119,,*1B
$GPGGA,040607.0,3443.4872,N,08633.1352,W,1,,,231.8,M,,M,,*71
$GPRMC,040607.0,A,3443.4872,N,08633.1352,W,,,151119,,*1A
$GPGGA,040637.0,3443.4872,N,08633.1352,W,1,,,231.8,M,,M,,*72
$GPRMC,040637.0,A,3443.4872,N,08633.1352,W,,,151119,,*19
$GPGGA,040707.0,3443.4870,N,08633.1360,W,1,,,232.4,M,,M,,*7C
$GPRMC,040707.0,A,3443.4870,N,08633.1360,W,,,151119,,*18
$GPGGA,040737.0,3443.4870,N,08633.1361,W,1,,,233.7,M,,M,,*7C
$GPRMC,040737.0,A,3443.4870,N,08633.1361,W,,,151119,,*1A
$GPGGA,040807.0,3443.4870,N,08633.1358,W,1,,,234.1,M,,M,,*7B
$GPRMC,040807.0,A,3443.4870,N,08633.1358,W,,,151119,,*1C
$GPGGA,040837.0,3443.4871,N,08633.1356,W,1,,,233.4,M,,M,,*75
$GPRMC,040837.0,A,3443.4871,N,08633.1356,W,,,151119,,*10
$GPGGA,040907.0,3443.4872,N,08633.1353,W,1,,,232.8,M,,M,,*7C
$GPRMC,040907.0,A,3443.4872,N,08633.1353,W,,,151119,,*14
$GPGGA,040937.0,3443.4873,N,08633.1351,W,1,,,232.3,M,,M,,*77
$GPRMC,040937.0,A,3443.4873,N,08633.1351,W,,,151119,,*14
$GPGGA,041007.0,3443.4873,N,08633.1350,W,1,,,232.1,M,,M,,*7F
$GPRMC,041007.0,A,3443.4873,N,08633.1350,W,,,151119,,*1E
$GPGGA,041037.0,3443.4873,N,08633.1353,W,1,,,231.8,M,,M,,*75
$GPRMC,041037.0,A,3443.4873,N,08633.1353,W,,,151119,,*1E
$GPGGA,041107.0,3443.4874,N,08633.1350,W,1,,,229.8,M,,M,,*7A
$GPRMC,041107.0,A,3443.4874,N,08633.1350,W,,,151119,,*18
$GPGGA,041137.0,3443.4875,N,08633.1348,W,1,,,228.4,M,,M,,*7C
$GPRMC,041137.0,A,3443.4875,N,08633.1348,W,,,151119,,*13
$GPGGA,041207.1,3443.4876,N,08633.1347,W,1,,,227.6,M,,M,,*7C
$GPRMC,041207.1,A,3443.4876,N,08633.1347,W,,,151119,,*1E
$GPGGA,041237.0,3443.4876,N,08633.1347,W,1,,,227.5,M,,M,,*7D
$GPRMC,041237.0,A,3443.4876,N,08633.1347,W,,,151119,,*1C
$GPGGA,041307.0,3443.4876,N,08633.1348,W,1,,,227.1,M,,M,,*74
$GPRMC,041307.0,A,3443.4876,N,08633.1348,W,,,151119,,*11
$GPGGA,041337.0,3443.4876,N,08633.1347,W,1,,,226.3,M,,M,,*7B
$GPRMC,041337.0,A,3443.4876,N,08633.1347,W,,,151119,,*1D
$GPGGA,041407.0,3443.4876,N,08633.1348,W,1,,,226.1,M,,M,,*72
$GPRMC,041407.0,A,3443.4876,N,08633.1348,W,,,151119,,*16
$GPGGA,041437.0,3443.4877,N,08633.1349,W,1,,,225.6,M,,M,,*75
$GPRMC,041437.0,A,3443.4877,N,08633.1349,W,,,151119,,*15
$GPGGA,041507.0,3443.4877,N,08633.1349,W,1,,,225.1,M,,M,,*70
$GPRMC,041507.0,A,3443.4877,N,08633.1349,W,,,151119,,*17
$GPGGA,041537.0,3443.4878,N,08633.1347,W,1,,,223.3,M,,M,,*76
$GPRMC,041537.0,A,3443.4878,N,08633.1347,W,,,151119,,*15
$GPGGA,041607.0,3443.4879,N,08633.1345,W,1,,,221.5,M,,M,,*71
$GPRMC,041607.0,A,3443.4879,N,08633.1345,W,,,151119,,*16
$GPGGA,041637.0,3443.4880,N,08633.1345,W,1,,,221.5,M,,M,,*74
$GPRMC,041637.0,A,3443.4880,N,08633.1345,W,,,151119,,*13
$GPGGA,041707.0,3443.4880,N,08633.1343,W,1,,,220.6,M,,M,,*72
$GPRMC,041707.0,A,3443.4880,N,08633.1343,W,,,151119,,*17
$GPGGA,041737.0,3443.4880,N,08633.1341,W,1,,,220.3,M,,M,,*76
$GPRMC,041737.0,A,3443.4880,N,08633.1341,W,,,151119,,*16
$GPGGA,041807.0,3443.4881,N,08633.1341,W,1,,,220.2,M,,M,,*7A
$GPRMC,041807.0,A,3443.4881,N,08633.1341,W,,,151119,,*1B
$GPGGA,041837.0,3443.4880,N,08633.1336,W,1,,,219.4,M,,M,,*74
$GPRMC,041837.0,A,3443.4880,N,08633.1336,W,,,151119,,*19
$GPGGA,041907.0,3443.4881,N,08633.1334,W,1,,,218.6,M,,M,,*76
$GPRMC,041907.0,A,3443.4881,N,08633.1334,W,,,151119,,*18
$GPGGA,041937.0,3443.4882,N,08633.1332,W,1,,,217.4,M,,M,,*7D
$GPRMC,041937.0,A,3443.4882,N,08633.1332,W,,,151119,,*1E
$GPGGA,042007.0,3443.4879,N,08633.1330,W,1,,,216.2,M,,M,,*75
$GPRMC,042007.0,A,3443.4879,N,08633.1330,W,,,151119,,*11
$GPGGA,042037.0,3443.4880,N,08633.1329,W,1,,,215.7,M,,M,,*7E
$GPRMC,042037.0,A,3443.4880,N,08633.1329,W,,,151119,,*1C
$GPGGA,042107.0,3443.4880,N,08633.1329,W,1,,,215.5,M,,M,,*7E
$GPRMC,042107.0,A,3443.4880,N,08633.1329,W,,,151119,,*1E
$GPGGA,042137.0,3443.4880,N,08633.1328,W,1,,,215.2,M,,M,,*7B
$GPRMC,042137.0,A,3443.4880,N,08633.1328,W,,,151119,,*1C
$GPGGA,042207.0,3443.4877,N,08633.1324,W,1,,,215.2,M,,M,,*7F
$GPRMC,042207.0,A,3443.4877,N,08633.1324,W,,,151119,,*18
$GPGGA,042237.0,3443.4877,N,08633.1324,W,1,,,215.3,M,,M,,*7D
$GPRMC,042237.0,A,3443.4877,N,08633.1324,W,,,151119,,*1B
$GPGGA,042307.0,3443.4877,N,08633.1324,W,1,,,215.5,M,,M,,*79
$GPRMC,042307.0,A,3443.4877,N,08633.1324,W,,,151119,,*19
$GPGGA,042337.0,3443.4877,N,08633.1324,W,1,,,215.8,M,,M,,*77
$GPRMC,042337.0,A,3443.4877,N,08633.1324,W,,,151119,,*1A
$GPGGA,042407.0,3443.4877,N,08633.1325,W,1,,,216.0,M,,M,,*79
$GPRMC,042407.0,A,3443.4877,N,08633.1325,W,,,151119,,*1F
$GPGGA,042437.0,3443.4870,N,08633.1326,W,1,,,217.6,M,,M,,*79
$GPRMC,042437.0,A,3443.4870,N,08633.1326,W,,,151119,,*18
$GPGGA,042507.0,3443.4870,N,08633.1326,W,1,,,217.9,M,,M,,*74
$GPRMC,042507.0,A,3443.4870,N,08633.1326,W,,,151119,,*1A
$GPGGA,042537.0,3443.4870,N,08633.1324,W,1,,,218.3,M,,M,,*70
$GPRMC,042537.0,A,3443.4870,N,08633.1324,W,,,151119,,*1B
$GPGGA,042607.0,3443.4871,N,08633.1323,W,1,,,218.4,M,,M,,*71
$GPRMC,042607.0,A,3443.4871,N,08633.1323,W,,,151119,,*1D
$GPGGA,042637.0,3443.4871,N,08633.1322,W,1,,,218.0,M,,M,,*77
$GPRMC,042637.0,A,3443.4871,N,08633.1322,W,,,151119,,*1F
$GPGGA,042707.0,3443.4872,N,08633.1322,W,1,,,218.1,M,,M,,*77
$GPRMC,042707.0,A,3443.4872,N,08633.1322,W,,,151119,,*1E
$GPGGA,042737.0,3443.4872,N,08633.1322,W,1,,,218.1,M,,M,,*74
$GPRMC,042737.0,A,3443.4872,N,08633.1322,W,,,151119,,*1D
$GPGGA,042807.0,3443.4873,N,08633.1322,W,1,,,218.0,M,,M,,*78
$GPRMC,042807.0,A,3443.4873,N,08633.1322,W,,,151119,,*10
$GPGGA,042837.0,3443.4867,N,08633.1329,W,1,,,217.8,M,,M,,*72
$GPRMC,042837.0,A,3443.4867,N,08633.1329,W,,,151119,,*1D
$GPGGA,042907.0,3443.4868,N,08633.1329,W,1,,,217.5,M,,M,,*72
$GPRMC,042907.0,A,3443.4868,N,08633.1329,W,,,151119,,*10
$GPGGA,042937.0,3443.4868,N,08633.1329,W,1,,,217.1,M,,M,,*75
$GPRMC,042937.0,A,3443.4868,N,08633.1329,W,,,151119,,*13
$GPGGA,043007.0,3443.4868,N,08633.1329,W,1,,,216.4,M,,M,,*7A
$GPRMC,043007.0,A,3443.4868,N,08633.1329,W,,,151119,,*18
$GPGGA,043037.0,3443.4868,N,08633.1329,W,1,,,216.2,M,,M,,*7F
$GPRMC,043037.0,A,3443.4868,N,08633.1329,W,,,151119,,*1B
$GPGGA,043107.0,3443.4869,N,08633.1329,W,1,,,216.6,M,,M,,*78
$GPRMC,043107.0,A,3443.4869,N,08633.1329,W,,,151119,,*18
$GPGGA,043137.0,3443.4869,N,08633.1328,W,1,,,217.2,M,,M,,*7F
$GPRMC,043137.0,A,3443.4869,N,08633.1328,W,,,151119,,*1A
$GPGGA,043207.1,3443.4869,N,08633.1327,W,1,,,216.8,M,,M,,*7A
$GPRMC,043207.1,A,3443.4869,N,08633.1327,W,,,151119,,*14
$GPGGA,043237.0,3443.4869,N,08633.1327,W,1,,,216.4,M,,M,,*74
$GPRMC,043237.0,A,3443.4869,N,08633.1327,W,,,151119,,*16
$GPGGA,043307.0,3443.4869,N,08633.1327,W,1,,,216.6,M,,M,,*74
$GPRMC,043307.0,A,3443.4869,N,08633.1327,W,,,151119,,*14
$GPGGA,043337.0,3443.4869,N,08633.1328,W,1,,,217.1,M,,M,,*7E
$GPRMC,043337.0,A,3443.4869,N,08633.1328,W,,,151119,,*18
$GPGGA,043407.0,3443.4869,N,08633.1327,W,1,,,217.2,M,,M,,*76
$GPRMC,043407.0,A,3443.4869,N,08633.1327,W,,,151119,,*13
$GPGGA,043437.0,3443.4869,N,08633.1327,W,1,,,217.4,M,,M,,*73
$GPRMC,043437.0,A,3443.4869,N,08633.1327,W,,,151119,,*10
$GPGGA,043507.0,3443.4869,N,08633.1327,W,1,,,217.6,M,,M,,*73
$GPRMC,043507.0,A,3443.4869,N,08633.1327,W,,,151119,,*12
$GPGGA,043537.0,3443.4869,N,08633.1327,W,1,,,217.8,M,,M,,*7E
$GPRMC,043537.0,A,3443.4869,N,08633.1327,W,,,151119,,*11
$GPGGA,043607.0,3443.4869,N,08633.1326,W,1,,,217.7,M,,M,,*70
$GPRMC,043607.0,A,3443.4869,N,08633.1326,W,,,151119,,*10
$GPGGA,043637.0,3443.4870,N,08633.1325,W,1,,,217.2,M,,M,,*7D
$GPRMC,043637.0,A,3443.4870,N,08633.1325,W,,,151119,,*18
$GPGGA,043707.0,3443.4870,N,08633.1325,W,1,,,216.8,M,,M,,*74
$GPRMC,043707.0,A,3443.4870,N,08633.1325,W,,,151119,,*1A
$GPGGA,043737.0,3443.4870,N,08633.1325,W,1,,,217.1,M,,M,,*7F
$GPRMC,043737.0,A,3443.4870,N,08633.1325,W,,,151119,,*19
$GPGGA,043807.0,3443.4870,N,08633.1325,W,1,,,217.6,M,,M,,*74
$GPRMC,043807.0,A,3443.4870,N,08633.1325,W,,,151119,,*15
$GPGGA,043837.0,3443.4870,N,08633.1325,W,1,,,217.2,M,,M,,*73
$GPRMC,043837.0,A,3443.4870,N,08633.1325,W,,,151119,,*16
$GPGGA,043907.0,3443.4870,N,08633.1325,W,1,,,216.7,M,,M,,*75
$GPRMC,043907.0,A,3443.4870,N,08633.1325,W,,,151119,,*14
$GPGGA,043937.0,3443.4870,N,08633.1325,W,1,,,216.6,M,,M,,*77
$GPRMC,043937.0,A,3443.4870,N,08633.1325,W,,,151119,,*17
$GPGGA,044007.0,3443.4870,N,08633.1324,W,1,,,216.5,M,,M,,*78
$GPRMC,044007.0,A,3443.4870,N,08633.1324,W,,,151119,,*1B
$GPGGA,044037.0,3443.4870,N,08633.1324,W,1,,,216.3,M,,M,,*7D
$GPRMC,044037.0,A,3443.4870,N,08633.1324,W,,,151119,,*18
$GPGGA,044107.0,3443.4870,N,08633.1324,W,1,,,215.9,M,,M,,*76
$GPRMC,044107.0,A,3443.4870,N,08633.1324,W,,,151119,,*1A
$GPGGA,044137.0,3443.4870,N,08633.1323,W,1,,,215.6,M,,M,,*7D
$GPRMC,044137.0,A,3443.4870,N,08633.1323,W,,,151119,,*1E
$GPGGA,044207.0,3443.4870,N,08633.1323,W,1,,,215.6,M,,M,,*7D
$GPRMC,044207.0,A,3443.4870,N,08633.1323,W,,,151119,,*1E
$GPGGA,044237.0,3443.4870,N,08633.1323,W,1,,,215.6,M,,M,,*7E
$GPRMC,044237.0,A,3443.4870,N,08633.1323,W,,,151119,,*1D
$GPGGA,044307.0,3443.4870,N,08633.1323,W,1,,,215.8,M,,M,,*72
$GPRMC,044307.0,A,3443.4870,N,08633.1323,W,,,151119,,*1F
$GPGGA,044337.0,3443.4870,N,08633.1323,W,1,,,216.1,M,,M,,*7B
$GPRMC,044337.0,A,3443.4870,N,08633.1323,W,,,151119,,*1C
$GPGGA,044407.0,3443.4870,N,08633.1323,W,1,,,216.1,M,,M,,*7F
$GPRMC,044407.0,A,3443.4870,N,08633.1323,W,,,151119,,*18
$GPGGA,044437.0,3443.4870,N,08633.1323,W,1,,,216.1,M,,M,,*7C
$GPRMC,044437.0,A,3443.4870,N,08633.1323,W,,,151119,,*1B
$GPGGA,044507.0,3443.4871,N,08633.1325,W,1,,,215.7,M,,M,,*7C
$GPRMC,044507.0,A,3443.4871,N,08633.1325,W,,,151119,,*1E
$GPGGA,044537.0,3443.4871,N,08633.1324,W,1,,,216.7,M,,M,,*7D
$GPRMC,044537.0,A,3443.4871,N,08633.1324,W,,,151119,,*1C
$GPGGA,044607.0,3443.4867,N,08633.1322,W,1,,,218.8,M,,M,,*7D
$GPRMC,044607.0,A,3443.4867,N,08633.1322,W,,,151119,,*1D
$GPGGA,044637.0,3443.4866,N,08633.1323,W,1,,,226.0,M,,M,,*7B
$GPRMC,044637.0,A,3443.4866,N,08633.1323,W,,,151119,,*1E
$GPGGA,044707.0,3443.4866,N,08633.1323,W,1,,,226.4,M,,M,,*7D
$GPRMC,044707.0,A,3443.4866,N,08633.1323,W,,,151119,,*1C
$GPGGA,044737.0,3443.4865,N,08633.1323,W,1,,,228.5,M,,M,,*72
$GPRMC,044737.0,A,3443.4865,N,08633.1323,W,,,151119,,*1C
$GPGGA,044807.0,3443.4866,N,08633.1323,W,1,,,226.1,M,,M,,*77
$GPRMC,044807.0,A,3443.4866,N,08633.1323,W,,,151119,,*13
$GPGGA,044837.0,3443.4865,N,08633.1324,W,1,,,226.8,M,,M,,*79
$GPRMC,044837.0,A,3443.4865,N,08633.1324,W,,,151119,,*14
$GPGGA,044907.0,3443.4865,N,08633.1324,W,1,,,227.1,M,,M,,*73
$GPRMC,044907.0,A,3443.4865,N,08633.1324,W,,,151119,,*16
$GPGGA,044937.0,3443.4864,N,08633.1324,W,1,,,227.4,M,,M,,*74
$GPRMC,044937.0,A,3443.4864,N,08633.1324,W,,,151119,,*14
$GPGGA,045007.0,3443.4865,N,08633.1324,W,1,,,225.6,M,,M,,*7E
$GPRMC,045007.0,A,3443.4865,N,08633.1324,W,,,151119,,*1E
$GPGGA,045037.0,3443.4865,N,08633.1323,W,1,,,223.4,M,,M,,*7E
$GPRMC,045037.0,A,3443.4865,N,08633.1323,W,,,151119,,*1A
$GPGGA,045107.0,3443.4869,N,08633.1325,W,1,,,223.1,M,,M,,*73
$GPRMC,045107.0,A,3443.4869,N,08633.1325,W,,,151119,,*12
$GPGGA,045137.0,3443.4870,N,08633.1324,W,1,,,221.8,M,,M,,*72
$GPRMC,045137.0,A,3443.4870,N,08633.1324,W,,,151119,,*18
$GPGGA,045207.0,3443.4871,N,08633.1322,W,1,,,220.9,M,,M,,*75
$GPRMC,045207.0,A,3443.4871,N,08633.1322,W,,,151119,,*1F
$GPGGA,045237.0,3443.4872,N,08633.1321,W,1,,,220.8,M,,M,,*77
$GPRMC,045237.0,A,3443.4872,N,08633.1321,W,,,151119,,*1C
$GPGGA,045307.0,3443.4871,N,08633.1322,W,1,,,221.2,M,,M,,*7E
$GPRMC,045307.0,A,3443.4871,N,08633.1322,W,,,151119,,*1E
$GPGGA,045337.0,3443.4870,N,08633.1322,W,1,,,221.5,M,,M,,*7B
$GPRMC,045337.0,A,3443.4870,N,08633.1322,W,,,151119,,*1C
$GPGGA,045407.0,3443.4869,N,08633.1322,W,1,,,221.6,M,,M,,*74
$GPRMC,045407.0,A,3443.4869,N,08633.1322,W,,,151119,,*10
$GPGGA,045437.0,3443.4869,N,08633.1321,W,1,,,221.7,M,,M,,*75
$GPRMC,045437.0,A,3443.4869,N,08633.1321,W,,,151119,,*10
$GPGGA,045507.0,3443.4869,N,08633.1321,W,1,,,221.1,M,,M,,*71
$GPRMC,045507.0,A,3443.4869,N,08633.1321,W,,,151119,,*12
$GPGGA,045537.0,3443.4870,N,08633.1319,W,1,,,219.7,M,,M,,*7C
$GPRMC,045537.0,A,3443.4870,N,08633.1319,W,,,151119,,*12
$GPGGA,045607.0,3443.4870,N,08633.1318,W,1,,,219.1,M,,M,,*7B
$GPRMC,045607.0,A,3443.4870,N,08633.1318,W,,,151119,,*13
$GPGGA,045637.0,3443.4870,N,08633.1317,W,1,,,218.8,M,,M,,*7F
$GPRMC,045637.0,A,3443.4870,N,08633.1317,W,,,151119,,*1F
$GPGGA,045707.0,3443.4870,N,08633.1317,W,1,,,218.3,M,,M,,*76
$GPRMC,045707.0,A,3443.4870,N,08633.1317,W,,,151119,,*1D
$GPGGA,045737.0,3443.4869,N,08633.1317,W,1,,,219.0,M,,M,,*7F
$GPRMC,045737.0,A,3443.4869,N,08633.1317,W,,,151119,,*16
$GPGGA,045807.0,3443.4866,N,08633.1320,W,1,,,218.7,M,,M,,*7E
$GPRMC,045807.0,A,3443.4866,N,08633.1320,W,,,151119,,*11
$GPGGA,045837.0,3443.4866,N,08633.1321,W,1,,,219.2,M,,M,,*78
$GPRMC,045837.0,A,3443.4866,N,08633.1321,W,,,151119,,*13
$GPGGA,045907.0,3443.4865,N,08633.1322,W,1,,,219.5,M,,M,,*7D
$GPRMC,045907.0,A,3443.4865,N,08633.1322,W,,,151119,,*11
$GPGGA,045937.0,3443.4864,N,08633.1323,W,1,,,220.0,M,,M,,*71
$GPRMC,045937.0,A,3443.4864,N,08633.1323,W,,,151119,,*12
$GPGGA,050007.0,3443.4864,N,08633.1324,W,1,,,220.5,M,,M,,*7D
$GPRMC,050007.0,A,3443.4864,N,08633.1324,W,,,151119,,*1B
$GPGGA,050037.0,3443.4882,N,08633.1324,W,1,,,218.2,M,,M,,*7A
$GPRMC,050037.0,A,3443.4882,N,08633.1324,W,,,151119,,*10
$GPGGA,050107.0,3443.4883,N,08633.1324,W,1,,,218.9,M,,M,,*72
$GPRMC,050107.0,A,3443.4883,N,08633.1324,W,,,151119,,*13
$GPGGA,050137.0,3443.4883,N,08633.1324,W,1,,,219.5,M,,M,,*7C
$GPRMC,050137.0,A,3443.4883,N,08633.1324,W,,,151119,,*10
$GPGGA,050207.0,3443.4882,N,08633.1324,W,1,,,220.4,M,,M,,*76
$GPRMC,050207.0,A,3443.4882,N,08633.1324,W,,,151119,,*11
$GPGGA,050237.0,3443.4881,N,08633.1324,W,1,,,221.3,M,,M,,*70
$GPRMC,050237.0,A,3443.4881,N,08633.1324,W,,,151119,,*11
$GPGGA,050307.0,3443.4881,N,08633.1325,W,1,,,221.8,M,,M,,*78
$GPRMC,050307.0,A,3443.4881,N,08633.1325,W,,,151119,,*12
$GPGGA,050337.1,3443.4881,N,08633.1325,W,1,,,221.9,M,,M,,*7B
$GPRMC,050337.1,A,3443.4881,N,08633.1325,W,,,151119,,*10
$GPGGA,050407.0,3443.4880,N,08633.1325,W,1,,,222.2,M,,M,,*77
$GPRMC,050407.0,A,3443.4880,N,08633.1325,W,,,151119,,*14
$GPGGA,050437.0,3443.4880,N,08633.1323,W,1,,,221.3,M,,M,,*70
$GPRMC,050437.0,A,3443.4880,N,08633.1323,W,,,151119,,*11
$GPGGA,050507.0,3443.4880,N,08633.1322,W,1,,,219.8,M,,M,,*73
$GPRMC,050507.0,A,3443.4880,N,08633.1322,W,,,151119,,*12
$GPGGA,050537.0,3443.4880,N,08633.1321,W,1,,,220.2,M,,M,,*73
$GPRMC,050537.0,A,3443.4880,N,08633.1321,W,,,151119,,*12
$GPGGA,050607.0,3443.4877,N,08633.1321,W,1,,,223.6,M,,M,,*7C
$GPRMC,050607.0,A,3443.4877,N,08633.1321,W,,,151119,,*1A
$GPGGA,050637.0,3443.4876,N,08633.1320,W,1,,,222.3,M,,M,,*7B
$GPRMC,050637.0,A,3443.4876,N,08633.1320,W,,,151119,,*19
$GPGGA,050707.0,3443.4876,N,08633.1321,W,1,,,221.4,M,,M,,*7C
$GPRMC,050707.0,A,3443.4876,N,08633.1321,W,,,151119,,*1A
$GPGGA,050737.0,3443.4878,N,08633.1321,W,1,,,220.6,M,,M,,*72
$GPRMC,050737.0,A,3443.4878,N,08633.1321,W,,,151119,,*17
$GPGGA,050807.0,3443.4872,N,08633.1315,W,1,,,219.9,M,,M,,*76
$GPRMC,050807.0,A,3443.4872,N,08633.1315,W,,,151119,,*16
$GPGGA,050837.0,3443.4870,N,08633.1316,W,1,,,220.0,M,,M,,*77
$GPRMC,050837.0,A,3443.4870,N,08633.1316,W,,,151119,,*14
$GPGGA,050907.0,3443.4872,N,08633.1316,W,1,,,220.5,M,,M,,*72
$GPRMC,050907.0,A,3443.4872,N,08633.1316,W,,,151119,,*14
$GPGGA,050937.0,3443.4871,N,08633.1317,W,1,,,221.1,M,,M,,*76
$GPRMC,050937.0,A,3443.4871,N,08633.1317,W,,,151119,,*15
$GPGGA,051007.0,3443.4871,N,08633.1316,W,1,,,220.6,M,,M,,*7A
$GPRMC,051007.0,A,3443.4871,N,08633.1316,W,,,151119,,*1F
$GPGGA,051037.0,3443.4872,N,08633.1315,W,1,,,220.2,M,,M,,*7D
$GPRMC,051037.0,A,3443.4872,N,08633.1315,W,,,151119,,*1C
$GPGGA,051107.0,3443.4872,N,08633.1314,W,1,,,218.7,M,,M,,*70
$GPRMC,051107.0,A,3443.4872,N,08633.1314,W,,,151119,,*1F
$GPGGA,051137.0,3443.4873,N,08633.1313,W,1,,,218.0,M,,M,,*72
$GPRMC,051137.0,A,3443.4873,N,08633.1313,W,,,151119,,*1A
$GPGGA,051207.0,3443.4873,N,08633.1312,W,1,,,217.8,M,,M,,*74
$GPRMC,051207.0,A,3443.4873,N,08633.1312,W,,,151119,,*1B
$GPGGA,051237.0,3443.4873,N,08633.1312,W,1,,,217.6,M,,M,,*79
$GPRMC,051237.0,A,3443.4873,N,08633.1312,W,,,151119,,*18
$GPGGA,051307.0,3443.4873,N,08633.1312,W,1,,,217.4,M,,M,,*79
$GPRMC,051307.0,A,3443.4873,N,08633.1312,W,,,151119,,*1A
$GPGGA,051337.0,3443.4873,N,08633.1313,W,1,,,217.8,M,,M,,*77
$GPRMC,051337.0,A,3443.4873,N,08633.1313,W,,,151119,,*18
$GPGGA,051407.0,3443.4873,N,08633.1313,W,1,,,218.2,M,,M,,*76
$GPRMC,051407.0,A,3443.4873,N,08633.1313,W,,,151119,,*1C
$GPGGA,051437.0,3443.4872,N,08633.1313,W,1,,,218.8,M,,M,,*7E
$GPRMC,051437.0,A,3443.4872,N,08633.1313,W,,,151119,,*1E
$GPGGA,051507.0,3443.4872,N,08633.1312,W,1,,,218.9,M,,M,,*7C
$GPRMC,051507.0,A,3443.4872,N,08633.1312,W,,,151119,,*1D
$GPGGA,051537.0,3443.4871,N,08633.1313,W,1,,,219.2,M,,M,,*77
$GPRMC,051537.0,A,3443.4871,N,08633.1313,W,,,151119,,*1C
$GPGGA,051607.0,3443.4881,N,08633.1304,W,1,,,217.0,M,,M,,*72
$GPRMC,051607.0,A,3443.4881,N,08633.1304,W,,,151119,,*15
$GPGGA,051637.0,3443.4883,N,08633.1302,W,1,,,211.5,M,,M,,*76
$GPRMC,051637.0,A,3443.4883,N,08633.1302,W,,,151119,,*12
$GPGGA,051707.0,3443.4885,N,08633.1301,W,1,,,211.9,M,,M,,*7D
$GPRMC,051707.0,A,3443.4885,N,08633.1301,W,,,151119,,*15
$GPGGA,051737.0,3443.4886,N,08633.1300,W,1,,,213.1,M,,M,,*76
$GPRMC,051737.0,A,3443.4886,N,08633.1300,W,,,151119,,*14
$GPGGA,051807.0,3443.4886,N,08633.1303,W,1,,,215.7,M,,M,,*79
$GPRMC,051807.0,A,3443.4886,N,08633.1303,W,,,151119,,*1B
$GPGGA,051837.0,3443.4885,N,08633.1305,W,1,,,218.0,M,,M,,*75
$GPRMC,051837.0,A,3443.4885,N,08633.1305,W,,,151119,,*1D
$GPGGA,051907.0,3443.4886,N,08633.1307,W,1,,,218.8,M,,M,,*7E
$GPRMC,051907.0,A,3443.4886,N,08633.1307,W,,,151119,,*1E
$GPGGA,051937.0,3443.4886,N,08633.1308,W,1,,,218.6,M,,M,,*7C
$GPRMC,051937.0,A,3443.4886,N,08633.1308,W,,,151119,,*12
$GPGGA,052007.0,3443.4886,N,08633.1308,W,1,,,218.4,M,,M,,*77
$GPRMC,052007.0,A,3443.4886,N,08633.1308,W,,,151119,,*1B
$GPGGA,052037.0,3443.4887,N,08633.1309,W,1,,,218.2,M,,M,,*72
$GPRMC,052037.0,A,3443.4887,N,08633.1309,W,,,151119,,*18
$GPGGA,052107.0,3443.4887,N,08633.1309,W,1,,,218.1,M,,M,,*73
$GPRMC,052107.0,A,3443.4887,N,08633.1309,W,,,151119,,*1A
$GPGGA,052137.0,3443.4887,N,08633.1309,W,1,,,218.6,M,,M,,*77
$GPRMC,052137.0,A,3443.4887,N,08633.1309,W,,,151119,,*19
$GPGGA,052207.0,3443.4887,N,08633.1310,W,1,,,219.2,M,,M,,*7A
$GPRMC,052207.0,A,3443.4887,N,08633.1310,W,,,151119,,*11
$GPGGA,052237.0,3443.4880,N,08633.1311,W,1,,,219.9,M,,M,,*74
$GPRMC,052237.0,A,3443.4880,N,08633.1311,W,,,151119,,*14
$GPGGA,052307.0,3443.4877,N,08633.1319,W,1,,,223.5,M,,M,,*73
$GPRMC,052307.0,A,3443.4877,N,08633.1319,W,,,151119,,*16
$GPGGA,052337.0,3443.4878,N,08633.1320,W,1,,,225.7,M,,M,,*71
$GPRMC,052337.0,A,3443.4878,N,08633.1320,W,,,151119,,*10
$GPGGA,052407.0,3443.4880,N,08633.1321,W,1,,,221.4,M,,M,,*74
$GPRMC,052407.0,A,3443.4880,N,08633.1321,W,,,151119,,*12
$GPGGA,052437.0,3443.4886,N,08633.1335,W,1,,,224.5,M,,M,,*70
$GPRMC,052437.0,A,3443.4886,N,08633.1335,W,,,151119,,*12
$GPGGA,052507.0,3443.4888,N,08633.1334,W,1,,,225.2,M,,M,,*7B
$GPRMC,052507.0,A,3443.4888,N,08633.1334,W,,,151119,,*1F
$GPGGA,052537.0,3443.4889,N,08633.1335,W,1,,,227.7,M,,M,,*7F
$GPRMC,052537.0,A,3443.4889,N,08633.1335,W,,,151119,,*1C
$GPGGA,052607.0,3443.4889,N,08633.1336,W,1,,,228.3,M,,M,,*77
$GPRMC,052607.0,A,3443.4889,N,08633.1336,W,,,151119,,*1F
$GPGGA,052637.0,3443.4889,N,08633.1336,W,1,,,226.9,M,,M,,*70
$GPRMC,052637.0,A,3443.4889,N,08633.1336,W,,,151119,,*1C
$GPGGA,052707.0,3443.4872,N,08633.1331,W,1,,,229.3,M,,M,,*74
$GPRMC,052707.0,A,3443.4872,N,08633.1331,W,,,151119,,*1D
$GPGGA,052737.0,3443.4870,N,08633.1329,W,1,,,229.4,M,,M,,*7B
$GPRMC,052737.0,A,3443.4870,N,08633.1329,W,,,151119,,*15
$GPGGA,052807.0,3443.4870,N,08633.1329,W,1,,,230.1,M,,M,,*7A
$GPRMC,052807.0,A,3443.4870,N,08633.1329,W,,,151119,,*19
$GPGGA,052837.0,3443.4869,N,08633.1330,W,1,,,232.9,M,,M,,*73
$GPRMC,052837.0,A,3443.4869,N,08633.1330,W,,,151119,,*1A
$GPGGA,052907.0,3443.4867,N,08633.1330,W,1,,,235.7,M,,M,,*76
$GPRMC,052907.0,A,3443.4867,N,08633.1330,W,,,151119,,*16
$GPGGA,052937.0,3443.4867,N,08633.1328,W,1,,,234.0,M,,M,,*7A
$GPRMC,052937.0,A,3443.4867,N,08633.1328,W,,,151119,,*1C
$GPGGA,053007.0,3443.4866,N,08633.1327,W,1,,,233.1,M,,M,,*79
$GPRMC,053007.0,A,3443.4866,N,08633.1327,W,,,151119,,*19
$GPGGA,053037.0,3443.4867,N,08633.1326,W,1,,,230.5,M,,M,,*7D
$GPRMC,053037.0,A,3443.4867,N,08633.1326,W,,,151119,,*1A
$GPGGA,053107.0,3443.4867,N,08633.1327,W,1,,,229.6,M,,M,,*75
$GPRMC,053107.0,A,3443.4867,N,08633.1327,W,,,151119,,*19
$GPGGA,053137.0,3443.4867,N,08633.1327,W,1,,,228.7,M,,M,,*76
$GPRMC,053137.0,A,3443.4867,N,08633.1327,W,,,151119,,*1A
$GPGGA,053207.0,3443.4871,N,08633.1330,W,1,,,228.2,M,,M,,*72
$GPRMC,053207.0,A,3443.4871,N,08633.1330,W,,,151119,,*1B
$GPGGA,053237.0,3443.4870,N,08633.1330,W,1,,,228.4,M,,M,,*76
$GPRMC,053237.0,A,3443.4870,N,08633.1330,W,,,151119,,*19
$GPGGA,053307.0,3443.4870,N,08633.1330,W,1,,,228.8,M,,M,,*78
$GPRMC,053307.0,A,3443.4870,N,08633.1330,W,,,151119,,*1B
$GPGGA,053337.0,3443.4869,N,08633.1330,W,1,,,229.5,M,,M,,*7F
$GPRMC,053337.0,A,3443.4869,N,08633.1330,W,,,151119,,*10
$GPGGA,053407.0,3443.4854,N,08633.1333,W,1,,,230.1,M,,M,,*7A
$GPRMC,053407.0,A,3443.4854,N,08633.1333,W,,,151119,,*19
$GPGGA,053437.0,3443.4855,N,08633.1333,W,1,,,230.2,M,,M,,*7B
$GPRMC,053437.0,A,3443.4855,N,08633.1333,W,,,151119,,*1B
$GPGGA,053507.0,3443.4856,N,08633.1334,W,1,,,230.3,M,,M,,*7C
$GPRMC,053507.0,A,3443.4856,N,08633.1334,W,,,151119,,*1D
$GPGGA,053537.0,3443.4857,N,08633.1333,W,1,,,229.8,M,,M,,*7A
$GPRMC,053537.0,A,3443.4857,N,08633.1333,W,,,151119,,*18
$GPGGA,053607.0,3443.4857,N,08633.1333,W,1,,,229.3,M,,M,,*71
$GPRMC,053607.0,A,3443.4857,N,08633.1333,W,,,151119,,*18
$GPGGA,053637.0,3443.4858,N,08633.1333,W,1,,,229.1,M,,M,,*7F
$GPRMC,053637.0,A,3443.4858,N,08633.1333,W,,,151119,,*14
$GPGGA,053707.0,3443.4859,N,08633.1333,W,1,,,229.1,M,,M,,*7C
$GPRMC,053707.0,A,3443.4859,N,08633.1333,W,,,151119,,*17
$GPGGA,053737.0,3443.4860,N,08633.1332,W,1,,,229.3,M,,M,,*76
$GPRMC,053737.0,A,3443.4860,N,08633.1332,W,,,151119,,*1F
$GPGGA,053807.0,3443.4862,N,08633.1332,W,1,,,229.8,M,,M,,*73
$GPRMC,053807.0,A,3443.4862,N,08633.1332,W,,,151119,,*11
$GPGGA,053837.0,3443.4864,N,08633.1332,W,1,,,230.2,M,,M,,*74
$GPRMC,053837.0,A,3443.4864,N,08633.1332,W,,,151119,,*14
$GPGGA,053907.0,3443.4864,N,08633.1331,W,1,,,230.6,M,,M,,*71
$GPRMC,053907.0,A,3443.4864,N,08633.1331,W,,,151119,,*15
$GPGGA,053937.0,3443.4864,N,08633.1331,W,1,,,231.6,M,,M,,*73
$GPRMC,053937.0,A,3443.4864,N,08633.1331,W,,,151119,,*16
$GPGGA,054007.0,3443.4893,N,08633.1309,W,1,,,231.6,M,,M,,*7D
$GPRMC,054007.0,A,3443.4893,N,08633.1309,W,,,151119,,*18
$GPGGA,054037.1,3443.4893,N,08633.1306,W,1,,,230.8,M,,M,,*7F
$GPRMC,054037.1,A,3443.4893,N,08633.1306,W,,,151119,,*15
$GPGGA,054107.0,3443.4894,N,08633.1307,W,1,,,231.6,M,,M,,*75
$GPRMC,054107.0,A,3443.4894,N,08633.1307,W,,,151119,,*10
$GPGGA,054137.0,3443.4893,N,08633.1308,W,1,,,231.9,M,,M,,*71
$GPRMC,054137.0,A,3443.4893,N,08633.1308,W,,,151119,,*1B
$GPGGA,054207.0,3443.4894,N,08633.1308,W,1,,,231.8,M,,M,,*77
$GPRMC,054207.0,A,3443.4894,N,08633.1308,W,,,151119,,*1C
$GPGGA,054237.0,3443.4895,N,08633.1309,W,1,,,231.1,M,,M,,*7D
$GPRMC,054237.0,A,3443.4895,N,08633.1309,W,,,151119,,*1F
$GPGGA,054307.0,3443.4896,N,08633.1309,W,1,,,230.6,M,,M,,*7A
$GPRMC,054307.0,A,3443.4896,N,08633.1309,W,,,151119,,*1E
$GPGGA,054337.0,3443.4897,N,08633.1309,W,1,,,230.1,M,,M,,*7F
$GPRMC,054337.0,A,3443.4897,N,08633.1309,W,,,151119,,*1C
$GPGGA,054407.0,3443.4899,N,08633.1308,W,1,,,229.9,M,,M,,*74
$GPRMC,054407.0,A,3443.4899,N,08633.1308,W,,,151119,,*17
$GPGGA,054437.0,3443.4901,N,08633.1307,W,1,,,229.7,M,,M,,*76
$GPRMC,054437.0,A,3443.4901,N,08633.1307,W,,,151119,,*1B
$GPGGA,054507.0,3443.4903,N,08633.1307,W,1,,,229.1,M,,M,,*70
$GPRMC,054507.0,A,3443.4903,N,08633.1307,W,,,151119,,*1B
$GPGGA,054537.0,3443.4904,N,08633.1307,W,1,,,228.6,M,,M,,*72
$GPRMC,054537.0,A,3443.4904,N,08633.1307,W,,,151119,,*1F
$GPGGA,054607.0,3443.4904,N,08633.1307,W,1,,,228.4,M,,M,,*70
$GPRMC,054607.0,A,3443.4904,N,08633.1307,W,,,151119,,*1F
$GPGGA,054637.0,3443.4903,N,08633.1307,W,1,,,228.2,M,,M,,*72
$GPRMC,054637.0,A,3443.4903,N,08633.1307,W,,,151119,,*1B
$GPGGA,054707.0,3443.4903,N,08633.1307,W,1,,,227.9,M,,M,,*74
$GPRMC,054707.0,A,3443.4903,N,08633.1307,W,,,151119,,*19
$GPGGA,054737.0,3443.4903,N,08633.1308,W,1,,,227.6,M,,M,,*77
$GPRMC,054737.0,A,3443.4903,N,08633.1308,W,,,151119,,*15
$GPGGA,054807.0,3443.4902,N,08633.1308,W,1,,,227.0,M,,M,,*7C
$GPRMC,054807.0,A,3443.4902,N,08633.1308,W,,,151119,,*18
$GPGGA,054837.0,3443.4902,N,08633.1309,W,1,,,226.4,M,,M,,*7B
$GPRMC,054837.0,A,3443.4902,N,08633.1309,W,,,151119,,*1A
$GPGGA,054907.0,3443.4902,N,08633.1309,W,1,,,226.5,M,,M,,*78
$GPRMC,054907.0,A,3443.4902,N,08633.1309,W,,,151119,,*18
$GPGGA,054937.0,3443.4900,N,08633.1315,W,1,,,224.4,M,,M,,*77
$GPRMC,054937.0,A,3443.4900,N,08633.1315,W,,,151119,,*14
$GPGGA,055007.0,3443.4899,N,08633.1310,W,1,,,224.8,M,,M,,*74
$GPRMC,055007.0,A,3443.4899,N,08633.1310,W,,,151119,,*1B
$GPGGA,055037.0,3443.4897,N,08633.1309,W,1,,,226.1,M,,M,,*7A
$GPRMC,055037.0,A,3443.4897,N,08633.1309,W,,,151119,,*1E
$GPGGA,055107.0,3443.4895,N,08633.1307,W,1,,,228.6,M,,M,,*7D
$GPRMC,055107.0,A,3443.4895,N,08633.1307,W,,,151119,,*10
$GPGGA,055137.0,3443.4894,N,08633.1306,W,1,,,228.5,M,,M,,*7D
$GPRMC,055137.0,A,3443.4894,N,08633.1306,W,,,151119,,*13
$GPGGA,055207.1,3443.4895,N,08633.1304,W,1,,,225.6,M,,M,,*71
$GPRMC,055207.1,A,3443.4895,N,08633.1304,W,,,151119,,*11
$GPGGA,055237.0,3443.4895,N,08633.1303,W,1,,,223.9,M,,M,,*7D
$GPRMC,055237.0,A,3443.4895,N,08633.1303,W,,,151119,,*14
$GPGGA,055307.0,3443.4896,N,08633.1305,W,1,,,223.8,M,,M,,*7B
$GPRMC,055307.0,A,3443.4896,N,08633.1305,W,,,151119,,*13
$GPGGA,055337.0,3443.4896,N,08633.1304,W,1,,,222.5,M,,M,,*75
$GPRMC,055337.0,A,3443.4896,N,08633.1304,W,,,151119,,*11
$GPGGA,055407.0,3443.4896,N,08633.1304,W,1,,,222.0,M,,M,,*74
$GPRMC,055407.0,A,3443.4896,N,08633.1304,W,,,151119,,*15
$GPGGA,055437.0,3443.4897,N,08633.1302,W,1,,,218.9,M,,M,,*70
$GPRMC,055437.0,A,3443.4897,N,08633.1302,W,,,151119,,*11
$GPGGA,055507.0,3443.4909,N,08633.1296,W,1,,,221.6,M,,M,,*7D
$GPRMC,055507.0,A,3443.4909,N,08633.1296,W,,,151119,,*19
$GPGGA,055537.0,3443.4908,N,08633.1296,W,1,,,222.1,M,,M,,*7B
$GPRMC,055537.0,A,3443.4908,N,08633.1296,W,,,151119,,*1B
$GPGGA,055607.2,3443.4907,N,08633.1296,W,1,,,223.5,M,,M,,*73
$GPRMC,055607.2,A,3443.4907,N,08633.1296,W,,,151119,,*16
$GPGGA,055637.0,3443.4894,N,08633.1301,W,1,,,227.4,M,,M,,*73
$GPRMC,055637.0,A,3443.4894,N,08633.1301,W,,,151119,,*13
$GPGGA,055707.0,3443.4892,N,08633.1302,W,1,,,230.9,M,,M,,*7F
$GPRMC,055707.0,A,3443.4892,N,08633.1302,W,,,151119,,*14
$GPGGA,055737.0,3443.4889,N,08633.1302,W,1,,,232.9,M,,M,,*74
$GPRMC,055737.0,A,3443.4889,N,08633.1302,W,,,151119,,*1D
$GPGGA,055807.0,3443.4888,N,08633.1301,W,1,,,235.6,M,,M,,*72
$GPRMC,055807.0,A,3443.4888,N,08633.1301,W,,,151119,,*13
$GPGGA,055837.2,3443.4888,N,08633.1302,W,1,,,238.9,M,,M,,*72
$GPRMC,055837.2,A,3443.4888,N,08633.1302,W,,,151119,,*11
$GPGGA,055907.0,3443.4888,N,08633.1302,W,1,,,240.9,M,,M,,*7D
$GPRMC,055907.0,A,3443.4888,N,08633.1302,W,,,151119,,*11
$GPGGA,055937.0,3443.4888,N,08633.1302,W,1,,,242.2,M,,M,,*77
$GPRMC,055937.0,A,3443.4888,N,08633.1302,W,,,151119,,*12
$GPGGA,060007.0,3443.4887,N,08633.1302,W,1,,,242.9,M,,M,,*7F
$GPRMC,060007.0,A,3443.4887,N,08633.1302,W,,,151119,,*11
$GPGGA,060037.0,3443.4886,N,08633.1302,W,1,,,244.5,M,,M,,*77
$GPRMC,060037.0,A,3443.4886,N,08633.1302,W,,,151119,,*13
$GPGGA,060107.0,3443.4891,N,08633.1299,W,1,,,243.3,M,,M,,*71
$GPRMC,060107.0,A,3443.4891,N,08633.1299,W,,,151119,,*14
$GPGGA,060137.0,3443.4891,N,08633.1298,W,1,,,244.8,M,,M,,*7F
$GPRMC,060137.0,A,3443.4891,N,08633.1298,W,,,151119,,*16
$GPGGA,060207.0,3443.4891,N,08633.1298,W,1,,,245.5,M,,M,,*73
$GPRMC,060207.0,A,3443.4891,N,08633.1298,W,,,151119,,*16
$GPGGA,060237.0,3443.4892,N,08633.1298,W,1,,,244.6,M,,M,,*71
$GPRMC,060237.0,A,3443.4892,N,08633.1298,W,,,151119,,*16
$GPGGA,060307.0,3443.4891,N,08633.1299,W,1,,,243.7,M,,M,,*77
$GPRMC,060307.0,A,3443.4891,N,08633.1299,W,,,151119,,*16
$GPGGA,060337.1,3443.4890,N,08633.1299,W,1,,,242.3,M,,M,,*71
$GPRMC,060337.1,A,3443.4890,N,08633.1299,W,,,151119,,*15
$GPGGA,060407.0,3443.4888,N,08633.1303,W,1,,,242.5,M,,M,,*79
$GPRMC,060407.0,A,3443.4888,N,08633.1303,W,,,151119,,*1B
$GPGGA,060437.1,3443.4889,N,08633.1292,W,1,,,242.9,M,,M,,*7F
$GPRMC,060437.1,A,3443.4889,N,08633.1292,W,,,151119,,*11
$GPGGA,060507.0,3443.4889,N,08633.1292,W,1,,,243.7,M,,M,,*73
$GPRMC,060507.0,A,3443.4889,N,08633.1292,W,,,151119,,*12
$GPGGA,060537.0,3443.4890,N,08633.1294,W,1,,,243.5,M,,M,,*7C
$GPRMC,060537.0,A,3443.4890,N,08633.1294,W,,,151119,,*1F
$GPGGA,060607.1,3443.4890,N,08633.1294,W,1,,,243.4,M,,M,,*7C
$GPRMC,060607.1,A,3443.4890,N,08633.1294,W,,,151119,,*1E
$GPGGA,060637.1,3443.4889,N,08633.1294,W,1,,,242.7,M,,M,,*75
$GPRMC,060637.1,A,3443.4889,N,08633.1294,W,,,151119,,*15
$GPGGA,060707.0,3443.4888,N,08633.1288,W,1,,,242.8,M,,M,,*75
$GPRMC,060707.0,A,3443.4888,N,08633.1288,W,,,151119,,*1A
$GPGGA,060737.1,3443.4888,N,08633.1290,W,1,,,243.8,M,,M,,*7F
$GPRMC,060737.1,A,3443.4888,N,08633.1290,W,,,151119,,*11
$GPGGA,060807.0,3443.4895,N,08633.1295,W,1,,,244.2,M,,M,,*76
$GPRMC,060807.0,A,3443.4895,N,08633.1295,W,,,151119,,*15
$GPGGA,060837.0,3443.4895,N,08633.1296,W,1,,,244.6,M,,M,,*72
$GPRMC,060837.0,A,3443.4895,N,08633.1296,W,,,151119,,*15
$GPGGA,060907.2,3443.4895,N,08633.1295,W,1,,,244.1,M,,M,,*76
$GPRMC,060907.2,A,3443.4895,N,08633.1295,W,,,151119,,*16
$GPGGA,060937.0,3443.4896,N,08633.1295,W,1,,,243.7,M,,M,,*75
$GPRMC,060937.0,A,3443.4896,N,08633.1295,W,,,151119,,*14
$GPGGA,061007.1,3443.4897,N,08633.1296,W,1,,,242.9,M,,M,,*72
$GPRMC,061007.1,A,3443.4897,N,08633.1296,W,,,151119,,*1C
$GPGGA,061037.0,3443.4897,N,08633.1295,W,1,,,242.4,M,,M,,*7E
$GPRMC,061037.0,A,3443.4897,N,08633.1295,W,,,151119,,*1D
$GPGGA,061107.0,3443.4896,N,08633.1295,W,1,,,241.8,M,,M,,*72
$GPRMC,061107.0,A,3443.4896,N,08633.1295,W,,,151119,,*1E
$GPGGA,061137.0,3443.4896,N,08633.1296,W,1,,,241.3,M,,M,,*79
$GPRMC,061137.0,A,3443.4896,N,08633.1296,W,,,151119,,*1E
$GPGGA,061207.0,3443.4895,N,08633.1296,W,1,,,240.1,M,,M,,*79
$GPRMC,061207.0,A,3443.4895,N,08633.1296,W,,,151119,,*1D
$GPGGA,061237.0,3443.4895,N,08633.1296,W,1,,,239.3,M,,M,,*76
$GPRMC,061237.0,A,3443.4895,N,08633.1296,W,,,151119,,*1E
$GPGGA,061307.0,3443.4894,N,08633.1297,W,1,,,239.0,M,,M,,*77
$GPRMC,061307.0,A,3443.4894,N,08633.1297,W,,,151119,,*1C
$GPGGA,061337.0,3443.4894,N,08633.1298,W,1,,,238.5,M,,M,,*7F
$GPRMC,061337.0,A,3443.4894,N,08633.1298,W,,,151119,,*10
$GPGGA,061407.1,3443.4899,N,08633.1294,W,1,,,238.2,M,,M,,*7C
$GPRMC,061407.1,A,3443.4899,N,08633.1294,W,,,151119,,*14
$GPGGA,061437.1,3443.4899,N,08633.1295,W,1,,,237.6,M,,M,,*75
$GPRMC,061437.1,A,3443.4899,N,08633.1295,W,,,151119,,*16
$GPGGA,061507.0,3443.4898,N,08633.1296,W,1,,,237.6,M,,M,,*74
$GPRMC,061507.0,A,3443.4898,N,08633.1296,W,,,151119,,*17
$GPGGA,061537.1,3443.4898,N,08633.1297,W,1,,,237.6,M,,M,,*77
$GPRMC,061537.1,A,3443.4898,N,08633.1297,W,,,151119,,*14
$GPGGA,061607.0,3443.4897,N,08633.1298,W,1,,,237.8,M,,M,,*78
$GPRMC,061607.0,A,3443.4897,N,08633.1298,W,,,151119,,*15
$GPGGA,061637.0,3443.4896,N,08633.1298,W,1,,,237.7,M,,M,,*75
$GPRMC,061637.0,A,3443.4896,N,08633.1298,W,,,151119,,*17
$GPGGA,061707.0,3443.4894,N,08633.1299,W,1,,,237.9,M,,M,,*7A
$GPRMC,061707.0,A,3443.4894,N,08633.1299,W,,,151119,,*16
$GPGGA,061737.1,3443.4893,N,08633.1300,W,1,,,238.0,M,,M,,*78
$GPRMC,061737.1,A,3443.4893,N,08633.1300,W,,,151119,,*12
$GPGGA,061807.0,3443.4892,N,08633.1300,W,1,,,236.6,M,,M,,*7C
$GPRMC,061807.0,A,3443.4892,N,08633.1300,W,,,151119,,*1E
$GPGGA,061837.0,3443.4892,N,08633.1300,W,1,,,235.7,M,,M,,*7D
$GPRMC,061837.0,A,3443.4892,N,08633.1300,W,,,151119,,*1D
$GPGGA,061907.1,3443.4895,N,08633.1297,W,1,,,234.2,M,,M,,*72
$GPRMC,061907.1,A,3443.4895,N,08633.1297,W,,,151119,,*16
$GPGGA,061937.0,3443.4895,N,08633.1298,W,1,,,232.6,M,,M,,*7D
$GPRMC,061937.0,A,3443.4895,N,08633.1298,W,,,151119,,*1B
$GPGGA,062007.0,3443.4895,N,08633.1298,W,1,,,232.6,M,,M,,*74
$GPRMC,062007.0,A,3443.4895,N,08633.1298,W,,,151119,,*12
$GPGGA,062037.0,3443.4895,N,08633.1298,W,1,,,232.4,M,,M,,*75
$GPRMC,062037.0,A,3443.4895,N,08633.1298,W,,,151119,,*11
$GPGGA,062107.0,3443.4895,N,08633.1297,W,1,,,230.5,M,,M,,*7B
$GPRMC,062107.0,A,3443.4895,N,08633.1297,W,,,151119,,*1C
$GPGGA,062137.0,3443.4896,N,08633.1298,W,1,,,230.0,M,,M,,*71
$GPRMC,062137.0,A,3443.4896,N,08633.1298,W,,,151119,,*13
$GPGGA,062207.0,3443.4895,N,08633.1298,W,1,,,228.8,M,,M,,*73
$GPRMC,062207.0,A,3443.4895,N,08633.1298,W,,,151119,,*10
$GPGGA,062237.0,3443.4895,N,08633.1297,W,1,,,228.0,M,,M,,*77
$GPRMC,062237.0,A,3443.4895,N,08633.1297,W,,,151119,,*1C
$GPGGA,062307.1,3443.4894,N,08633.1296,W,1,,,227.4,M,,M,,*7F
$GPRMC,062307.1,A,3443.4894,N,08633.1296,W,,,151119,,*1F
$GPGGA,062337.0,3443.4893,N,08633.1295,W,1,,,226.3,M,,M,,*7F
$GPRMC,062337.0,A,3443.4893,N,08633.1295,W,,,151119,,*19
$GPGGA,062407.0,3443.4893,N,08633.1296,W,1,,,225.5,M,,M,,*7D
$GPRMC,062407.0,A,3443.4893,N,08633.1296,W,,,151119,,*1E
$GPGGA,062437.1,3443.4892,N,08633.1296,W,1,,,225.1,M,,M,,*7A
$GPRMC,062437.1,A,3443.4892,N,08633.1296,W,,,151119,,*1D
$GPGGA,062507.0,3443.4891,N,08633.1297,W,1,,,224.8,M,,M,,*73
$GPRMC,062507.0,A,3443.4891,N,08633.1297,W,,,151119,,*1C
$GPGGA,062537.0,3443.4891,N,08633.1297,W,1,,,224.7,M,,M,,*7F
$GPRMC,062537.0,A,3443.4891,N,08633.1297,W,,,151119,,*1F
$GPGGA,062607.1,3443.4889,N,08633.1298,W,1,,,225.0,M,,M,,*7E
$GPRMC,062607.1,A,3443.4889,N,08633.1298,W,,,151119,,*18
$GPGGA,062637.0,3443.4890,N,08633.1297,W,1,,,225.2,M,,M,,*79
$GPRMC,062637.0,A,3443.4890,N,08633.1297,W,,,151119,,*1D
$GPGGA,062707.3,3443.4888,N,08633.1298,W,1,,,226.0,M,,M,,*7F
$GPRMC,062707.3,A,3443.4888,N,08633.1298,W,,,151119,,*1A
$GPGGA,062737.0,3443.4887,N,08633.1299,W,1,,,226.4,M,,M,,*75
$GPRMC,062737.0,A,3443.4887,N,08633.1299,W,,,151119,,*14
$GPGGA,062807.1,3443.4887,N,08633.1300,W,1,,,226.5,M,,M,,*78
$GPRMC,062807.1,A,3443.4887,N,08633.1300,W,,,151119,,*18
$GPGGA,062837.0,3443.4887,N,08633.1300,W,1,,,226.8,M,,M,,*77
$GPRMC,062837.0,A,3443.4887,N,08633.1300,W,,,151119,,*1A
$GPGGA,062907.1,3443.4887,N,08633.1300,W,1,,,227.2,M,,M,,*7F
$GPRMC,062907.1,A,3443.4887,N,08633.1300,W,,,151119,,*19
$GPGGA,062937.0,3443.4887,N,08633.1301,W,1,,,227.4,M,,M,,*7A
$GPRMC,062937.0,A,3443.4887,N,08633.1301,W,,,151119,,*1A
$GPGGA,063007.0,3443.4887,N,08633.1301,W,1,,,227.4,M,,M,,*71
$GPRMC,063007.0,A,3443.4887,N,08633.1301,W,,,151119,,*11
$GPGGA,063037.0,3443.4887,N,08633.1300,W,1,,,227.1,M,,M,,*76
$GPRMC,063037.0,A,3443.4887,N,08633.1300,W,,,151119,,*13
$GPGGA,063107.0,3443.4887,N,08633.1301,W,1,,,227.4,M,,M,,*70
$GPRMC,063107.0,A,3443.4887,N,08633.1301,W,,,151119,,*10
$GPGGA,063137.2,3443.4887,N,08633.1301,W,1,,,227.6,M,,M,,*73
$GPRMC,063137.2,A,3443.4887,N,08633.1301,W,,,151119,,*11
$GPGGA,063207.0,3443.4887,N,08633.1301,W,1,,,227.6,M,,M,,*71
$GPRMC,063207.0,A,3443.4887,N,08633.1301,W,,,151119,,*13
$GPGGA,063237.0,3443.4887,N,08633.1302,W,1,,,227.8,M,,M,,*7F
$GPRMC,063237.0,A,3443.4887,N,08633.1302,W,,,151119,,*13
$GPGGA,063307.0,3443.4887,N,08633.1302,W,1,,,227.7,M,,M,,*72
$GPRMC,063307.0,A,3443.4887,N,08633.1302,W,,,151119,,*11
$GPGGA,063337.0,3443.4887,N,08633.1303,W,1,,,227.7,M,,M,,*70
$GPRMC,063337.0,A,3443.4887,N,08633.1303,W,,,151119,,*13
$GPGGA,063407.0,3443.4887,N,08633.1303,W,1,,,227.5,M,,M,,*76
$GPRMC,063407.0,A,3443.4887,N,08633.1303,W,,,151119,,*17
$GPGGA,063437.0,3443.4888,N,08633.1304,W,1,,,227.1,M,,M,,*79
$GPRMC,063437.0,A,3443.4888,N,08633.1304,W,,,151119,,*1C
$GPGGA,063507.0,3443.4888,N,08633.1304,W,1,,,227.0,M,,M,,*7A
$GPRMC,063507.0,A,3443.4888,N,08633.1304,W,,,151119,,*1E
$GPGGA,063537.0,3443.4888,N,08633.1304,W,1,,,227.0,M,,M,,*79
$GPRMC,063537.0,A,3443.4888,N,08633.1304,W,,,151119,,*1D
$GPGGA,063607.0,3443.4888,N,08633.1304,W,1,,,227.0,M,,M,,*79
$GPRMC,063607.0,A,3443.4888,N,08633.1304,W,,,151119,,*1D
$GPGGA,063637.0,3443.4888,N,08633.1304,W,1,,,226.8,M,,M,,*73
$GPRMC,063637.0,A,3443.4888,N,08633.1304,W,,,151119,,*1E
$GPGGA,063707.0,3443.4888,N,08633.1304,W,1,,,226.7,M,,M,,*7E
$GPRMC,063707.0,A,3443.4888,N,08633.1304,W,,,151119,,*1C
$GPGGA,063737.0,3443.4889,N,08633.1304,W,1,,,226.8,M,,M,,*73
$GPRMC,063737.0,A,3443.4889,N,08633.1304,W,,,151119,,*1E
$GPGGA,063807.0,3443.4891,N,08633.1301,W,1,,,225.6,M,,M,,*7E
$GPRMC,063807.0,A,3443.4891,N,08633.1301,W,,,151119,,*1E
$GPGGA,063837.0,3443.4891,N,08633.1301,W,1,,,225.5,M,,M,,*7E
$GPRMC,063837.0,A,3443.4891,N,08633.1301,W,,,151119,,*1D
$GPGGA,063907.0,3443.4891,N,08633.1302,W,1,,,225.6,M,,M,,*7C
$GPRMC,063907.0,A,3443.4891,N,08633.1302,W,,,151119,,*1C
$GPGGA,063937.0,3443.4891,N,08633.1302,W,1,,,225.7,M,,M,,*7E
$GPRMC,063937.0,A,3443.4891,N,08633.1302,W,,,151119,,*1F
$GPGGA,064007.0,3443.4891,N,08633.1302,W,1,,,225.8,M,,M,,*7C
$GPRMC,064007.0,A,3443.4891,N,08633.1302,W,,,151119,,*12
$GPGGA,064037.0,3443.4892,N,08633.1302,W,1,,,225.7,M,,M,,*73
$GPRMC,064037.0,A,3443.4892,N,08633.1302,W,,,151119,,*12
$GPGGA,064107.0,3443.4892,N,08633.1302,W,1,,,225.2,M,,M,,*74
$GPRMC,064107.0,A,3443.4892,N,08633.1302,W,,,151119,,*10
$GPGGA,064137.0,3443.4892,N,08633.1303,W,1,,,225.3,M,,M,,*77
$GPRMC,064137.0,A,3443.4892,N,08633.1303,W,,,151119,,*12
$GPGGA,064207.0,3443.4892,N,08633.1303,W,1,,,225.5,M,,M,,*71
$GPRMC,064207.0,A,3443.4892,N,08633.1303,W,,,151119,,*12
$GPGGA,064237.0,3443.4892,N,08633.1303,W,1,,,225.9,M,,M,,*7E
$GPRMC,064237.0,A,3443.4892,N,08633.1303,W,,,151119,,*11
$GPGGA,064307.0,3443.4892,N,08633.1303,W,1,,,225.9,M,,M,,*7C
$GPRMC,064307.0,A,3443.4892,N,08633.1303,W,,,151119,,*13
$GPGGA,064337.0,3443.4892,N,08633.1304,W,1,,,225.8,M,,M,,*79
$GPRMC,064337.0,A,3443.4892,N,08633.1304,W,,,151119,,*17
$GPGGA,064407.0,3443.4892,N,08633.1304,W,1,,,225.6,M,,M,,*73
$GPRMC,064407.0,A,3443.4892,N,08633.1304,W,,,151119,,*13
$GPGGA,064437.0,3443.4892,N,08633.1304,W,1,,,225.0,M,,M,,*76
$GPRMC,064437.0,A,3443.4892,N,08633.1304,W,,,151119,,*10
$GPGGA,064507.0,3443.4892,N,08633.1304,W,1,,,224.6,M,,M,,*73
$GPRMC,064507.0,A,3443.4892,N,08633.1304,W,,,151119,,*12
$GPGGA,064537.0,3443.4901,N,08633.1308,W,1,,,223.6,M,,M,,*70
$GPRMC,064537.0,A,3443.4901,N,08633.1308,W,,,151119,,*16
$GPGGA,064607.0,3443.4894,N,08633.1304,W,1,,,225.8,M,,M,,*79
$GPRMC,064607.0,A,3443.4894,N,08633.1304,W,,,151119,,*17
$GPGGA,064637.0,3443.4894,N,08633.1305,W,1,,,225.9,M,,M,,*7A
$GPRMC,064637.0,A,3443.4894,N,08633.1305,W,,,151119,,*15
$GPGGA,064707.0,3443.4890,N,08633.1308,W,1,,,225.1,M,,M,,*79
$GPRMC,064707.0,A,3443.4890,N,08633.1308,W,,,151119,,*1E
$GPGGA,064737.0,3443.4899,N,08633.1307,W,1,,,225.2,M,,M,,*7F
$GPRMC,064737.0,A,3443.4899,N,08633.1307,W,,,151119,,*1B
$GPGGA,064807.0,3443.4899,N,08633.1308,W,1,,,224.9,M,,M,,*76
$GPRMC,064807.0,A,3443.4899,N,08633.1308,W,,,151119,,*18
$GPGGA,064837.0,3443.4899,N,08633.1309,W,1,,,224.5,M,,M,,*78
$GPRMC,064837.0,A,3443.4899,N,08633.1309,W,,,151119,,*1A
$GPGGA,064907.0,3443.4899,N,08633.1309,W,1,,,224.3,M,,M,,*7C
$GPRMC,064907.0,A,3443.4899,N,08633.1309,W,,,151119,,*18
$GPGGA,064937.0,3443.4898,N,08633.1310,W,1,,,224.3,M,,M,,*76
$GPRMC,064937.0,A,3443.4898,N,08633.1310,W,,,151119,,*12
$GPGGA,065007.2,3443.4898,N,08633.1310,W,1,,,224.1,M,,M,,*7D
$GPRMC,065007.2,A,3443.4898,N,08633.1310,W,,,151119,,*1B
$GPGGA,065037.0,3443.4898,N,08633.1310,W,1,,,223.7,M,,M,,*7D
$GPRMC,065037.0,A,3443.4898,N,08633.1310,W,,,151119,,*1A
$GPGGA,065107.0,3443.4898,N,08633.1311,W,1,,,224.0,M,,M,,*7E
$GPRMC,065107.0,A,3443.4898,N,08633.1311,W,,,151119,,*19
$GPGGA,065137.0,3443.4897,N,08633.1311,W,1,,,224.5,M,,M,,*77
$GPRMC,065137.0,A,3443.4897,N,08633.1311,W,,,151119,,*15
$GPGGA,065207.0,3443.4897,N,08633.1311,W,1,,,225.0,M,,M,,*73
$GPRMC,065207.0,A,3443.4897,N,08633.1311,W,,,151119,,*15
$GPGGA,065237.0,3443.4897,N,08633.1311,W,1,,,225.4,M,,M,,*74
$GPRMC,065237.0,A,3443.4897,N,08633.1311,W,,,151119,,*16
$GPGGA,065307.0,3443.4897,N,08633.1311,W,1,,,225.6,M,,M,,*74
$GPRMC,065307.0,A,3443.4897,N,08633.1311,W,,,151119,,*14
$GPGGA,065337.0,3443.4897,N,08633.1311,W,1,,,225.6,M,,M,,*77
$GPRMC,065337.0,A,3443.4897,N,08633.1311,W,,,151119,,*17
$GPGGA,065407.0,3443.4897,N,08633.1311,W,1,,,225.7,M,,M,,*72
$GPRMC,065407.0,A,3443.4897,N,08633.1311,W,,,151119,,*13
$GPGGA,065437.0,3443.4897,N,08633.1311,W,1,,,225.6,M,,M,,*70
$GPRMC,065437.0,A,3443.4897,N,08633.1311,W,,,151119,,*10
$GPGGA,065507.0,3443.4897,N,08633.1311,W,1,,,225.2,M,,M,,*76
$GPRMC,065507.0,A,3443.4897,N,08633.1311,W,,,151119,,*12
$GPGGA,065537.0,3443.4901,N,08633.1306,W,1,,,223.1,M,,M,,*78
$GPRMC,065537.0,A,3443.4901,N,08633.1306,W,,,151119,,*19
$GPGGA,065607.0,3443.4903,N,08633.1305,W,1,,,222.6,M,,M,,*7F
$GPRMC,065607.0,A,3443.4903,N,08633.1305,W,,,151119,,*18
$GPGGA,065637.0,3443.4903,N,08633.1305,W,1,,,222.5,M,,M,,*7F
$GPRMC,065637.0,A,3443.4903,N,08633.1305,W,,,151119,,*1B
$GPGGA,065707.0,3443.4903,N,08633.1305,W,1,,,222.0,M,,M,,*78
$GPRMC,065707.0,A,3443.4903,N,08633.1305,W,,,151119,,*19
$GPGGA,065737.5,3443.4901,N,08633.1304,W,1,,,223.0,M,,M,,*7C
$GPRMC,065737.5,A,3443.4901,N,08633.1304,W,,,151119,,*1C
$GPGGA,065807.0,3443.4916,N,08633.1297,W,1,,,220.0,M,,M,,*7B
$GPRMC,065807.0,A,3443.4916,N,08633.1297,W,,,151119,,*18
$GPGGA,065837.0,3443.4916,N,08633.1297,W,1,,,219.3,M,,M,,*71
$GPRMC,065837.0,A,3443.4916,N,08633.1297,W,,,151119,,*1B
$GPGGA,065907.0,3443.4916,N,08633.1297,W,1,,,219.0,M,,M,,*70
$GPRMC,065907.0,A,3443.4916,N,08633.1297,W,,,151119,,*19
$GPGGA,065937.0,3443.4916,N,08633.1297,W,1,,,219.0,M,,M,,*73
$GPRMC,065937.0,A,3443.4916,N,08633.1297,W,,,151119,,*1A
$GPGGA,070007.0,3443.4915,N,08633.1297,W,1,,,219.1,M,,M,,*7F
$GPRMC,070007.0,A,3443.4915,N,08633.1297,W,,,151119,,*17
$GPGGA,070037.2,3443.4913,N,08633.1302,W,1,,,218.6,M,,M,,*73
$GPRMC,070037.2,A,3443.4913,N,08633.1302,W,,,151119,,*1D
$GPGGA,070107.0,3443.4913,N,08633.1302,W,1,,,218.6,M,,M,,*73
$GPRMC,070107.0,A,3443.4913,N,08633.1302,W,,,151119,,*1D
$GPGGA,070137.0,3443.4913,N,08633.1302,W,1,,,218.6,M,,M,,*70
$GPRMC,070137.0,A,3443.4913,N,08633.1302,W,,,151119,,*1E
$GPGGA,070207.0,3443.4913,N,08633.1302,W,1,,,218.0,M,,M,,*76
$GPRMC,070207.0,A,3443.4913,N,08633.1302,W,,,151119,,*1E
$GPGGA,070237.0,3443.4912,N,08633.1302,W,1,,,217.6,M,,M,,*7D
$GPRMC,070237.0,A,3443.4912,N,08633.1302,W,,,151119,,*1C
$GPGGA,070307.0,3443.4910,N,08633.1296,W,1,,,218.0,M,,M,,*78
$GPRMC,070307.0,A,3443.4910,N,08633.1296,W,,,151119,,*10
$GPGGA,070337.0,3443.4909,N,08633.1296,W,1,,,218.9,M,,M,,*7A
$GPRMC,070337.0,A,3443.4909,N,08633.1296,W,,,151119,,*1B
$GPGGA,070407.0,3443.4909,N,08633.1296,W,1,,,219.0,M,,M,,*76
$GPRMC,070407.0,A,3443.4909,N,08633.1296,W,,,151119,,*1F
$GPGGA,070437.0,3443.4909,N,08633.1296,W,1,,,219.0,M,,M,,*75
$GPRMC,070437.0,A,3443.4909,N,08633.1296,W,,,151119,,*1C
$GPGGA,070507.0,3443.4909,N,08633.1296,W,1,,,219.0,M,,M,,*77
$GPRMC,070507.0,A,3443.4909,N,08633.1296,W,,,151119,,*1E
$GPGGA,070537.0,3443.4909,N,08633.1296,W,1,,,218.7,M,,M,,*72
$GPRMC,070537.0,A,3443.4909,N,08633.1296,W,,,151119,,*1D
$GPGGA,070607.0,3443.4909,N,08633.1296,W,1,,,219.1,M,,M,,*75
$GPRMC,070607.0,A,3443.4909,N,08633.1296,W,,,151119,,*1D
$GPGGA,070637.0,3443.4909,N,08633.1296,W,1,,,219.2,M,,M,,*75
$GPRMC,070637.0,A,3443.4909,N,08633.1296,W,,,151119,,*1E
$GPGGA,070707.0,3443.4909,N,08633.1296,W,1,,,219.2,M,,M,,*77
$GPRMC,070707.0,A,3443.4909,N,08633.1296,W,,,151119,,*1C
$GPGGA,070737.0,3443.4908,N,08633.1296,W,1,,,219.4,M,,M,,*73
$GPRMC,070737.0,A,3443.4908,N,08633.1296,W,,,151119,,*1E
$GPGGA,070807.0,3443.4908,N,08633.1296,W,1,,,219.8,M,,M,,*73
$GPRMC,070807.0,A,3443.4908,N,08633.1296,W,,,151119,,*12
$GPGGA,070837.0,3443.4908,N,08633.1296,W,1,,,220.0,M,,M,,*72
$GPRMC,070837.0,A,3443.4908,N,08633.1296,W,,,151119,,*11
$GPGGA,070907.0,3443.4908,N,08633.1296,W,1,,,220.0,M,,M,,*70
$GPRMC,070907.0,A,3443.4908,N,08633.1296,W,,,151119,,*13
$GPGGA,070937.0,3443.4908,N,08633.1296,W,1,,,220.1,M,,M,,*72
$GPRMC,070937.0,A,3443.4908,N,08633.1296,W,,,151119,,*10
$GPGGA,071007.0,3443.4908,N,08633.1296,W,1,,,219.9,M,,M,,*7B
$GPRMC,071007.0,A,3443.4908,N,08633.1296,W,,,151119,,*1B
$GPGGA,071037.0,3443.4908,N,08633.1296,W,1,,,219.9,M,,M,,*78
$GPRMC,071037.0,A,3443.4908,N,08633.1296,W,,,151119,,*18
$GPGGA,071107.0,3443.4908,N,08633.1296,W,1,,,219.6,M,,M,,*75
$GPRMC,071107.0,A,3443.4908,N,08633.1296,W,,,151119,,*1A
$GPGGA,071137.0,3443.4908,N,08633.1296,W,1,,,219.0,M,,M,,*70
$GPRMC,071137.0,A,3443.4908,N,08633.1296,W,,,151119,,*19
$GPGGA,071207.0,3443.4909,N,08633.1296,W,1,,,218.8,M,,M,,*78
$GPRMC,071207.0,A,3443.4909,N,08633.1296,W,,,151119,,*18
$GPGGA,071237.0,3443.4908,N,08633.1296,W,1,,,218.6,M,,M,,*74
$GPRMC,071237.0,A,3443.4908,N,08633.1296,W,,,151119,,*1A
$GPGGA,071307.0,3443.4908,N,08633.1296,W,1,,,219.0,M,,M,,*71
$GPRMC,071307.0,A,3443.4908,N,08633.1296,W,,,151119,,*18
$GPGGA,071337.0,3443.4922,N,08633.1296,W,1,,,217.1,M,,M,,*75
$GPRMC,071337.0,A,3443.4922,N,08633.1296,W,,,151119,,*13
$GPGGA,071407.0,3443.4921,N,08633.1297,W,1,,,215.8,M,,M,,*78
$GPRMC,071407.0,A,3443.4921,N,08633.1297,W,,,151119,,*15
$GPGGA,071437.0,3443.4921,N,08633.1297,W,1,,,218.6,M,,M,,*78
$GPRMC,071437.0,A,3443.4921,N,08633.1297,W,,,151119,,*16
$GPGGA,071507.0,3443.4920,N,08633.1298,W,1,,,219.3,M,,M,,*70
$GPRMC,071507.0,A,3443.4920,N,08633.1298,W,,,151119,,*1A
$GPGGA,071537.0,3443.4920,N,08633.1298,W,1,,,219.1,M,,M,,*71
$GPRMC,071537.0,A,3443.4920,N,08633.1298,W,,,151119,,*19
$GPGGA,071607.0,3443.4920,N,08633.1298,W,1,,,219.3,M,,M,,*73
$GPRMC,071607.0,A,3443.4920,N,08633.1298,W,,,151119,,*19
$GPGGA,071637.2,3443.4920,N,08633.1298,W,1,,,220.5,M,,M,,*7E
$GPRMC,071637.2,A,3443.4920,N,08633.1298,W,,,151119,,*18
$GPGGA,071707.0,3443.4921,N,08633.1285,W,1,,,221.5,M,,M,,*72
$GPRMC,071707.0,A,3443.4921,N,08633.1285,W,,,151119,,*15
$GPGGA,071737.0,3443.4920,N,08633.1285,W,1,,,223.3,M,,M,,*74
$GPRMC,071737.0,A,3443.4920,N,08633.1285,W,,,151119,,*17
$GPGGA,071807.0,3443.4920,N,08633.1285,W,1,,,223.6,M,,M,,*7D
$GPRMC,071807.0,A,3443.4920,N,08633.1285,W,,,151119,,*1B
$GPGGA,071837.0,3443.4919,N,08633.1285,W,1,,,223.4,M,,M,,*76
$GPRMC,071837.0,A,3443.4919,N,08633.1285,W,,,151119,,*12
$GPGGA,071907.0,3443.4917,N,08633.1285,W,1,,,221.1,M,,M,,*7D
$GPRMC,071907.0,A,3443.4917,N,08633.1285,W,,,151119,,*1E
$GPGGA,071937.2,3443.4916,N,08633.1285,W,1,,,220.9,M,,M,,*74
$GPRMC,071937.2,A,3443.4916,N,08633.1285,W,,,151119,,*1E
$GPGGA,072007.1,3443.4916,N,08633.1285,W,1,,,220.9,M,,M,,*7E
$GPRMC,072007.1,A,3443.4916,N,08633.1285,W,,,151119,,*14
$GPGGA,072037.1,3443.4914,N,08633.1285,W,1,,,221.1,M,,M,,*76
$GPRMC,072037.1,A,3443.4914,N,08633.1285,W,,,151119,,*15
$GPGGA,072107.0,3443.4912,N,08633.1285,W,1,,,222.1,M,,M,,*70
$GPRMC,072107.0,A,3443.4912,N,08633.1285,W,,,151119,,*10
$GPGGA,072137.0,3443.4910,N,08633.1284,W,1,,,223.7,M,,M,,*77
$GPRMC,072137.0,A,3443.4910,N,08633.1284,W,,,151119,,*10
$GPGGA,072207.1,3443.4909,N,08633.1284,W,1,,,224.7,M,,M,,*79
$GPRMC,072207.1,A,3443.4909,N,08633.1284,W,,,151119,,*19
$GPGGA,072237.0,3443.4909,N,08633.1285,W,1,,,224.9,M,,M,,*74
$GPRMC,072237.0,A,3443.4909,N,08633.1285,W,,,151119,,*1A
$GPGGA,072307.0,3443.4908,N,08633.1285,W,1,,,225.8,M,,M,,*77
$GPRMC,072307.0,A,3443.4908,N,08633.1285,W,,,151119,,*19
$GPGGA,072337.0,3443.4914,N,08633.1275,W,1,,,222.6,M,,M,,*7F
$GPRMC,072337.0,A,3443.4914,N,08633.1275,W,,,151119,,*18
$GPGGA,072407.1,3443.4914,N,08633.1275,W,1,,,223.0,M,,M,,*7D
$GPRMC,072407.1,A,3443.4914,N,08633.1275,W,,,151119,,*1D
$GPGGA,072437.0,3443.4913,N,08633.1276,W,1,,,223.4,M,,M,,*7F
$GPRMC,072437.0,A,3443.4913,N,08633.1276,W,,,151119,,*1B
$GPGGA,072507.1,3443.4912,N,08633.1276,W,1,,,223.3,M,,M,,*7A
$GPRMC,072507.1,A,3443.4912,N,08633.1276,W,,,151119,,*19
$GPGGA,072537.0,3443.4912,N,08633.1276,W,1,,,222.5,M,,M,,*7F
$GPRMC,072537.0,A,3443.4912,N,08633.1276,W,,,151119,,*1B
$GPGGA,072607.0,3443.4912,N,08633.1276,W,1,,,221.8,M,,M,,*71
$GPRMC,072607.0,A,3443.4912,N,08633.1276,W,,,151119,,*1B
$GPGGA,072637.0,3443.4912,N,08633.1276,W,1,,,221.4,M,,M,,*7E
$GPRMC,072637.0,A,3443.4912,N,08633.1276,W,,,151119,,*18
$GPGGA,072707.0,3443.4911,N,08633.1276,W,1,,,223.2,M,,M,,*7B
$GPRMC,072707.0,A,3443.4911,N,08633.1276,W,,,151119,,*19
$GPGGA,072737.1,3443.4911,N,08633.1275,W,1,,,226.3,M,,M,,*7E
$GPRMC,072737.1,A,3443.4911,N,08633.1275,W,,,151119,,*18
$GPGGA,072807.0,3443.4910,N,08633.1275,W,1,,,228.5,M,,M,,*7A
$GPRMC,072807.0,A,3443.4910,N,08633.1275,W,,,151119,,*14
$GPGGA,072837.0,3443.4910,N,08633.1275,W,1,,,229.4,M,,M,,*79
$GPRMC,072837.0,A,3443.4910,N,08633.1275,W,,,151119,,*17
$GPGGA,072907.0,3443.4909,N,08633.1275,W,1,,,232.9,M,,M,,*74
$GPRMC,072907.0,A,3443.4909,N,08633.1275,W,,,151119,,*1D
$GPGGA,072937.0,3443.4908,N,08633.1274,W,1,,,237.2,M,,M,,*79
$GPRMC,072937.0,A,3443.4908,N,08633.1274,W,,,151119,,*1E
$GPGGA,073007.0,3443.4908,N,08633.1275,W,1,,,238.0,M,,M,,*7E
$GPRMC,073007.0,A,3443.4908,N,08633.1275,W,,,151119,,*14
$GPGGA,073037.1,3443.4907,N,08633.1278,W,1,,,235.3,M,,M,,*70
$GPRMC,073037.1,A,3443.4907,N,08633.1278,W,,,151119,,*14
$GPGGA,073107.0,3443.4904,N,08633.1279,W,1,,,237.9,M,,M,,*79
$GPRMC,073107.0,A,3443.4904,N,08633.1279,W,,,151119,,*15
$GPGGA,073137.0,3443.4903,N,08633.1280,W,1,,,240.4,M,,M,,*76
$GPRMC,073137.0,A,3443.4903,N,08633.1280,W,,,151119,,*17
$GPGGA,073207.1,3443.4902,N,08633.1284,W,1,,,239.8,M,,M,,*70
$GPRMC,073207.1,A,3443.4902,N,08633.1284,W,,,151119,,*13
$GPGGA,073237.0,3443.4901,N,08633.1285,W,1,,,240.4,M,,M,,*72
$GPRMC,073237.0,A,3443.4901,N,08633.1285,W,,,151119,,*13
$GPGGA,073307.1,3443.4899,N,08633.1287,W,1,,,240.9,M,,M,,*7E
$GPRMC,073307.1,A,3443.4899,N,08633.1287,W,,,151119,,*12
$GPGGA,073337.0,3443.4898,N,08633.1288,W,1,,,240.8,M,,M,,*73
$GPRMC,073337.0,A,3443.4898,N,08633.1288,W,,,151119,,*1E
$GPGGA,073407.0,3443.4898,N,08633.1289,W,1,,,240.0,M,,M,,*7E
$GPRMC,073407.0,A,3443.4898,N,08633.1289,W,,,151119,,*1B
$GPGGA,073437.0,3443.4895,N,08633.1286,W,1,,,240.5,M,,M,,*7A
$GPRMC,073437.0,A,3443.4895,N,08633.1286,W,,,151119,,*1A
$GPGGA,073507.0,3443.4894,N,08633.1286,W,1,,,240.3,M,,M,,*7F
$GPRMC,073507.0,A,3443.4894,N,08633.1286,W,,,151119,,*19
$GPGGA,073537.1,3443.4893,N,08633.1287,W,1,,,240.6,M,,M,,*7E
$GPRMC,073537.1,A,3443.4893,N,08633.1287,W,,,151119,,*1D
$GPGGA,073607.1,3443.4895,N,08633.1286,W,1,,,239.2,M,,M,,*73
$GPRMC,073607.1,A,3443.4895,N,08633.1286,W,,,151119,,*1A
$GPGGA,073637.1,3443.4906,N,08633.1281,W,1,,,211.0,M,,M,,*74
$GPRMC,073637.1,A,3443.4906,N,08633.1281,W,,,151119,,*15
$GPGGA,073707.1,3443.4907,N,08633.1281,W,1,,,206.9,M,,M,,*78
$GPRMC,073707.1,A,3443.4907,N,08633.1281,W,,,151119,,*16
$GPGGA,073737.1,3443.4909,N,08633.1280,W,1,,,205.2,M,,M,,*7C
$GPRMC,073737.1,A,3443.4909,N,08633.1280,W,,,151119,,*1A
$GPGGA,073807.1,3443.4909,N,08633.1279,W,1,,,204.4,M,,M,,*71
$GPRMC,073807.1,A,3443.4909,N,08633.1279,W,,,151119,,*10
$GPGGA,073837.1,3443.4910,N,08633.1279,W,1,,,204.1,M,,M,,*7F
$GPRMC,073837.1,A,3443.4910,N,08633.1279,W,,,151119,,*1B
$GPGGA,073907.1,3443.4910,N,08633.1280,W,1,,,205.2,M,,M,,*79
$GPRMC,073907.1,A,3443.4910,N,08633.1280,W,,,151119,,*1F
$GPGGA,073937.1,3443.4912,N,08633.1279,W,1,,,204.5,M,,M,,*78
$GPRMC,073937.1,A,3443.4912,N,08633.1279,W,,,151119,,*18
$GPGGA,074007.1,3443.4913,N,08633.1279,W,1,,,204.6,M,,M,,*77
$GPRMC,074007.1,A,3443.4913,N,08633.1279,W,,,151119,,*14
$GPGGA,074037.1,3443.4914,N,08633.1287,W,1,,,205.7,M,,M,,*72
$GPRMC,074037.1,A,3443.4914,N,08633.1287,W,,,151119,,*11
$GPGGA,074107.1,3443.4914,N,08633.1288,W,1,,,206.7,M,,M,,*7C
$GPRMC,074107.1,A,3443.4914,N,08633.1288,W,,,151119,,*1C
$GPGGA,074137.1,3443.4915,N,08633.1294,W,1,,,207.8,M,,M,,*7D
$GPRMC,074137.1,A,3443.4915,N,08633.1294,W,,,151119,,*13
$GPGGA,074207.1,3443.4915,N,08633.1294,W,1,,,208.5,M,,M,,*7F
$GPRMC,074207.1,A,3443.4915,N,08633.1294,W,,,151119,,*13
$GPGGA,074237.1,3443.4915,N,08633.1295,W,1,,,208.3,M,,M,,*7B
$GPRMC,074237.1,A,3443.4915,N,08633.1295,W,,,151119,,*11
$GPGGA,074307.1,3443.4915,N,08633.1296,W,1,,,208.8,M,,M,,*71
$GPRMC,074307.1,A,3443.4915,N,08633.1296,W,,,151119,,*10
$GPGGA,074337.1,3443.4915,N,08633.1296,W,1,,,209.2,M,,M,,*79
$GPRMC,074337.1,A,3443.4915,N,08633.1296,W,,,151119,,*13
$GPGGA,074407.1,3443.4915,N,08633.1296,W,1,,,209.4,M,,M,,*7B
$GPRMC,074407.1,A,3443.4915,N,08633.1296,W,,,151119,,*17
$GPGGA,074437.1,3443.4914,N,08633.1296,W,1,,,210.0,M,,M,,*75
$GPRMC,074437.1,A,3443.4914,N,08633.1296,W,,,151119,,*15
$GPGGA,074507.1,3443.4914,N,08633.1301,W,1,,,210.5,M,,M,,*7D
$GPRMC,074507.1,A,3443.4914,N,08633.1301,W,,,151119,,*18
$GPGGA,074537.1,3443.4913,N,08633.1301,W,1,,,211.1,M,,M,,*7C
$GPRMC,074537.1,A,3443.4913,N,08633.1301,W,,,151119,,*1C
$GPGGA,074607.1,3443.4912,N,08633.1302,W,1,,,211.8,M,,M,,*77
$GPRMC,074607.1,A,3443.4912,N,08633.1302,W,,,151119,,*1E
$GPGGA,074637.1,3443.4911,N,08633.1303,W,1,,,212.2,M,,M,,*7F
$GPRMC,074637.1,A,3443.4911,N,08633.1303,W,,,151119,,*1F
$GPGGA,074707.1,3443.4910,N,08633.1304,W,1,,,212.8,M,,M,,*71
$GPRMC,074707.1,A,3443.4910,N,08633.1304,W,,,151119,,*1B
$GPGGA,074737.1,3443.4911,N,08633.1304,W,1,,,212.7,M,,M,,*7C
$GPRMC,074737.1,A,3443.4911,N,08633.1304,W,,,151119,,*19
$GPGGA,074807.1,3443.4911,N,08633.1304,W,1,,,212.5,M,,M,,*72
$GPRMC,074807.1,A,3443.4911,N,08633.1304,W,,,151119,,*15
$GPGGA,074837.1,3443.4911,N,08633.1304,W,1,,,212.4,M,,M,,*70
$GPRMC,074837.1,A,3443.4911,N,08633.1304,W,,,151119,,*16
$GPGGA,074907.1,3443.4911,N,08633.1304,W,1,,,212.3,M,,M,,*75
$GPRMC,074907.1,A,3443.4911,N,08633.1304,W,,,151119,,*14
$GPGGA,074937.1,3443.4911,N,08633.1304,W,1,,,212.4,M,,M,,*71
$GPRMC,074937.1,A,3443.4911,N,08633.1304,W,,,151119,,*17
$GPGGA,075007.1,3443.4911,N,08633.1304,W,1,,,212.4,M,,M,,*7A
$GPRMC,075007.1,A,3443.4911,N,08633.1304,W,,,151119,,*1C
$GPGGA,075037.1,3443.4911,N,08633.1304,W,1,,,212.7,M,,M,,*7A
$GPRMC,075037.1,A,3443.4911,N,08633.1304,W,,,151119,,*1F
$GPGGA,075107.1,3443.4911,N,08633.1304,W,1,,,212.9,M,,M,,*76
$GPRMC,075107.1,A,3443.4911,N,08633.1304,W,,,151119,,*1D
$GPGGA,075137.1,3443.4912,N,08633.1304,W,1,,,212.9,M,,M,,*76
$GPRMC,075137.1,A,3443.4912,N,08633.1304,W,,,151119,,*1D
$GPGGA,075207.1,3443.4912,N,08633.1304,W,1,,,213.0,M,,M,,*7E
$GPRMC,075207.1,A,3443.4912,N,08633.1304,W,,,151119,,*1D
$GPGGA,075237.1,3443.4911,N,08633.1304,W,1,,,213.2,M,,M,,*7C
$GPRMC,075237.1,A,3443.4911,N,08633.1304,W,,,151119,,*1D
$GPGGA,075307.1,3443.4912,N,08633.1305,W,1,,,213.4,M,,M,,*7A
$GPRMC,075307.1,A,3443.4912,N,08633.1305,W,,,151119,,*1D
$GPGGA,075337.1,3443.4912,N,08633.1305,W,1,,,213.3,M,,M,,*7E
$GPRMC,075337.1,A,3443.4912,N,08633.1305,W,,,151119,,*1E
$GPGGA,075407.1,3443.4912,N,08633.1304,W,1,,,213.3,M,,M,,*7B
$GPRMC,075407.1,A,3443.4912,N,08633.1304,W,,,151119,,*1B
$GPGGA,075437.1,3443.4912,N,08633.1302,W,1,,,213.5,M,,M,,*78
$GPRMC,075437.1,A,3443.4912,N,08633.1302,W,,,151119,,*1E
$GPGGA,075507.1,3443.4911,N,08633.1298,W,1,,,213.8,M,,M,,*76
$GPRMC,075507.1,A,3443.4911,N,08633.1298,W,,,151119,,*1D
$GPGGA,075537.1,3443.4911,N,08633.1299,W,1,,,214.5,M,,M,,*7E
$GPRMC,075537.1,A,3443.4911,N,08633.1299,W,,,151119,,*1F
$GPGGA,075607.1,3443.4911,N,08633.1300,W,1,,,215.0,M,,M,,*7B
$GPRMC,075607.1,A,3443.4911,N,08633.1300,W,,,151119,,*1E
$GPGGA,075637.1,3443.4911,N,08633.1302,W,1,,,215.5,M,,M,,*7F
$GPRMC,075637.1,A,3443.4911,N,08633.1302,W,,,151119,,*1F
$GPGGA,075707.1,3443.4910,N,08633.1303,W,1,,,216.2,M,,M,,*79
$GPRMC,075707.1,A,3443.4910,N,08633.1303,W,,,151119,,*1D
$GPGGA,075737.0,3443.4910,N,08633.1303,W,1,,,216.3,M,,M,,*7A
$GPRMC,075737.0,A,3443.4910,N,08633.1303,W,,,151119,,*1F
$GPGGA,075807.1,3443.4909,N,08633.1303,W,1,,,216.5,M,,M,,*79
$GPRMC,075807.1,A,3443.4909,N,08633.1303,W,,,151119,,*1A
$GPGGA,075837.1,3443.4910,N,08633.1303,W,1,,,216.8,M,,M,,*7F
$GPRMC,075837.1,A,3443.4910,N,08633.1303,W,,,151119,,*11
$GPGGA,075907.1,3443.4909,N,08633.1303,W,1,,,216.8,M,,M,,*75
$GPRMC,075907.1,A,3443.4909,N,08633.1303,W,,,151119,,*1B
$GPGGA,075937.1,3443.4909,N,08633.1303,W,1,,,217.0,M,,M,,*7F
$GPRMC,075937.1,A,3443.4909,N,08633.1303,W,,,151119,,*18
$GPGGA,080007.1,3443.4909,N,08633.1304,W,1,,,217.0,M,,M,,*78
$GPRMC,080007.1,A,3443.4909,N,08633.1304,W,,,151119,,*1F
$GPGGA,080037.1,3443.4910,N,08633.1304,W,1,,,216.8,M,,M,,*7A
$GPRMC,080037.1,A,3443.4910,N,08633.1304,W,,,151119,,*14
$GPGGA,080107.1,3443.4909,N,08633.1306,W,1,,,216.9,M,,M,,*73
$GPRMC,080107.1,A,3443.4909,N,08633.1306,W,,,151119,,*1C
$GPGGA,080137.1,3443.4909,N,08633.1306,W,1,,,216.9,M,,M,,*70
$GPRMC,080137.1,A,3443.4909,N,08633.1306,W,,,151119,,*1F
$GPGGA,080207.3,3443.4909,N,08633.1306,W,1,,,217.0,M,,M,,*7A
$GPRMC,080207.3,A,3443.4909,N,08633.1306,W,,,151119,,*1D
