@Olympus/+0900/+0900
$GPGGA,001750.9,3443.5036,N,08633.0645,W,1,,,0.0,M,,M,,*7D
$GPRMC,001750.9,A,3443.5036,N,08633.0645,W,,,171119,,*1C
$GPGGA,001820.0,3443.5035,N,08633.0664,W,1,,,0.0,M,,M,,*7C
$GPRMC,001820.0,A,3443.5035,N,08633.0664,W,,,171119,,*1D
$GPGGA,001850.0,3443.5029,N,08633.0641,W,1,,,-0.0,M,,M,,*5C
$GPRMC,001850.0,A,3443.5029,N,08633.0641,W,,,171119,,*10
$GPGGA,001920.0,3443.5029,N,08633.0647,W,1,,,-0.0,M,,M,,*5C
$GPRMC,001920.0,A,3443.5029,N,08633.0647,W,,,171119,,*10
$GPGGA,001950.0,3443.5030,N,08633.0650,W,1,,,-0.0,M,,M,,*55
$GPRMC,001950.0,A,3443.5030,N,08633.0650,W,,,171119,,*19
$GPGGA,002020.0,3443.5028,N,08633.0648,W,1,,,-0.0,M,,M,,*58
$GPRMC,002020.0,A,3443.5028,N,08633.0648,W,,,171119,,*14
$GPGGA,002050.0,3443.5027,N,08633.0647,W,1,,,-0.0,M,,M,,*5F
$GPRMC,002050.0,A,3443.5027,N,08633.0647,W,,,171119,,*13
$GPGGA,002119.0,3443.5039,N,08633.0693,W,1,,,0.0,M,,M,,*78
$GPRMC,002119.0,A,3443.5039,N,08633.0693,W,,,171119,,*19
$GPGGA,002149.0,3443.5134,N,08633.0896,W,1,,,0.0,M,,M,,*7A
$GPRMC,002149.0,A,3443.5134,N,08633.0896,W,,,171119,,*1B
$GPGGA,002219.0,3443.5166,N,08633.0963,W,1,,,0.0,M,,M,,*70
$GPRMC,002219.0,A,3443.5166,N,08633.0963,W,,,171119,,*11
$GPGGA,002249.0,3443.5198,N,08633.0980,W,1,,,-0.7,M,,M,,*53
$GPRMC,002249.0,A,3443.5198,N,08633.0980,W,,,171119,,*18
$GPGGA,002319.0,3443.5218,N,08633.0986,W,1,,,-1.4,M,,M,,*58
$GPRMC,002319.0,A,3443.5218,N,08633.0986,W,,,171119,,*11
$GPGGA,002349.1,3443.4939,N,08633.1255,W,1,,,227.5,M,,M,,*7B
$GPRMC,002349.1,A,3443.4939,N,08633.1255,W,,,171119,,*18
$GPGGA,002419.0,3443.4904,N,08633.1336,W,1,,,238.6,M,,M,,*7F
$GPRMC,002419.0,A,3443.4904,N,08633.1336,W,,,171119,,*11
$GPGGA,002449.0,3443.4957,N,08633.1240,W,1,,,234.6,M,,M,,*70
$GPRMC,002449.0,A,3443.4957,N,08633.1240,W,,,171119,,*12
$GPGGA,002519.0,3443.4955,N,08633.1246,W,1,,,234.1,M,,M,,*77
$GPRMC,002519.0,A,3443.4955,N,08633.1246,W,,,171119,,*12
$GPGGA,002549.0,3443.4951,N,08633.1250,W,1,,,235.9,M,,M,,*78
$GPRMC,002549.0,A,3443.4951,N,08633.1250,W,,,171119,,*14
$GPGGA,002619.0,3443.4948,N,08633.1254,W,1,,,237.8,M,,M,,*71
$GPRMC,002619.0,A,3443.4948,N,08633.1254,W,,,171119,,*1E
$GPGGA,002649.0,3443.4945,N,08633.1255,W,1,,,235.9,M,,M,,*7B
$GPRMC,002649.0,A,3443.4945,N,08633.1255,W,,,171119,,*17
$GPGGA,002719.0,3443.4936,N,08633.1244,W,1,,,237.8,M,,M,,*78
$GPRMC,002719.0,A,3443.4936,N,08633.1244,W,,,171119,,*17
$GPGGA,002749.0,3443.4935,N,08633.1245,W,1,,,235.7,M,,M,,*72
$GPRMC,002749.0,A,3443.4935,N,08633.1245,W,,,171119,,*10
$GPGGA,002819.0,3443.4937,N,08633.1270,W,1,,,238.0,M,,M,,*76
$GPRMC,002819.0,A,3443.4937,N,08633.1270,W,,,171119,,*1E
$GPGGA,002849.0,3443.4900,N,08633.1303,W,1,,,240.3,M,,M,,*7E
$GPRMC,002849.0,A,3443.4900,N,08633.1303,W,,,171119,,*1A
$GPGGA,002919.0,3443.4890,N,08633.1306,W,1,,,248.8,M,,M,,*74
$GPRMC,002919.0,A,3443.4890,N,08633.1306,W,,,171119,,*13
$GPGGA,002949.0,3443.4889,N,08633.1307,W,1,,,251.9,M,,M,,*71
$GPRMC,002949.0,A,3443.4889,N,08633.1307,W,,,171119,,*1F
$GPGGA,003019.0,3443.4888,N,08633.1307,W,1,,,252.0,M,,M,,*77
$GPRMC,003019.0,A,3443.4888,N,08633.1307,W,,,171119,,*13
$GPGGA,003049.0,3443.4888,N,08633.1307,W,1,,,250.6,M,,M,,*76
$GPRMC,003049.0,A,3443.4888,N,08633.1307,W,,,171119,,*16
$GPGGA,003119.0,3443.4888,N,08633.1307,W,1,,,249.0,M,,M,,*7C
$GPRMC,003119.0,A,3443.4888,N,08633.1307,W,,,171119,,*12
$GPGGA,003149.0,3443.4879,N,08633.1309,W,1,,,246.8,M,,M,,*7E
$GPRMC,003149.0,A,3443.4879,N,08633.1309,W,,,171119,,*17
$GPGGA,003219.0,3443.4880,N,08633.1308,W,1,,,245.3,M,,M,,*77
$GPRMC,003219.0,A,3443.4880,N,08633.1308,W,,,171119,,*16
$GPGGA,003249.0,3443.4881,N,08633.1308,W,1,,,244.0,M,,M,,*71
$GPRMC,003249.0,A,3443.4881,N,08633.1308,W,,,171119,,*12
$GPGGA,003319.0,3443.4885,N,08633.1306,W,1,,,245.2,M,,M,,*7C
$GPRMC,003319.0,A,3443.4885,N,08633.1306,W,,,171119,,*1C
$GPGGA,003349.0,3443.4904,N,08633.1292,W,1,,,238.8,M,,M,,*7D
$GPRMC,003349.0,A,3443.4904,N,08633.1292,W,,,171119,,*1D
$GPGGA,003408.9,3443.4904,N,08633.1291,W,1,,,238.8,M,,M,,*75
$GPRMC,003408.9,A,3443.4904,N,08633.1291,W,,,171119,,*15
$GPGGA,003431.0,3443.4841,N,08633.1323,W,1,,,238.6,M,,M,,*70
$GPRMC,003431.0,A,3443.4841,N,08633.1323,W,,,171119,,*1E
$GPGGA,003438.6,3443.4855,N,08633.1333,W,1,,,238.3,M,,M,,*7E
$GPRMC,003438.6,A,3443.4855,N,08633.1333,W,,,171119,,*15
$GPGGA,003508.0,3443.4844,N,08633.1288,W,1,,,238.3,M,,M,,*7B
$GPRMC,003508.0,A,3443.4844,N,08633.1288,W,,,171119,,*10
$GPGGA,003630.2,3443.4916,N,08633.1242,W,1,,,238.3,M,,M,,*71
$GPRMC,003630.2,A,3443.4916,N,08633.1242,W,,,171119,,*1A
$GPGGA,003700.0,3443.4988,N,08633.1212,W,1,,,238.3,M,,M,,*73
$GPRMC,003700.0,A,3443.4988,N,08633.1212,W,,,171119,,*18
$GPGGA,003730.0,3443.4984,N,08633.1222,W,1,,,238.3,M,,M,,*7F
$GPRMC,003730.0,A,3443.4984,N,08633.1222,W,,,171119,,*14
$GPGGA,003800.0,3443.4934,N,08633.1226,W,1,,,237.4,M,,M,,*74
$GPRMC,003800.0,A,3443.4934,N,08633.1226,W,,,171119,,*17
$GPGGA,003830.0,3443.4935,N,08633.1226,W,1,,,233.8,M,,M,,*7E
$GPRMC,003830.0,A,3443.4935,N,08633.1226,W,,,171119,,*15
$GPGGA,003900.0,3443.4937,N,08633.1226,W,1,,,226.6,M,,M,,*74
$GPRMC,003900.0,A,3443.4937,N,08633.1226,W,,,171119,,*15
$GPGGA,003930.0,3443.4937,N,08633.1227,W,1,,,223.7,M,,M,,*72
$GPRMC,003930.0,A,3443.4937,N,08633.1227,W,,,171119,,*17
$GPGGA,004000.0,3443.4937,N,08633.1227,W,1,,,223.6,M,,M,,*7E
$GPRMC,004000.0,A,3443.4937,N,08633.1227,W,,,171119,,*1A
$GPGGA,004030.0,3443.4927,N,08633.1236,W,1,,,228.9,M,,M,,*78
$GPRMC,004030.0,A,3443.4927,N,08633.1236,W,,,171119,,*18
$GPGGA,004100.0,3443.4927,N,08633.1236,W,1,,,228.9,M,,M,,*7A
$GPRMC,004100.0,A,3443.4927,N,08633.1236,W,,,171119,,*1A
$GPGGA,004130.0,3443.4926,N,08633.1235,W,1,,,223.3,M,,M,,*7A
$GPRMC,004130.0,A,3443.4926,N,08633.1235,W,,,171119,,*1B
$GPGGA,004200.1,3443.4927,N,08633.1236,W,1,,,223.0,M,,M,,*7A
$GPRMC,004200.1,A,3443.4927,N,08633.1236,W,,,171119,,*18
$GPGGA,004230.0,3443.4927,N,08633.1236,W,1,,,222.5,M,,M,,*7C
$GPRMC,004230.0,A,3443.4927,N,08633.1236,W,,,171119,,*1A
$GPGGA,004300.0,3443.4927,N,08633.1236,W,1,,,222.5,M,,M,,*7E
$GPRMC,004300.0,A,3443.4927,N,08633.1236,W,,,171119,,*18
$GPGGA,004330.0,3443.4938,N,08633.1245,W,1,,,229.7,M,,M,,*7E
$GPRMC,004330.0,A,3443.4938,N,08633.1245,W,,,171119,,*11
$GPGGA,004400.0,3443.4930,N,08633.1246,W,1,,,230.0,M,,M,,*7E
$GPRMC,004400.0,A,3443.4930,N,08633.1246,W,,,171119,,*1E
$GPGGA,004430.0,3443.4942,N,08633.1224,W,1,,,234.4,M,,M,,*7C
$GPRMC,004430.0,A,3443.4942,N,08633.1224,W,,,171119,,*1C
$GPGGA,004500.0,3443.4900,N,08633.1191,W,1,,,232.1,M,,M,,*76
$GPRMC,004500.0,A,3443.4900,N,08633.1191,W,,,171119,,*15
$GPGGA,004530.0,3443.4878,N,08633.1210,W,1,,,238.1,M,,M,,*7B
$GPRMC,004530.0,A,3443.4878,N,08633.1210,W,,,171119,,*12
$GPGGA,004600.0,3443.4878,N,08633.1221,W,1,,,240.2,M,,M,,*75
$GPRMC,004600.0,A,3443.4878,N,08633.1221,W,,,171119,,*10
$GPGGA,004630.0,3443.4878,N,08633.1222,W,1,,,238.4,M,,M,,*7C
$GPRMC,004630.0,A,3443.4878,N,08633.1222,W,,,171119,,*10
$GPGGA,004638.1,3443.4878,N,08633.1222,W,1,,,238.3,M,,M,,*72
$GPRMC,004638.1,A,3443.4878,N,08633.1222,W,,,171119,,*19
$GPGGA,004708.2,3443.4906,N,08633.1217,W,1,,,237.6,M,,M,,*77
$GPRMC,004708.2,A,3443.4906,N,08633.1217,W,,,171119,,*16
$GPGGA,004738.0,3443.4922,N,08633.1235,W,1,,,224.8,M,,M,,*7C
$GPRMC,004738.0,A,3443.4922,N,08633.1235,W,,,171119,,*11
$GPGGA,004808.0,3443.4926,N,08633.1243,W,1,,,221.6,M,,M,,*7E
$GPRMC,004808.0,A,3443.4926,N,08633.1243,W,,,171119,,*18
$GPGGA,004838.0,3443.4949,N,08633.1219,W,1,,,221.1,M,,M,,*7C
$GPRMC,004838.0,A,3443.4949,N,08633.1219,W,,,171119,,*1D
$GPGGA,004908.0,3443.5117,N,08633.1674,W,1,,,214.3,M,,M,,*77
$GPRMC,004908.0,A,3443.5117,N,08633.1674,W,,,171119,,*12
$GPGGA,004938.0,3443.5690,N,08633.2813,W,1,,,225.0,M,,M,,*71
$GPRMC,004938.0,A,3443.5690,N,08633.2813,W,,,171119,,*15
$GPGGA,005008.1,3443.6471,N,08633.3328,W,1,,,225.5,M,,M,,*72
$GPRMC,005008.1,A,3443.6471,N,08633.3328,W,,,171119,,*13
$GPGGA,005038.0,3443.6583,N,08633.3304,W,1,,,233.2,M,,M,,*72
$GPRMC,005038.0,A,3443.6583,N,08633.3304,W,,,171119,,*13
$GPGGA,005108.0,3443.6584,N,08633.3306,W,1,,,230.1,M,,M,,*75
$GPRMC,005108.0,A,3443.6584,N,08633.3306,W,,,171119,,*14
$GPGGA,005138.0,3443.7141,N,08633.3313,W,1,,,229.3,M,,M,,*74
$GPRMC,005138.0,A,3443.7141,N,08633.3313,W,,,171119,,*1F
$GPGGA,005208.2,3443.7544,N,08633.3731,W,1,,,210.2,M,,M,,*78
$GPRMC,005208.2,A,3443.7544,N,08633.3731,W,,,171119,,*18
$GPGGA,005238.0,3443.6644,N,08633.4051,W,1,,,209.0,M,,M,,*77
$GPRMC,005238.0,A,3443.6644,N,08633.4051,W,,,171119,,*1D
$GPGGA,005308.0,3443.6201,N,08633.3426,W,1,,,220.3,M,,M,,*7B
$GPRMC,005308.0,A,3443.6201,N,08633.3426,W,,,171119,,*19
$GPGGA,005338.0,3443.5366,N,08633.3151,W,1,,,216.9,M,,M,,*71
$GPRMC,005338.0,A,3443.5366,N,08633.3151,W,,,171119,,*1C
$GPGGA,005408.0,3443.4510,N,08633.2336,W,1,,,204.1,M,,M,,*7A
$GPRMC,005408.0,A,3443.4510,N,08633.2336,W,,,171119,,*1C
$GPGGA,005438.0,3443.4889,N,08633.1615,W,1,,,215.5,M,,M,,*77
$GPRMC,005438.0,A,3443.4889,N,08633.1615,W,,,171119,,*15
$GPGGA,005508.0,3443.5026,N,08633.1343,W,1,,,232.6,M,,M,,*79
$GPRMC,005508.0,A,3443.5026,N,08633.1343,W,,,171119,,*1D
$GPGGA,005538.0,3443.5035,N,08633.1372,W,1,,,221.5,M,,M,,*7B
$GPRMC,005538.0,A,3443.5035,N,08633.1372,W,,,171119,,*1E
$GPGGA,005608.0,3443.5037,N,08633.1607,W,1,,,216.3,M,,M,,*7C
$GPRMC,005608.0,A,3443.5037,N,08633.1607,W,,,171119,,*1B
$GPGGA,005638.0,3443.5130,N,08633.1824,W,1,,,219.4,M,,M,,*7E
$GPRMC,005638.0,A,3443.5130,N,08633.1824,W,,,171119,,*11
$GPGGA,005708.0,3443.5283,N,08633.1984,W,1,,,218.8,M,,M,,*71
$GPRMC,005708.0,A,3443.5283,N,08633.1984,W,,,171119,,*13
$GPGGA,005738.0,3443.5415,N,08633.2162,W,1,,,223.5,M,,M,,*7D
$GPRMC,005738.0,A,3443.5415,N,08633.2162,W,,,171119,,*1A
$GPGGA,005808.0,3443.5506,N,08633.2405,W,1,,,225.8,M,,M,,*7D
$GPRMC,005808.0,A,3443.5506,N,08633.2405,W,,,171119,,*11
$GPGGA,005838.0,3443.5592,N,08633.2630,W,1,,,222.9,M,,M,,*71
$GPRMC,005838.0,A,3443.5592,N,08633.2630,W,,,171119,,*1B
$GPGGA,005908.0,3443.5703,N,08633.2850,W,1,,,219.5,M,,M,,*75
$GPRMC,005908.0,A,3443.5703,N,08633.2850,W,,,171119,,*1B
$GPGGA,005938.0,3443.5790,N,08633.3099,W,1,,,215.8,M,,M,,*71
$GPRMC,005938.0,A,3443.5790,N,08633.3099,W,,,171119,,*1E
$GPGGA,010008.0,3443.5904,N,08633.3314,W,1,,,211.8,M,,M,,*7E
$GPRMC,010008.0,A,3443.5904,N,08633.3314,W,,,171119,,*15
$GPGGA,010038.0,3443.5739,N,08633.3398,W,1,,,216.1,M,,M,,*77
$GPRMC,010038.0,A,3443.5739,N,08633.3398,W,,,171119,,*12
$GPGGA,010108.0,3443.5636,N,08633.3419,W,1,,,218.5,M,,M,,*7F
$GPRMC,010108.0,A,3443.5636,N,08633.3419,W,,,171119,,*10
$GPGGA,010138.0,3443.5641,N,08633.3418,W,1,,,210.8,M,,M,,*78
$GPRMC,010138.0,A,3443.5641,N,08633.3418,W,,,171119,,*12
$GPGGA,010210.1,3443.5646,N,08633.3421,W,1,,,216.8,M,,M,,*7B
$GPRMC,010210.1,A,3443.5646,N,08633.3421,W,,,171119,,*17
$GPGGA,010241.0,3443.5631,N,08633.3417,W,1,,,221.3,M,,M,,*74
$GPRMC,010241.0,A,3443.5631,N,08633.3417,W,,,171119,,*17
$GPGGA,010311.0,3443.5633,N,08633.3419,W,1,,,222.9,M,,M,,*75
$GPRMC,010311.0,A,3443.5633,N,08633.3419,W,,,171119,,*1F
$GPGGA,010341.0,3443.5632,N,08633.3419,W,1,,,222.3,M,,M,,*7B
$GPRMC,010341.0,A,3443.5632,N,08633.3419,W,,,171119,,*1B
$GPGGA,010411.0,3443.5630,N,08633.3420,W,1,,,222.3,M,,M,,*71
$GPRMC,010411.0,A,3443.5630,N,08633.3420,W,,,171119,,*11
$GPGGA,010441.0,3443.5630,N,08633.3420,W,1,,,223.2,M,,M,,*74
$GPRMC,010441.0,A,3443.5630,N,08633.3420,W,,,171119,,*14
$GPGGA,010511.0,3443.5634,N,08633.3420,W,1,,,222.5,M,,M,,*72
$GPRMC,010511.0,A,3443.5634,N,08633.3420,W,,,171119,,*14
$GPGGA,010541.0,3443.5635,N,08633.3419,W,1,,,221.4,M,,M,,*7E
$GPRMC,010541.0,A,3443.5635,N,08633.3419,W,,,171119,,*1A
$GPGGA,010611.0,3443.5638,N,08633.3421,W,1,,,221.7,M,,M,,*7D
$GPRMC,010611.0,A,3443.5638,N,08633.3421,W,,,171119,,*1A
$GPGGA,010641.0,3443.5639,N,08633.3421,W,1,,,221.9,M,,M,,*77
$GPRMC,010641.0,A,3443.5639,N,08633.3421,W,,,171119,,*1E
$GPGGA,010711.0,3443.5639,N,08633.3422,W,1,,,222.0,M,,M,,*7A
$GPRMC,010711.0,A,3443.5639,N,08633.3422,W,,,171119,,*19
$GPGGA,010741.0,3443.5639,N,08633.3422,W,1,,,221.8,M,,M,,*74
$GPRMC,010741.0,A,3443.5639,N,08633.3422,W,,,171119,,*1C
$GPGGA,010811.0,3443.5638,N,08633.3423,W,1,,,221.7,M,,M,,*71
$GPRMC,010811.0,A,3443.5638,N,08633.3423,W,,,171119,,*16
$GPGGA,010841.0,3443.5638,N,08633.3423,W,1,,,221.6,M,,M,,*75
$GPRMC,010841.0,A,3443.5638,N,08633.3423,W,,,171119,,*13
$GPGGA,010911.0,3443.5639,N,08633.3423,W,1,,,221.3,M,,M,,*75
$GPRMC,010911.0,A,3443.5639,N,08633.3423,W,,,171119,,*16
$GPGGA,010941.0,3443.5639,N,08633.3424,W,1,,,221.3,M,,M,,*77
$GPRMC,010941.0,A,3443.5639,N,08633.3424,W,,,171119,,*14
$GPGGA,011011.0,3443.5687,N,08633.3430,W,1,,,215.5,M,,M,,*7B
$GPRMC,011011.0,A,3443.5687,N,08633.3430,W,,,171119,,*19
$GPGGA,011041.0,3443.5900,N,08633.3377,W,1,,,217.7,M,,M,,*7A
$GPRMC,011041.0,A,3443.5900,N,08633.3377,W,,,171119,,*18
$GPGGA,011111.1,3443.5838,N,08633.3165,W,1,,,227.6,M,,M,,*76
$GPRMC,011111.1,A,3443.5838,N,08633.3165,W,,,171119,,*16
$GPGGA,011141.0,3443.5740,N,08633.2970,W,1,,,235.8,M,,M,,*72
$GPRMC,011141.0,A,3443.5740,N,08633.2970,W,,,171119,,*1F
$GPGGA,011211.0,3443.5651,N,08633.2770,W,1,,,238.2,M,,M,,*7C
$GPRMC,011211.0,A,3443.5651,N,08633.2770,W,,,171119,,*16
$GPGGA,011241.0,3443.5559,N,08633.2577,W,1,,,234.3,M,,M,,*7A
$GPRMC,011241.0,A,3443.5559,N,08633.2577,W,,,171119,,*1D
$GPGGA,011311.0,3443.5491,N,08633.2375,W,1,,,232.7,M,,M,,*7D
$GPRMC,011311.0,A,3443.5491,N,08633.2375,W,,,171119,,*18
$GPGGA,011341.0,3443.5418,N,08633.2170,W,1,,,230.1,M,,M,,*7A
$GPRMC,011341.0,A,3443.5418,N,08633.2170,W,,,171119,,*1B
$GPGGA,011411.0,3443.5296,N,08633.2018,W,1,,,224.9,M,,M,,*7A
$GPRMC,011411.0,A,3443.5296,N,08633.2018,W,,,171119,,*16
$GPGGA,011441.0,3443.5175,N,08633.1857,W,1,,,222.5,M,,M,,*7B
$GPRMC,011441.0,A,3443.5175,N,08633.1857,W,,,171119,,*1D
$GPGGA,011511.0,3443.5062,N,08633.1683,W,1,,,221.1,M,,M,,*78
$GPRMC,011511.0,A,3443.5062,N,08633.1683,W,,,171119,,*19
$GPGGA,011541.0,3443.5035,N,08633.1451,W,1,,,220.5,M,,M,,*77
$GPRMC,011541.0,A,3443.5035,N,08633.1451,W,,,171119,,*13
$GPGGA,011611.0,3443.4968,N,08633.1335,W,1,,,216.3,M,,M,,*77
$GPRMC,011611.0,A,3443.4968,N,08633.1335,W,,,171119,,*10
$GPGGA,011615.7,3443.4943,N,08633.1338,W,1,,,215.0,M,,M,,*70
$GPRMC,011615.7,A,3443.4943,N,08633.1338,W,,,171119,,*17
$GPGGA,011645.0,3443.4743,N,08633.1444,W,1,,,55.3,M,,M,,*45
$GPRMC,011645.0,A,3443.4743,N,08633.1444,W,,,171119,,*17
$GPGGA,011715.0,3443.4821,N,08633.1307,W,1,,,232.3,M,,M,,*79
$GPRMC,011715.0,A,3443.4821,N,08633.1307,W,,,171119,,*18
$GPGGA,011745.0,3443.4721,N,08633.1228,W,1,,,212.0,M,,M,,*7E
$GPRMC,011745.0,A,3443.4721,N,08633.1228,W,,,171119,,*1E
$GPGGA,011815.0,3443.4663,N,08633.1222,W,1,,,211.1,M,,M,,*7B
$GPRMC,011815.0,A,3443.4663,N,08633.1222,W,,,171119,,*19
$GPGGA,011845.0,3443.4708,N,08633.1225,W,1,,,219.5,M,,M,,*79
$GPRMC,011845.0,A,3443.4708,N,08633.1225,W,,,171119,,*17
$GPGGA,011913.0,3443.4714,N,08633.1295,W,1,,,219.8,M,,M,,*70
$GPRMC,011913.0,A,3443.4714,N,08633.1295,W,,,171119,,*13
$GPGGA,011943.0,3443.4713,N,08633.1278,W,1,,,226.0,M,,M,,*75
$GPRMC,011943.0,A,3443.4713,N,08633.1278,W,,,171119,,*12
$GPGGA,012013.0,3443.4713,N,08633.1277,W,1,,,222.3,M,,M,,*72
$GPRMC,012013.0,A,3443.4713,N,08633.1277,W,,,171119,,*12
$GPGGA,012043.1,3443.4713,N,08633.1271,W,1,,,222.8,M,,M,,*7B
$GPRMC,012043.1,A,3443.4713,N,08633.1271,W,,,171119,,*10
$GPGGA,012113.0,3443.4714,N,08633.1264,W,1,,,220.1,M,,M,,*76
$GPRMC,012113.0,A,3443.4714,N,08633.1264,W,,,171119,,*16
$GPGGA,012143.0,3443.4716,N,08633.1258,W,1,,,217.3,M,,M,,*78
$GPRMC,012143.0,A,3443.4716,N,08633.1258,W,,,171119,,*1E
$GPGGA,012213.0,3443.4717,N,08633.1254,W,1,,,216.3,M,,M,,*72
$GPRMC,012213.0,A,3443.4717,N,08633.1254,W,,,171119,,*15
$GPGGA,012243.0,3443.4717,N,08633.1251,W,1,,,215.5,M,,M,,*77
$GPRMC,012243.0,A,3443.4717,N,08633.1251,W,,,171119,,*15
$GPGGA,013826.2,3443.4967,N,08633.1079,W,1,,,47.3,M,,M,,*4F
$GPRMC,013826.2,A,3443.4967,N,08633.1079,W,,,171119,,*1E
$GPGGA,014219.2,3443.4974,N,08633.1094,W,1,,,248.2,M,,M,,*73
$GPRMC,014219.2,A,3443.4974,N,08633.1094,W,,,171119,,*1E
$GPGGA,014249.0,3443.5033,N,08633.1167,W,1,,,252.0,M,,M,,*7B
$GPRMC,014249.0,A,3443.5033,N,08633.1167,W,,,171119,,*1F
$GPGGA,014319.0,3443.4904,N,08633.1274,W,1,,,223.9,M,,M,,*7D
$GPRMC,014319.0,A,3443.4904,N,08633.1274,W,,,171119,,*16
$GPGGA,014349.0,3443.4887,N,08633.1311,W,1,,,216.0,M,,M,,*7F
$GPRMC,014349.0,A,3443.4887,N,08633.1311,W,,,171119,,*1B
$GPGGA,014419.0,3443.4857,N,08633.1289,W,1,,,194.7,M,,M,,*7E
$GPRMC,014419.0,A,3443.4857,N,08633.1289,W,,,171119,,*14
$GPGGA,014449.0,3443.4855,N,08633.1292,W,1,,,201.0,M,,M,,*7B
$GPRMC,014449.0,A,3443.4855,N,08633.1292,W,,,171119,,*19
$GPGGA,014519.0,3443.4825,N,08633.1289,W,1,,,191.0,M,,M,,*78
$GPRMC,014519.0,A,3443.4825,N,08633.1289,W,,,171119,,*10
$GPGGA,014549.0,3443.4798,N,08633.1289,W,1,,,191.4,M,,M,,*70
$GPRMC,014549.0,A,3443.4798,N,08633.1289,W,,,171119,,*1C
$GPGGA,014619.0,3443.4886,N,08633.1301,W,1,,,215.0,M,,M,,*7C
$GPRMC,014619.0,A,3443.4886,N,08633.1301,W,,,171119,,*1B
$GPGGA,014649.1,3443.4892,N,08633.1285,W,1,,,217.0,M,,M,,*72
$GPRMC,014649.1,A,3443.4892,N,08633.1285,W,,,171119,,*17
$GPGGA,014719.0,3443.4896,N,08633.1282,W,1,,,223.2,M,,M,,*71
$GPRMC,014719.0,A,3443.4896,N,08633.1282,W,,,171119,,*11
$GPGGA,014749.0,3443.4896,N,08633.1281,W,1,,,213.9,M,,M,,*7F
$GPRMC,014749.0,A,3443.4896,N,08633.1281,W,,,171119,,*17
$GPGGA,014819.0,3443.4898,N,08633.1281,W,1,,,209.7,M,,M,,*7E
$GPRMC,014819.0,A,3443.4898,N,08633.1281,W,,,171119,,*13
$GPGGA,014849.0,3443.4896,N,08633.1277,W,1,,,209.7,M,,M,,*7C
$GPRMC,014849.0,A,3443.4896,N,08633.1277,W,,,171119,,*11
$GPGGA,014919.0,3443.4891,N,08633.1284,W,1,,,205.2,M,,M,,*7A
$GPRMC,014919.0,A,3443.4891,N,08633.1284,W,,,171119,,*1E
$GPGGA,014949.0,3443.4891,N,08633.1284,W,1,,,204.7,M,,M,,*7B
$GPRMC,014949.0,A,3443.4891,N,08633.1284,W,,,171119,,*1B
$GPGGA,015019.0,3443.4892,N,08633.1290,W,1,,,210.6,M,,M,,*74
$GPRMC,015019.0,A,3443.4892,N,08633.1290,W,,,171119,,*10
$GPGGA,015049.0,3443.4893,N,08633.1288,W,1,,,210.6,M,,M,,*79
$GPRMC,015049.0,A,3443.4893,N,08633.1288,W,,,171119,,*1D
$GPGGA,015119.0,3443.4866,N,08633.1292,W,1,,,195.9,M,,M,,*7D
$GPRMC,015119.0,A,3443.4866,N,08633.1292,W,,,171119,,*18
$GPGGA,015149.0,3443.4872,N,08633.1286,W,1,,,199.8,M,,M,,*75
$GPRMC,015149.0,A,3443.4872,N,08633.1286,W,,,171119,,*1D
$GPGGA,015219.0,3443.4875,N,08633.1285,W,1,,,203.3,M,,M,,*7C
$GPRMC,015219.0,A,3443.4875,N,08633.1285,W,,,171119,,*1F
$GPGGA,015249.0,3443.4861,N,08633.1281,W,1,,,187.2,M,,M,,*76
$GPRMC,015249.0,A,3443.4861,N,08633.1281,W,,,171119,,*1B
$GPGGA,015319.0,3443.4863,N,08633.1280,W,1,,,191.5,M,,M,,*71
$GPRMC,015319.0,A,3443.4863,N,08633.1280,W,,,171119,,*1C
$GPGGA,015349.0,3443.4866,N,08633.1275,W,1,,,197.0,M,,M,,*78
$GPRMC,015349.0,A,3443.4866,N,08633.1275,W,,,171119,,*16
$GPGGA,015419.0,3443.4866,N,08633.1267,W,1,,,200.6,M,,M,,*72
$GPRMC,015419.0,A,3443.4866,N,08633.1267,W,,,171119,,*17
$GPGGA,015449.0,3443.4869,N,08633.1258,W,1,,,206.3,M,,M,,*77
$GPRMC,015449.0,A,3443.4869,N,08633.1258,W,,,171119,,*11
$GPGGA,015519.0,3443.4870,N,08633.1257,W,1,,,206.8,M,,M,,*7F
$GPRMC,015519.0,A,3443.4870,N,08633.1257,W,,,171119,,*12
$GPGGA,015549.0,3443.4870,N,08633.1256,W,1,,,207.1,M,,M,,*73
$GPRMC,015549.0,A,3443.4870,N,08633.1256,W,,,171119,,*16
$GPGGA,015619.0,3443.4877,N,08633.1257,W,1,,,210.0,M,,M,,*74
$GPRMC,015619.0,A,3443.4877,N,08633.1257,W,,,171119,,*16
$GPGGA,015649.0,3443.4884,N,08633.1253,W,1,,,212.1,M,,M,,*7A
$GPRMC,015649.0,A,3443.4884,N,08633.1253,W,,,171119,,*1B
$GPGGA,015719.0,3443.4878,N,08633.1254,W,1,,,208.7,M,,M,,*77
$GPRMC,015719.0,A,3443.4878,N,08633.1254,W,,,171119,,*1B
$GPGGA,015749.0,3443.4878,N,08633.1254,W,1,,,209.1,M,,M,,*75
$GPRMC,015749.0,A,3443.4878,N,08633.1254,W,,,171119,,*1E
$GPGGA,015819.0,3443.4879,N,08633.1254,W,1,,,209.0,M,,M,,*7F
$GPRMC,015819.0,A,3443.4879,N,08633.1254,W,,,171119,,*15
$GPGGA,015849.0,3443.4879,N,08633.1254,W,1,,,208.0,M,,M,,*7B
$GPRMC,015849.0,A,3443.4879,N,08633.1254,W,,,171119,,*10
$GPGGA,015919.0,3443.4880,N,08633.1243,W,1,,,205.0,M,,M,,*72
$GPRMC,015919.0,A,3443.4880,N,08633.1243,W,,,171119,,*14
$GPGGA,015949.0,3443.4881,N,08633.1244,W,1,,,206.9,M,,M,,*7B
$GPRMC,015949.0,A,3443.4881,N,08633.1244,W,,,171119,,*17
$GPGGA,020019.0,3443.4883,N,08633.1243,W,1,,,212.9,M,,M,,*71
$GPRMC,020019.0,A,3443.4883,N,08633.1243,W,,,171119,,*18
$GPGGA,020049.0,3443.4884,N,08633.1243,W,1,,,214.4,M,,M,,*78
$GPRMC,020049.0,A,3443.4884,N,08633.1243,W,,,171119,,*1A
$GPGGA,020119.0,3443.4885,N,08633.1243,W,1,,,215.4,M,,M,,*7C
$GPRMC,020119.0,A,3443.4885,N,08633.1243,W,,,171119,,*1F
$GPGGA,020149.0,3443.4888,N,08633.1243,W,1,,,216.5,M,,M,,*76
$GPRMC,020149.0,A,3443.4888,N,08633.1243,W,,,171119,,*17
$GPGGA,020219.0,3443.4890,N,08633.1240,W,1,,,220.0,M,,M,,*7A
$GPRMC,020219.0,A,3443.4890,N,08633.1240,W,,,171119,,*1B
$GPGGA,020249.0,3443.4892,N,08633.1239,W,1,,,219.5,M,,M,,*7C
$GPRMC,020249.0,A,3443.4892,N,08633.1239,W,,,171119,,*12
$GPGGA,020319.0,3443.4895,N,08633.1239,W,1,,,219.5,M,,M,,*7F
$GPRMC,020319.0,A,3443.4895,N,08633.1239,W,,,171119,,*11
$GPGGA,020349.0,3443.4897,N,08633.1240,W,1,,,220.0,M,,M,,*79
$GPRMC,020349.0,A,3443.4897,N,08633.1240,W,,,171119,,*18
$GPGGA,020419.0,3443.4899,N,08633.1242,W,1,,,220.1,M,,M,,*76
$GPRMC,020419.0,A,3443.4899,N,08633.1242,W,,,171119,,*16
$GPGGA,020449.0,3443.4901,N,08633.1242,W,1,,,221.7,M,,M,,*74
$GPRMC,020449.0,A,3443.4901,N,08633.1242,W,,,171119,,*13
$GPGGA,020519.0,3443.4903,N,08633.1243,W,1,,,222.3,M,,M,,*74
$GPRMC,020519.0,A,3443.4903,N,08633.1243,W,,,171119,,*14
$GPGGA,020549.0,3443.4905,N,08633.1242,W,1,,,222.7,M,,M,,*72
$GPRMC,020549.0,A,3443.4905,N,08633.1242,W,,,171119,,*16
$GPGGA,020619.0,3443.4905,N,08633.1242,W,1,,,223.1,M,,M,,*73
$GPRMC,020619.0,A,3443.4905,N,08633.1242,W,,,171119,,*10
$GPGGA,020649.0,3443.4905,N,08633.1242,W,1,,,223.3,M,,M,,*74
$GPRMC,020649.0,A,3443.4905,N,08633.1242,W,,,171119,,*15
$GPGGA,020719.0,3443.4905,N,08633.1242,W,1,,,223.5,M,,M,,*76
$GPRMC,020719.0,A,3443.4905,N,08633.1242,W,,,171119,,*11
$GPGGA,020749.0,3443.4906,N,08633.1241,W,1,,,223.8,M,,M,,*7E
$GPRMC,020749.0,A,3443.4906,N,08633.1241,W,,,171119,,*14
$GPGGA,020819.0,3443.4990,N,08633.1268,W,1,,,252.8,M,,M,,*76
$GPRMC,020819.0,A,3443.4990,N,08633.1268,W,,,171119,,*1A
$GPGGA,020849.0,3443.4990,N,08633.1267,W,1,,,246.8,M,,M,,*79
$GPRMC,020849.0,A,3443.4990,N,08633.1267,W,,,171119,,*10
$GPGGA,020919.0,3443.4987,N,08633.1262,W,1,,,239.7,M,,M,,*79
$GPRMC,020919.0,A,3443.4987,N,08633.1262,W,,,171119,,*17
$GPGGA,020949.0,3443.4983,N,08633.1256,W,1,,,244.4,M,,M,,*76
$GPRMC,020949.0,A,3443.4983,N,08633.1256,W,,,171119,,*11
$GPGGA,021019.0,3443.4977,N,08633.1252,W,1,,,249.1,M,,M,,*7C
$GPRMC,021019.0,A,3443.4977,N,08633.1252,W,,,171119,,*13
$GPGGA,021049.0,3443.4970,N,08633.1252,W,1,,,245.2,M,,M,,*71
$GPRMC,021049.0,A,3443.4970,N,08633.1252,W,,,171119,,*11
$GPGGA,021119.0,3443.4966,N,08633.1251,W,1,,,242.3,M,,M,,*77
$GPRMC,021119.0,A,3443.4966,N,08633.1251,W,,,171119,,*11
$GPGGA,021149.0,3443.4964,N,08633.1251,W,1,,,238.6,M,,M,,*78
$GPRMC,021149.0,A,3443.4964,N,08633.1251,W,,,171119,,*16
$GPGGA,021219.0,3443.4961,N,08633.1250,W,1,,,234.2,M,,M,,*72
$GPRMC,021219.0,A,3443.4961,N,08633.1250,W,,,171119,,*14
$GPGGA,021249.0,3443.4960,N,08633.1249,W,1,,,232.8,M,,M,,*72
$GPRMC,021249.0,A,3443.4960,N,08633.1249,W,,,171119,,*18
$GPGGA,021319.0,3443.4959,N,08633.1249,W,1,,,232.6,M,,M,,*72
$GPRMC,021319.0,A,3443.4959,N,08633.1249,W,,,171119,,*16
$GPGGA,021349.0,3443.4956,N,08633.1249,W,1,,,232.3,M,,M,,*7D
$GPRMC,021349.0,A,3443.4956,N,08633.1249,W,,,171119,,*1C
$GPGGA,021419.0,3443.4951,N,08633.1249,W,1,,,232.1,M,,M,,*7A
$GPRMC,021419.0,A,3443.4951,N,08633.1249,W,,,171119,,*19
$GPGGA,021449.0,3443.4947,N,08633.1250,W,1,,,232.5,M,,M,,*74
$GPRMC,021449.0,A,3443.4947,N,08633.1250,W,,,171119,,*13
$GPGGA,021519.0,3443.4943,N,08633.1251,W,1,,,233.0,M,,M,,*71
$GPRMC,021519.0,A,3443.4943,N,08633.1251,W,,,171119,,*12
$GPGGA,021549.0,3443.4940,N,08633.1252,W,1,,,232.1,M,,M,,*74
$GPRMC,021549.0,A,3443.4940,N,08633.1252,W,,,171119,,*17
$GPGGA,021619.0,3443.4940,N,08633.1253,W,1,,,231.7,M,,M,,*76
$GPRMC,021619.0,A,3443.4940,N,08633.1253,W,,,171119,,*10
$GPGGA,021649.0,3443.4938,N,08633.1253,W,1,,,230.2,M,,M,,*78
$GPRMC,021649.0,A,3443.4938,N,08633.1253,W,,,171119,,*1A
$GPGGA,021719.0,3443.4936,N,08633.1254,W,1,,,228.8,M,,M,,*76
$GPRMC,021719.0,A,3443.4936,N,08633.1254,W,,,171119,,*17
$GPGGA,021749.0,3443.4934,N,08633.1253,W,1,,,228.6,M,,M,,*78
$GPRMC,021749.0,A,3443.4934,N,08633.1253,W,,,171119,,*17
$GPGGA,021819.0,3443.4933,N,08633.1253,W,1,,,228.3,M,,M,,*70
$GPRMC,021819.0,A,3443.4933,N,08633.1253,W,,,171119,,*1A
$GPGGA,021849.0,3443.4932,N,08633.1253,W,1,,,227.9,M,,M,,*71
$GPRMC,021849.0,A,3443.4932,N,08633.1253,W,,,171119,,*1E
$GPGGA,021919.0,3443.4932,N,08633.1252,W,1,,,227.8,M,,M,,*75
$GPRMC,021919.0,A,3443.4932,N,08633.1252,W,,,171119,,*1B
$GPGGA,021949.0,3443.4932,N,08633.1252,W,1,,,227.7,M,,M,,*7F
$GPRMC,021949.0,A,3443.4932,N,08633.1252,W,,,171119,,*1E
$GPGGA,022019.0,3443.4932,N,08633.1252,W,1,,,227.7,M,,M,,*70
$GPRMC,022019.0,A,3443.4932,N,08633.1252,W,,,171119,,*11
$GPGGA,022049.0,3443.4927,N,08633.1247,W,1,,,223.1,M,,M,,*77
$GPRMC,022049.0,A,3443.4927,N,08633.1247,W,,,171119,,*14
$GPGGA,022119.0,3443.4927,N,08633.1248,W,1,,,222.8,M,,M,,*74
$GPRMC,022119.0,A,3443.4927,N,08633.1248,W,,,171119,,*1F
$GPGGA,022149.0,3443.4927,N,08633.1248,W,1,,,222.1,M,,M,,*78
$GPRMC,022149.0,A,3443.4927,N,08633.1248,W,,,171119,,*1A
$GPGGA,022219.0,3443.4926,N,08633.1248,W,1,,,221.2,M,,M,,*7F
$GPRMC,022219.0,A,3443.4926,N,08633.1248,W,,,171119,,*1D
$GPGGA,022249.0,3443.4926,N,08633.1248,W,1,,,220.7,M,,M,,*7E
$GPRMC,022249.0,A,3443.4926,N,08633.1248,W,,,171119,,*18
$GPGGA,022319.0,3443.4926,N,08633.1248,W,1,,,220.7,M,,M,,*7A
$GPRMC,022319.0,A,3443.4926,N,08633.1248,W,,,171119,,*1C
$GPGGA,022349.0,3443.4926,N,08633.1249,W,1,,,220.4,M,,M,,*7D
$GPRMC,022349.0,A,3443.4926,N,08633.1249,W,,,171119,,*18
$GPGGA,022419.0,3443.4927,N,08633.1248,W,1,,,221.7,M,,M,,*7D
$GPRMC,022419.0,A,3443.4927,N,08633.1248,W,,,171119,,*1A
$GPGGA,022449.0,3443.4923,N,08633.1249,W,1,,,219.0,M,,M,,*71
$GPRMC,022449.0,A,3443.4923,N,08633.1249,W,,,171119,,*1A
$GPGGA,022519.0,3443.4923,N,08633.1248,W,1,,,219.2,M,,M,,*76
$GPRMC,022519.0,A,3443.4923,N,08633.1248,W,,,171119,,*1F
$GPGGA,022549.0,3443.4923,N,08633.1248,W,1,,,219.3,M,,M,,*72
$GPRMC,022549.0,A,3443.4923,N,08633.1248,W,,,171119,,*1A
$GPGGA,022619.2,3443.4923,N,08633.1248,W,1,,,219.3,M,,M,,*76
$GPRMC,022619.2,A,3443.4923,N,08633.1248,W,,,171119,,*1E
$GPGGA,022649.0,3443.4924,N,08633.1248,W,1,,,219.5,M,,M,,*70
$GPRMC,022649.0,A,3443.4924,N,08633.1248,W,,,171119,,*1E
$GPGGA,022719.0,3443.4924,N,08633.1248,W,1,,,220.7,M,,M,,*7C
$GPRMC,022719.0,A,3443.4924,N,08633.1248,W,,,171119,,*1A
$GPGGA,022749.0,3443.4924,N,08633.1246,W,1,,,222.1,M,,M,,*73
$GPRMC,022749.0,A,3443.4924,N,08633.1246,W,,,171119,,*11
$GPGGA,022819.0,3443.4923,N,08633.1245,W,1,,,223.9,M,,M,,*74
$GPRMC,022819.0,A,3443.4923,N,08633.1245,W,,,171119,,*1F
$GPGGA,022849.0,3443.4923,N,08633.1245,W,1,,,224.0,M,,M,,*7F
$GPRMC,022849.0,A,3443.4923,N,08633.1245,W,,,171119,,*1A
$GPGGA,022919.0,3443.4940,N,08633.1253,W,1,,,232.2,M,,M,,*7C
$GPRMC,022919.0,A,3443.4940,N,08633.1253,W,,,171119,,*1C
$GPGGA,022949.0,3443.4976,N,08633.1263,W,1,,,245.9,M,,M,,*74
$GPRMC,022949.0,A,3443.4976,N,08633.1263,W,,,171119,,*1F
$GPGGA,023019.0,3443.4975,N,08633.1270,W,1,,,247.4,M,,M,,*77
$GPRMC,023019.0,A,3443.4975,N,08633.1270,W,,,171119,,*13
$GPGGA,023046.8,3443.4985,N,08633.1270,W,1,,,244.2,M,,M,,*7F
$GPRMC,023046.8,A,3443.4985,N,08633.1270,W,,,171119,,*1E
$GPGGA,023116.0,3443.4913,N,08633.1267,W,1,,,244.4,M,,M,,*7C
$GPRMC,023116.0,A,3443.4913,N,08633.1267,W,,,171119,,*1B
$GPGGA,023146.0,3443.4918,N,08633.1258,W,1,,,250.4,M,,M,,*7B
$GPRMC,023146.0,A,3443.4918,N,08633.1258,W,,,171119,,*19
$GPGGA,023216.0,3443.4928,N,08633.1256,W,1,,,254.7,M,,M,,*77
$GPRMC,023216.0,A,3443.4928,N,08633.1256,W,,,171119,,*12
$GPGGA,023246.0,3443.4915,N,08633.1281,W,1,,,2.2,M,,M,,*72
$GPRMC,023246.0,A,3443.4915,N,08633.1281,W,,,171119,,*13
$GPGGA,023316.0,3443.4758,N,08633.1220,W,1,,,215.6,M,,M,,*7A
$GPRMC,023316.0,A,3443.4758,N,08633.1220,W,,,171119,,*1B
$GPGGA,023344.9,3443.4732,N,08633.1229,W,1,,,218.9,M,,M,,*73
$GPRMC,023344.9,A,3443.4732,N,08633.1229,W,,,171119,,*10
$GPGGA,023414.0,3443.4750,N,08633.1217,W,1,,,217.9,M,,M,,*7E
$GPRMC,023414.0,A,3443.4750,N,08633.1217,W,,,171119,,*12
$GPGGA,023444.0,3443.4752,N,08633.1218,W,1,,,222.9,M,,M,,*70
$GPRMC,023444.0,A,3443.4752,N,08633.1218,W,,,171119,,*1A
$GPGGA,023514.0,3443.4757,N,08633.1220,W,1,,,223.3,M,,M,,*71
$GPRMC,023514.0,A,3443.4757,N,08633.1220,W,,,171119,,*10
$GPGGA,023544.0,3443.4759,N,08633.1220,W,1,,,222.4,M,,M,,*7C
$GPRMC,023544.0,A,3443.4759,N,08633.1220,W,,,171119,,*1B
$GPGGA,023614.0,3443.4759,N,08633.1220,W,1,,,220.8,M,,M,,*74
$GPRMC,023614.0,A,3443.4759,N,08633.1220,W,,,171119,,*1D
$GPGGA,023644.0,3443.4759,N,08633.1220,W,1,,,220.7,M,,M,,*7E
$GPRMC,023644.0,A,3443.4759,N,08633.1220,W,,,171119,,*18
$GPGGA,023714.0,3443.4758,N,08633.1220,W,1,,,220.5,M,,M,,*79
$GPRMC,023714.0,A,3443.4758,N,08633.1220,W,,,171119,,*1D
$GPGGA,023744.0,3443.4757,N,08633.1219,W,1,,,220.4,M,,M,,*78
$GPRMC,023744.0,A,3443.4757,N,08633.1219,W,,,171119,,*1D
$GPGGA,023814.0,3443.4756,N,08633.1219,W,1,,,220.2,M,,M,,*75
$GPRMC,023814.0,A,3443.4756,N,08633.1219,W,,,171119,,*16
$GPGGA,023844.0,3443.4756,N,08633.1220,W,1,,,220.2,M,,M,,*7A
$GPRMC,023844.0,A,3443.4756,N,08633.1220,W,,,171119,,*19
$GPGGA,023914.0,3443.4756,N,08633.1219,W,1,,,218.7,M,,M,,*7A
$GPRMC,023914.0,A,3443.4756,N,08633.1219,W,,,171119,,*17
$GPGGA,023944.0,3443.4755,N,08633.1219,W,1,,,217.9,M,,M,,*7D
$GPRMC,023944.0,A,3443.4755,N,08633.1219,W,,,171119,,*11
$GPGGA,024014.0,3443.4754,N,08633.1220,W,1,,,218.6,M,,M,,*7D
$GPRMC,024014.0,A,3443.4754,N,08633.1220,W,,,171119,,*11
$GPGGA,024044.0,3443.4754,N,08633.1220,W,1,,,218.7,M,,M,,*79
$GPRMC,024044.0,A,3443.4754,N,08633.1220,W,,,171119,,*14
$GPGGA,024114.0,3443.4754,N,08633.1220,W,1,,,219.0,M,,M,,*7B
$GPRMC,024114.0,A,3443.4754,N,08633.1220,W,,,171119,,*10
$GPGGA,024144.0,3443.4754,N,08633.1220,W,1,,,218.9,M,,M,,*76
$GPRMC,024144.0,A,3443.4754,N,08633.1220,W,,,171119,,*15
$GPGGA,024214.0,3443.4754,N,08633.1219,W,1,,,218.9,M,,M,,*7A
$GPRMC,024214.0,A,3443.4754,N,08633.1219,W,,,171119,,*19
$GPGGA,024244.0,3443.4754,N,08633.1220,W,1,,,218.7,M,,M,,*7B
$GPRMC,024244.0,A,3443.4754,N,08633.1220,W,,,171119,,*16
$GPGGA,024314.0,3443.4755,N,08633.1221,W,1,,,218.2,M,,M,,*7A
$GPRMC,024314.0,A,3443.4755,N,08633.1221,W,,,171119,,*12
$GPGGA,024344.0,3443.4754,N,08633.1220,W,1,,,218.3,M,,M,,*7E
$GPRMC,024344.0,A,3443.4754,N,08633.1220,W,,,171119,,*17
$GPGGA,024414.0,3443.4753,N,08633.1221,W,1,,,218.8,M,,M,,*71
$GPRMC,024414.0,A,3443.4753,N,08633.1221,W,,,171119,,*13
$GPGGA,024444.0,3443.4753,N,08633.1221,W,1,,,218.9,M,,M,,*75
$GPRMC,024444.0,A,3443.4753,N,08633.1221,W,,,171119,,*16
$GPGGA,025703.2,3443.4894,N,08633.1222,W,1,,,231.1,M,,M,,*72
$GPRMC,025703.2,A,3443.4894,N,08633.1222,W,,,171119,,*12
$GPGGA,025733.0,3443.4881,N,08633.1240,W,1,,,229.5,M,,M,,*7E
$GPRMC,025733.0,A,3443.4881,N,08633.1240,W,,,171119,,*13
$GPGGA,025803.0,3443.4883,N,08633.1241,W,1,,,228.0,M,,M,,*75
$GPRMC,025803.0,A,3443.4883,N,08633.1241,W,,,171119,,*1C
$GPGGA,025833.0,3443.4884,N,08633.1242,W,1,,,228.3,M,,M,,*71
$GPRMC,025833.0,A,3443.4884,N,08633.1242,W,,,171119,,*1B
$GPGGA,025903.0,3443.4885,N,08633.1242,W,1,,,227.7,M,,M,,*79
$GPRMC,025903.0,A,3443.4885,N,08633.1242,W,,,171119,,*18
$GPGGA,025933.0,3443.4886,N,08633.1242,W,1,,,226.7,M,,M,,*78
$GPRMC,025933.0,A,3443.4886,N,08633.1242,W,,,171119,,*18
$GPGGA,030003.0,3443.4886,N,08633.1242,W,1,,,226.1,M,,M,,*70
$GPRMC,030003.0,A,3443.4886,N,08633.1242,W,,,171119,,*16
$GPGGA,030033.0,3443.4886,N,08633.1243,W,1,,,226.3,M,,M,,*70
$GPRMC,030033.0,A,3443.4886,N,08633.1243,W,,,171119,,*14
$GPGGA,030103.0,3443.4886,N,08633.1243,W,1,,,225.7,M,,M,,*75
$GPRMC,030103.0,A,3443.4886,N,08633.1243,W,,,171119,,*16
$GPGGA,030133.0,3443.4887,N,08633.1243,W,1,,,226.1,M,,M,,*72
$GPRMC,030133.0,A,3443.4887,N,08633.1243,W,,,171119,,*14
$GPGGA,030203.1,3443.4887,N,08633.1245,W,1,,,227.8,M,,M,,*7D
$GPRMC,030203.1,A,3443.4887,N,08633.1245,W,,,171119,,*13
$GPGGA,030233.0,3443.4887,N,08633.1247,W,1,,,229.5,M,,M,,*7E
$GPRMC,030233.0,A,3443.4887,N,08633.1247,W,,,171119,,*13
$GPGGA,030303.0,3443.4888,N,08633.1247,W,1,,,230.4,M,,M,,*7A
$GPRMC,030303.0,A,3443.4888,N,08633.1247,W,,,171119,,*1E
$GPGGA,030333.0,3443.4890,N,08633.1244,W,1,,,229.0,M,,M,,*7F
$GPRMC,030333.0,A,3443.4890,N,08633.1244,W,,,171119,,*17
$GPGGA,030403.0,3443.4890,N,08633.1244,W,1,,,229.1,M,,M,,*7A
$GPRMC,030403.0,A,3443.4890,N,08633.1244,W,,,171119,,*13
$GPGGA,030433.0,3443.4890,N,08633.1244,W,1,,,228.7,M,,M,,*7E
$GPRMC,030433.0,A,3443.4890,N,08633.1244,W,,,171119,,*10
$GPGGA,030503.0,3443.4890,N,08633.1243,W,1,,,228.4,M,,M,,*78
$GPRMC,030503.0,A,3443.4890,N,08633.1243,W,,,171119,,*15
$GPGGA,030533.0,3443.4890,N,08633.1243,W,1,,,228.3,M,,M,,*7C
$GPRMC,030533.0,A,3443.4890,N,08633.1243,W,,,171119,,*16
$GPGGA,030603.0,3443.4891,N,08633.1243,W,1,,,228.1,M,,M,,*7F
$GPRMC,030603.0,A,3443.4891,N,08633.1243,W,,,171119,,*17
$GPGGA,030633.0,3443.4891,N,08633.1243,W,1,,,228.2,M,,M,,*7F
$GPRMC,030633.0,A,3443.4891,N,08633.1243,W,,,171119,,*14
$GPGGA,030703.0,3443.4888,N,08633.1252,W,1,,,231.0,M,,M,,*7F
$GPRMC,030703.0,A,3443.4888,N,08633.1252,W,,,171119,,*1E
$GPGGA,030733.0,3443.4888,N,08633.1252,W,1,,,230.9,M,,M,,*74
$GPRMC,030733.0,A,3443.4888,N,08633.1252,W,,,171119,,*1D
$GPGGA,030803.0,3443.4894,N,08633.1243,W,1,,,229.2,M,,M,,*76
$GPRMC,030803.0,A,3443.4894,N,08633.1243,W,,,171119,,*1C
$GPGGA,030833.0,3443.4894,N,08633.1243,W,1,,,229.2,M,,M,,*75
$GPRMC,030833.0,A,3443.4894,N,08633.1243,W,,,171119,,*1F
$GPGGA,030903.0,3443.4894,N,08633.1243,W,1,,,229.1,M,,M,,*74
$GPRMC,030903.0,A,3443.4894,N,08633.1243,W,,,171119,,*1D
$GPGGA,030933.0,3443.4894,N,08633.1244,W,1,,,228.9,M,,M,,*79
$GPRMC,030933.0,A,3443.4894,N,08633.1244,W,,,171119,,*19
$GPGGA,031003.0,3443.4875,N,08633.1255,W,1,,,236.7,M,,M,,*7C
$GPRMC,031003.0,A,3443.4875,N,08633.1255,W,,,171119,,*1D
$GPGGA,031033.0,3443.4858,N,08633.1244,W,1,,,234.2,M,,M,,*77
$GPRMC,031033.0,A,3443.4858,N,08633.1244,W,,,171119,,*11
$GPGGA,031103.0,3443.4858,N,08633.1244,W,1,,,232.2,M,,M,,*73
$GPRMC,031103.0,A,3443.4858,N,08633.1244,W,,,171119,,*13
$GPGGA,031133.0,3443.4858,N,08633.1245,W,1,,,231.3,M,,M,,*73
$GPRMC,031133.0,A,3443.4858,N,08633.1245,W,,,171119,,*11
$GPGGA,031203.3,3443.4859,N,08633.1244,W,1,,,230.7,M,,M,,*75
$GPRMC,031203.3,A,3443.4859,N,08633.1244,W,,,171119,,*12
$GPGGA,031233.0,3443.4860,N,08633.1244,W,1,,,229.7,M,,M,,*77
$GPRMC,031233.0,A,3443.4860,N,08633.1244,W,,,171119,,*18
$GPGGA,031303.0,3443.4861,N,08633.1249,W,1,,,231.2,M,,M,,*75
$GPRMC,031303.0,A,3443.4861,N,08633.1249,W,,,171119,,*16
$GPGGA,031333.0,3443.4862,N,08633.1249,W,1,,,231.2,M,,M,,*75
$GPRMC,031333.0,A,3443.4862,N,08633.1249,W,,,171119,,*16
$GPGGA,031403.0,3443.4856,N,08633.1262,W,1,,,234.8,M,,M,,*70
$GPRMC,031403.0,A,3443.4856,N,08633.1262,W,,,171119,,*1C
$GPGGA,031433.0,3443.4848,N,08633.1268,W,1,,,235.9,M,,M,,*76
$GPRMC,031433.0,A,3443.4848,N,08633.1268,W,,,171119,,*1A
$GPGGA,031503.0,3443.4848,N,08633.1268,W,1,,,235.6,M,,M,,*7B
$GPRMC,031503.0,A,3443.4848,N,08633.1268,W,,,171119,,*18
$GPGGA,031533.0,3443.4848,N,08633.1268,W,1,,,235.7,M,,M,,*79
$GPRMC,031533.0,A,3443.4848,N,08633.1268,W,,,171119,,*1B
$GPGGA,031548.4,3443.4848,N,08633.1268,W,1,,,235.8,M,,M,,*7E
$GPRMC,031548.4,A,3443.4848,N,08633.1268,W,,,171119,,*13
$GPGGA,031609.0,3443.4912,N,08633.1289,W,1,,,244.6,M,,M,,*75
$GPRMC,031609.0,A,3443.4912,N,08633.1289,W,,,171119,,*10
$GPGGA,031639.0,3443.4903,N,08633.1259,W,1,,,236.8,M,,M,,*70
$GPRMC,031639.0,A,3443.4903,N,08633.1259,W,,,171119,,*1E
$GPGGA,031709.0,3443.4903,N,08633.1258,W,1,,,234.3,M,,M,,*7A
$GPRMC,031709.0,A,3443.4903,N,08633.1258,W,,,171119,,*1D
$GPGGA,031739.0,3443.4903,N,08633.1256,W,1,,,234.2,M,,M,,*76
$GPRMC,031739.0,A,3443.4903,N,08633.1256,W,,,171119,,*10
$GPGGA,031809.0,3443.4922,N,08633.1254,W,1,,,224.3,M,,M,,*7B
$GPRMC,031809.0,A,3443.4922,N,08633.1254,W,,,171119,,*1D
$GPGGA,031839.0,3443.4908,N,08633.1246,W,1,,,229.2,M,,M,,*7F
$GPRMC,031839.0,A,3443.4908,N,08633.1246,W,,,171119,,*15
$GPGGA,031909.0,3443.4919,N,08633.1251,W,1,,,224.7,M,,M,,*73
$GPRMC,031909.0,A,3443.4919,N,08633.1251,W,,,171119,,*11
$GPGGA,031939.2,3443.4919,N,08633.1251,W,1,,,225.2,M,,M,,*76
$GPRMC,031939.2,A,3443.4919,N,08633.1251,W,,,171119,,*10
$GPGGA,032009.0,3443.4918,N,08633.1251,W,1,,,225.1,M,,M,,*7F
$GPRMC,032009.0,A,3443.4918,N,08633.1251,W,,,171119,,*1A
$GPGGA,032039.0,3443.4918,N,08633.1251,W,1,,,224.7,M,,M,,*7B
$GPRMC,032039.0,A,3443.4918,N,08633.1251,W,,,171119,,*19
$GPGGA,032109.0,3443.4918,N,08633.1251,W,1,,,224.8,M,,M,,*76
$GPRMC,032109.0,A,3443.4918,N,08633.1251,W,,,171119,,*1B
$GPGGA,032139.0,3443.4918,N,08633.1250,W,1,,,225.0,M,,M,,*7D
$GPRMC,032139.0,A,3443.4918,N,08633.1250,W,,,171119,,*19
$GPGGA,032209.0,3443.4918,N,08633.1250,W,1,,,225.0,M,,M,,*7D
$GPRMC,032209.0,A,3443.4918,N,08633.1250,W,,,171119,,*19
$GPGGA,032239.0,3443.4944,N,08633.1267,W,1,,,163.8,M,,M,,*7A
$GPRMC,032239.0,A,3443.4944,N,08633.1267,W,,,171119,,*17
$GPGGA,032309.0,3443.4945,N,08633.1251,W,1,,,200.2,M,,M,,*70
$GPRMC,032309.0,A,3443.4945,N,08633.1251,W,,,171119,,*11
$GPGGA,032339.0,3443.4936,N,08633.1253,W,1,,,210.8,M,,M,,*7E
$GPRMC,032339.0,A,3443.4936,N,08633.1253,W,,,171119,,*14
$GPGGA,032409.0,3443.4936,N,08633.1252,W,1,,,209.6,M,,M,,*7D
$GPRMC,032409.0,A,3443.4936,N,08633.1252,W,,,171119,,*11
$GPGGA,032439.0,3443.4936,N,08633.1251,W,1,,,211.7,M,,M,,*75
$GPRMC,032439.0,A,3443.4936,N,08633.1251,W,,,171119,,*11
$GPGGA,032509.0,3443.4934,N,08633.1250,W,1,,,212.0,M,,M,,*70
$GPRMC,032509.0,A,3443.4934,N,08633.1250,W,,,171119,,*10
$GPGGA,032539.0,3443.4932,N,08633.1241,W,1,,,215.0,M,,M,,*72
$GPRMC,032539.0,A,3443.4932,N,08633.1241,W,,,171119,,*15
$GPGGA,032609.0,3443.4917,N,08633.1259,W,1,,,226.0,M,,M,,*7C
$GPRMC,032609.0,A,3443.4917,N,08633.1259,W,,,171119,,*1B
$GPGGA,032639.0,3443.4916,N,08633.1260,W,1,,,230.6,M,,M,,*75
$GPRMC,032639.0,A,3443.4916,N,08633.1260,W,,,171119,,*13
$GPGGA,032709.0,3443.4915,N,08633.1258,W,1,,,230.0,M,,M,,*79
$GPRMC,032709.0,A,3443.4915,N,08633.1258,W,,,171119,,*19
$GPGGA,032739.0,3443.4914,N,08633.1256,W,1,,,229.2,M,,M,,*7F
$GPRMC,032739.0,A,3443.4914,N,08633.1256,W,,,171119,,*15
$GPGGA,032809.0,3443.4912,N,08633.1251,W,1,,,231.4,M,,M,,*7D
$GPRMC,032809.0,A,3443.4912,N,08633.1251,W,,,171119,,*18
$GPGGA,032839.0,3443.4912,N,08633.1247,W,1,,,232.5,M,,M,,*7B
$GPRMC,032839.0,A,3443.4912,N,08633.1247,W,,,171119,,*1C
$GPGGA,032909.0,3443.4912,N,08633.1244,W,1,,,233.3,M,,M,,*7D
$GPRMC,032909.0,A,3443.4912,N,08633.1244,W,,,171119,,*1D
$GPGGA,032939.2,3443.4912,N,08633.1244,W,1,,,233.0,M,,M,,*7F
$GPRMC,032939.2,A,3443.4912,N,08633.1244,W,,,171119,,*1C
$GPGGA,033009.0,3443.4912,N,08633.1247,W,1,,,231.7,M,,M,,*70
$GPRMC,033009.0,A,3443.4912,N,08633.1247,W,,,171119,,*16
$GPGGA,033039.0,3443.4913,N,08633.1249,W,1,,,229.2,M,,M,,*70
$GPRMC,033039.0,A,3443.4913,N,08633.1249,W,,,171119,,*1A
$GPGGA,033109.0,3443.4915,N,08633.1253,W,1,,,226.9,M,,M,,*7B
$GPRMC,033109.0,A,3443.4915,N,08633.1253,W,,,171119,,*15
$GPGGA,033139.0,3443.4916,N,08633.1255,W,1,,,226.0,M,,M,,*74
$GPRMC,033139.0,A,3443.4916,N,08633.1255,W,,,171119,,*13
$GPGGA,033209.0,3443.4917,N,08633.1256,W,1,,,225.7,M,,M,,*72
$GPRMC,033209.0,A,3443.4917,N,08633.1256,W,,,171119,,*11
$GPGGA,033239.0,3443.4917,N,08633.1255,W,1,,,226.3,M,,M,,*75
$GPRMC,033239.0,A,3443.4917,N,08633.1255,W,,,171119,,*11
$GPGGA,033309.0,3443.4917,N,08633.1254,W,1,,,226.2,M,,M,,*77
$GPRMC,033309.0,A,3443.4917,N,08633.1254,W,,,171119,,*12
$GPGGA,033339.0,3443.4917,N,08633.1253,W,1,,,226.4,M,,M,,*75
$GPRMC,033339.0,A,3443.4917,N,08633.1253,W,,,171119,,*16
$GPGGA,033409.0,3443.4918,N,08633.1253,W,1,,,226.0,M,,M,,*7A
$GPRMC,033409.0,A,3443.4918,N,08633.1253,W,,,171119,,*1D
$GPGGA,033439.0,3443.4917,N,08633.1252,W,1,,,226.0,M,,M,,*77
$GPRMC,033439.0,A,3443.4917,N,08633.1252,W,,,171119,,*10
$GPGGA,033509.0,3443.4917,N,08633.1252,W,1,,,226.2,M,,M,,*77
$GPRMC,033509.0,A,3443.4917,N,08633.1252,W,,,171119,,*12
$GPGGA,033539.0,3443.4916,N,08633.1251,W,1,,,227.1,M,,M,,*74
$GPRMC,033539.0,A,3443.4916,N,08633.1251,W,,,171119,,*13
$GPGGA,033609.0,3443.4914,N,08633.1256,W,1,,,231.5,M,,M,,*72
$GPRMC,033609.0,A,3443.4914,N,08633.1256,W,,,171119,,*16
$GPGGA,033639.0,3443.4910,N,08633.1255,W,1,,,236.2,M,,M,,*76
$GPRMC,033639.0,A,3443.4910,N,08633.1255,W,,,171119,,*12
$GPGGA,033709.0,3443.4911,N,08633.1255,W,1,,,236.3,M,,M,,*74
$GPRMC,033709.0,A,3443.4911,N,08633.1255,W,,,171119,,*11
$GPGGA,033739.0,3443.4911,N,08633.1255,W,1,,,236.6,M,,M,,*72
$GPRMC,033739.0,A,3443.4911,N,08633.1255,W,,,171119,,*12
$GPGGA,033809.0,3443.4918,N,08633.1255,W,1,,,240.6,M,,M,,*76
$GPRMC,033809.0,A,3443.4918,N,08633.1255,W,,,171119,,*17
$GPGGA,033839.0,3443.4917,N,08633.1255,W,1,,,240.3,M,,M,,*7F
$GPRMC,033839.0,A,3443.4917,N,08633.1255,W,,,171119,,*1B
$GPGGA,033909.0,3443.4916,N,08633.1252,W,1,,,240.9,M,,M,,*71
$GPRMC,033909.0,A,3443.4916,N,08633.1252,W,,,171119,,*1F
$GPGGA,033939.0,3443.4922,N,08633.1252,W,1,,,237.0,M,,M,,*7C
$GPRMC,033939.0,A,3443.4922,N,08633.1252,W,,,171119,,*1B
$GPGGA,034009.0,3443.4922,N,08633.1252,W,1,,,236.9,M,,M,,*79
$GPRMC,034009.0,A,3443.4922,N,08633.1252,W,,,171119,,*16
$GPGGA,034039.0,3443.4922,N,08633.1252,W,1,,,236.8,M,,M,,*7B
$GPRMC,034039.0,A,3443.4922,N,08633.1252,W,,,171119,,*15
$GPGGA,034109.0,3443.4921,N,08633.1252,W,1,,,236.7,M,,M,,*75
$GPRMC,034109.0,A,3443.4921,N,08633.1252,W,,,171119,,*14
$GPGGA,034139.0,3443.4921,N,08633.1252,W,1,,,236.6,M,,M,,*77
$GPRMC,034139.0,A,3443.4921,N,08633.1252,W,,,171119,,*17
$GPGGA,034209.0,3443.4922,N,08633.1251,W,1,,,236.0,M,,M,,*71
$GPRMC,034209.0,A,3443.4922,N,08633.1251,W,,,171119,,*17
$GPGGA,034239.0,3443.4922,N,08633.1251,W,1,,,235.5,M,,M,,*74
$GPRMC,034239.0,A,3443.4922,N,08633.1251,W,,,171119,,*14
$GPGGA,034309.0,3443.4930,N,08633.1257,W,1,,,232.3,M,,M,,*72
$GPRMC,034309.0,A,3443.4930,N,08633.1257,W,,,171119,,*13
$GPGGA,034339.0,3443.4930,N,08633.1256,W,1,,,232.2,M,,M,,*71
$GPRMC,034339.0,A,3443.4930,N,08633.1256,W,,,171119,,*11
$GPGGA,034409.0,3443.4930,N,08633.1256,W,1,,,232.1,M,,M,,*76
$GPRMC,034409.0,A,3443.4930,N,08633.1256,W,,,171119,,*15
$GPGGA,034439.0,3443.4928,N,08633.1251,W,1,,,235.3,M,,M,,*7E
$GPRMC,034439.0,A,3443.4928,N,08633.1251,W,,,171119,,*18
$GPGGA,034509.0,3443.4928,N,08633.1251,W,1,,,235.2,M,,M,,*7D
$GPRMC,034509.0,A,3443.4928,N,08633.1251,W,,,171119,,*1A
$GPGGA,034539.0,3443.4928,N,08633.1251,W,1,,,235.1,M,,M,,*7D
$GPRMC,034539.0,A,3443.4928,N,08633.1251,W,,,171119,,*19
$GPGGA,034609.0,3443.4927,N,08633.1250,W,1,,,235.0,M,,M,,*72
$GPRMC,034609.0,A,3443.4927,N,08633.1250,W,,,171119,,*17
$GPGGA,034639.0,3443.4927,N,08633.1250,W,1,,,235.0,M,,M,,*71
$GPRMC,034639.0,A,3443.4927,N,08633.1250,W,,,171119,,*14
$GPGGA,034709.0,3443.4927,N,08633.1250,W,1,,,234.9,M,,M,,*7B
$GPRMC,034709.0,A,3443.4927,N,08633.1250,W,,,171119,,*16
$GPGGA,034739.0,3443.4924,N,08633.1186,W,1,,,220.7,M,,M,,*78
$GPRMC,034739.0,A,3443.4924,N,08633.1186,W,,,171119,,*1E
$GPGGA,034809.0,3443.4929,N,08633.1190,W,1,,,217.9,M,,M,,*74
$GPRMC,034809.0,A,3443.4929,N,08633.1190,W,,,171119,,*18
$GPGGA,034839.0,3443.4929,N,08633.1190,W,1,,,214.6,M,,M,,*7B
$GPRMC,034839.0,A,3443.4929,N,08633.1190,W,,,171119,,*1B
$GPGGA,034909.0,3443.4932,N,08633.1189,W,1,,,198.9,M,,M,,*73
$GPRMC,034909.0,A,3443.4932,N,08633.1189,W,,,171119,,*1B
$GPGGA,034939.0,3443.4930,N,08633.1181,W,1,,,197.5,M,,M,,*79
$GPRMC,034939.0,A,3443.4930,N,08633.1181,W,,,171119,,*12
$GPGGA,035009.0,3443.4931,N,08633.1182,W,1,,,200.0,M,,M,,*78
$GPRMC,035009.0,A,3443.4931,N,08633.1182,W,,,171119,,*1B
$GPGGA,035039.0,3443.4930,N,08633.1182,W,1,,,206.6,M,,M,,*7A
$GPRMC,035039.0,A,3443.4930,N,08633.1182,W,,,171119,,*19
$GPGGA,035109.0,3443.4929,N,08633.1182,W,1,,,210.3,M,,M,,*72
$GPRMC,035109.0,A,3443.4929,N,08633.1182,W,,,171119,,*13
$GPGGA,035139.0,3443.4932,N,08633.1193,W,1,,,208.0,M,,M,,*71
$GPRMC,035139.0,A,3443.4932,N,08633.1193,W,,,171119,,*1A
$GPGGA,035209.0,3443.4935,N,08633.1200,W,1,,,207.6,M,,M,,*76
$GPRMC,035209.0,A,3443.4935,N,08633.1200,W,,,171119,,*14
$GPGGA,035239.1,3443.4925,N,08633.1215,W,1,,,213.9,M,,M,,*7B
$GPRMC,035239.1,A,3443.4925,N,08633.1215,W,,,171119,,*13
$GPGGA,035309.0,3443.4925,N,08633.1216,W,1,,,214.6,M,,M,,*73
$GPRMC,035309.0,A,3443.4925,N,08633.1216,W,,,171119,,*13
$GPGGA,035339.0,3443.4927,N,08633.1154,W,1,,,188.3,M,,M,,*74
$GPRMC,035339.0,A,3443.4927,N,08633.1154,W,,,171119,,*17
$GPGGA,035409.0,3443.4918,N,08633.1181,W,1,,,193.3,M,,M,,*7E
$GPRMC,035409.0,A,3443.4918,N,08633.1181,W,,,171119,,*17
$GPGGA,035439.0,3443.4918,N,08633.1190,W,1,,,199.7,M,,M,,*73
$GPRMC,035439.0,A,3443.4918,N,08633.1190,W,,,171119,,*14
$GPGGA,035509.0,3443.4918,N,08633.1192,W,1,,,205.4,M,,M,,*76
$GPRMC,035509.0,A,3443.4918,N,08633.1192,W,,,171119,,*14
$GPGGA,035539.0,3443.4917,N,08633.1192,W,1,,,208.0,M,,M,,*73
$GPRMC,035539.0,A,3443.4917,N,08633.1192,W,,,171119,,*18
$GPGGA,035609.0,3443.4918,N,08633.1193,W,1,,,205.9,M,,M,,*79
$GPRMC,035609.0,A,3443.4918,N,08633.1193,W,,,171119,,*16
$GPGGA,035639.0,3443.4919,N,08633.1193,W,1,,,204.1,M,,M,,*72
$GPRMC,035639.0,A,3443.4919,N,08633.1193,W,,,171119,,*14
$GPGGA,035709.0,3443.4920,N,08633.1192,W,1,,,202.3,M,,M,,*7F
$GPRMC,035709.0,A,3443.4920,N,08633.1192,W,,,171119,,*1D
$GPGGA,035739.0,3443.4922,N,08633.1194,W,1,,,202.8,M,,M,,*73
$GPRMC,035739.0,A,3443.4922,N,08633.1194,W,,,171119,,*1A
$GPGGA,035809.0,3443.4923,N,08633.1195,W,1,,,204.5,M,,M,,*74
$GPRMC,035809.0,A,3443.4923,N,08633.1195,W,,,171119,,*16
$GPGGA,035839.0,3443.4918,N,08633.1211,W,1,,,209.2,M,,M,,*7A
$GPRMC,035839.0,A,3443.4918,N,08633.1211,W,,,171119,,*12
$GPGGA,035909.0,3443.4918,N,08633.1211,W,1,,,209.2,M,,M,,*78
$GPRMC,035909.0,A,3443.4918,N,08633.1211,W,,,171119,,*10
$GPGGA,035939.0,3443.4918,N,08633.1212,W,1,,,209.7,M,,M,,*7D
$GPRMC,035939.0,A,3443.4918,N,08633.1212,W,,,171119,,*10
$GPGGA,040009.0,3443.4919,N,08633.1212,W,1,,,209.7,M,,M,,*74
$GPRMC,040009.0,A,3443.4919,N,08633.1212,W,,,171119,,*19
$GPGGA,040039.0,3443.4919,N,08633.1215,W,1,,,209.9,M,,M,,*7E
$GPRMC,040039.0,A,3443.4919,N,08633.1215,W,,,171119,,*1D
$GPGGA,040109.0,3443.4903,N,08633.1216,W,1,,,222.9,M,,M,,*7D
$GPRMC,040109.0,A,3443.4903,N,08633.1216,W,,,171119,,*17
$GPGGA,040139.0,3443.4913,N,08633.1232,W,1,,,225.8,M,,M,,*7F
$GPRMC,040139.0,A,3443.4913,N,08633.1232,W,,,171119,,*13
$GPGGA,040209.0,3443.4914,N,08633.1231,W,1,,,223.0,M,,M,,*75
$GPRMC,040209.0,A,3443.4914,N,08633.1231,W,,,171119,,*17
$GPGGA,040239.0,3443.4915,N,08633.1231,W,1,,,222.6,M,,M,,*70
$GPRMC,040239.0,A,3443.4915,N,08633.1231,W,,,171119,,*15
$GPGGA,040309.0,3443.4925,N,08633.1226,W,1,,,220.2,M,,M,,*71
$GPRMC,040309.0,A,3443.4925,N,08633.1226,W,,,171119,,*12
$GPGGA,040339.0,3443.4933,N,08633.1224,W,1,,,217.9,M,,M,,*78
$GPRMC,040339.0,A,3443.4933,N,08633.1224,W,,,171119,,*14
$GPGGA,040409.0,3443.4941,N,08633.1221,W,1,,,210.3,M,,M,,*71
$GPRMC,040409.0,A,3443.4941,N,08633.1221,W,,,171119,,*10
$GPGGA,040439.0,3443.4957,N,08633.1181,W,1,,,194.1,M,,M,,*71
$GPRMC,040439.0,A,3443.4957,N,08633.1181,W,,,171119,,*1D
$GPGGA,040509.0,3443.4973,N,08633.1191,W,1,,,204.0,M,,M,,*7F
$GPRMC,040509.0,A,3443.4973,N,08633.1191,W,,,171119,,*18
$GPGGA,040539.0,3443.4987,N,08633.1147,W,1,,,189.0,M,,M,,*7A
$GPRMC,040539.0,A,3443.4987,N,08633.1147,W,,,171119,,*1B
$GPGGA,040609.0,3443.4990,N,08633.1165,W,1,,,206.9,M,,M,,*71
$GPRMC,040609.0,A,3443.4990,N,08633.1165,W,,,171119,,*1D
$GPGGA,040639.0,3443.4988,N,08633.1172,W,1,,,212.0,M,,M,,*71
$GPRMC,040639.0,A,3443.4988,N,08633.1172,W,,,171119,,*11
$GPGGA,040709.0,3443.4986,N,08633.1177,W,1,,,210.3,M,,M,,*79
$GPRMC,040709.0,A,3443.4986,N,08633.1177,W,,,171119,,*18
$GPGGA,040739.0,3443.4984,N,08633.1181,W,1,,,210.9,M,,M,,*7B
$GPRMC,040739.0,A,3443.4984,N,08633.1181,W,,,171119,,*10
$GPGGA,040809.0,3443.4988,N,08633.1183,W,1,,,210.1,M,,M,,*71
$GPRMC,040809.0,A,3443.4988,N,08633.1183,W,,,171119,,*12
$GPGGA,040839.0,3443.4982,N,08633.1186,W,1,,,211.2,M,,M,,*7F
$GPRMC,040839.0,A,3443.4982,N,08633.1186,W,,,171119,,*1E
$GPGGA,040909.0,3443.4981,N,08633.1188,W,1,,,212.2,M,,M,,*73
$GPRMC,040909.0,A,3443.4981,N,08633.1188,W,,,171119,,*11
$GPGGA,040939.0,3443.4980,N,08633.1194,W,1,,,213.0,M,,M,,*7F
$GPRMC,040939.0,A,3443.4980,N,08633.1194,W,,,171119,,*1E
$GPGGA,041009.0,3443.4978,N,08633.1202,W,1,,,214.7,M,,M,,*7F
$GPRMC,041009.0,A,3443.4978,N,08633.1202,W,,,171119,,*1E
$GPGGA,041039.0,3443.4975,N,08633.1205,W,1,,,212.8,M,,M,,*7F
$GPRMC,041039.0,A,3443.4975,N,08633.1205,W,,,171119,,*17
$GPGGA,041109.0,3443.4974,N,08633.1207,W,1,,,212.7,M,,M,,*71
$GPRMC,041109.0,A,3443.4974,N,08633.1207,W,,,171119,,*16
$GPGGA,041139.0,3443.4973,N,08633.1207,W,1,,,212.3,M,,M,,*71
$GPRMC,041139.0,A,3443.4973,N,08633.1207,W,,,171119,,*12
$GPGGA,041209.0,3443.4971,N,08633.1208,W,1,,,212.4,M,,M,,*7B
$GPRMC,041209.0,A,3443.4971,N,08633.1208,W,,,171119,,*1F
$GPGGA,041239.0,3443.4967,N,08633.1209,W,1,,,212.2,M,,M,,*78
$GPRMC,041239.0,A,3443.4967,N,08633.1209,W,,,171119,,*1A
$GPGGA,041309.0,3443.4962,N,08633.1212,W,1,,,211.8,M,,M,,*7C
$GPRMC,041309.0,A,3443.4962,N,08633.1212,W,,,171119,,*17
$GPGGA,041339.0,3443.4959,N,08633.1216,W,1,,,212.7,M,,M,,*7F
$GPRMC,041339.0,A,3443.4959,N,08633.1216,W,,,171119,,*18
$GPGGA,041409.0,3443.4957,N,08633.1219,W,1,,,213.2,M,,M,,*7E
$GPRMC,041409.0,A,3443.4957,N,08633.1219,W,,,171119,,*1D
$GPGGA,041439.0,3443.4955,N,08633.1220,W,1,,,213.2,M,,M,,*75
$GPRMC,041439.0,A,3443.4955,N,08633.1220,W,,,171119,,*16
$GPGGA,041509.0,3443.4954,N,08633.1220,W,1,,,213.0,M,,M,,*74
$GPRMC,041509.0,A,3443.4954,N,08633.1220,W,,,171119,,*15
$GPGGA,041539.0,3443.4953,N,08633.1221,W,1,,,213.0,M,,M,,*71
$GPRMC,041539.0,A,3443.4953,N,08633.1221,W,,,171119,,*10
$GPGGA,041609.0,3443.4948,N,08633.1240,W,1,,,219.0,M,,M,,*76
$GPRMC,041609.0,A,3443.4948,N,08633.1240,W,,,171119,,*1D
$GPGGA,041639.0,3443.4948,N,08633.1239,W,1,,,218.0,M,,M,,*7A
$GPRMC,041639.0,A,3443.4948,N,08633.1239,W,,,171119,,*10
$GPGGA,041709.0,3443.4949,N,08633.1239,W,1,,,217.5,M,,M,,*73
$GPRMC,041709.0,A,3443.4949,N,08633.1239,W,,,171119,,*13
$GPGGA,041739.0,3443.4948,N,08633.1239,W,1,,,217.2,M,,M,,*76
$GPRMC,041739.0,A,3443.4948,N,08633.1239,W,,,171119,,*11
$GPGGA,041809.0,3443.4948,N,08633.1239,W,1,,,217.1,M,,M,,*79
$GPRMC,041809.0,A,3443.4948,N,08633.1239,W,,,171119,,*1D
$GPGGA,041839.0,3443.4947,N,08633.1239,W,1,,,217.0,M,,M,,*74
$GPRMC,041839.0,A,3443.4947,N,08633.1239,W,,,171119,,*11
$GPGGA,041909.0,3443.4935,N,08633.1242,W,1,,,218.8,M,,M,,*78
$GPRMC,041909.0,A,3443.4935,N,08633.1242,W,,,171119,,*1A
$GPGGA,041939.0,3443.4933,N,08633.1244,W,1,,,219.6,M,,M,,*74
$GPRMC,041939.0,A,3443.4933,N,08633.1244,W,,,171119,,*19
$GPGGA,042009.0,3443.4933,N,08633.1244,W,1,,,219.2,M,,M,,*79
$GPRMC,042009.0,A,3443.4933,N,08633.1244,W,,,171119,,*10
$GPGGA,042039.0,3443.4933,N,08633.1244,W,1,,,219.9,M,,M,,*71
$GPRMC,042039.0,A,3443.4933,N,08633.1244,W,,,171119,,*13
$GPGGA,042109.0,3443.4933,N,08633.1244,W,1,,,219.3,M,,M,,*79
$GPRMC,042109.0,A,3443.4933,N,08633.1244,W,,,171119,,*11
$GPGGA,042119.1,3443.4932,N,08633.1244,W,1,,,218.9,M,,M,,*73
$GPRMC,042119.1,A,3443.4932,N,08633.1244,W,,,171119,,*10
$GPGGA,042146.0,3443.4872,N,08633.1300,W,1,,,219.0,M,,M,,*74
$GPRMC,042146.0,A,3443.4872,N,08633.1300,W,,,171119,,*1F
$GPGGA,042216.0,3443.4891,N,08633.1274,W,1,,,218.0,M,,M,,*7C
$GPRMC,042216.0,A,3443.4891,N,08633.1274,W,,,171119,,*16
$GPGGA,042246.0,3443.4895,N,08633.1271,W,1,,,216.7,M,,M,,*71
$GPRMC,042246.0,A,3443.4895,N,08633.1271,W,,,171119,,*12
$GPGGA,042316.0,3443.4902,N,08633.1266,W,1,,,216.2,M,,M,,*79
$GPRMC,042316.0,A,3443.4902,N,08633.1266,W,,,171119,,*1F
$GPGGA,042346.0,3443.4902,N,08633.1264,W,1,,,216.8,M,,M,,*74
$GPRMC,042346.0,A,3443.4902,N,08633.1264,W,,,171119,,*18
$GPGGA,042416.0,3443.4901,N,08633.1260,W,1,,,218.9,M,,M,,*7E
$GPRMC,042416.0,A,3443.4901,N,08633.1260,W,,,171119,,*1D
$GPGGA,042422.9,3443.4862,N,08633.1301,W,1,,,218.9,M,,M,,*72
$GPRMC,042422.9,A,3443.4862,N,08633.1301,W,,,171119,,*11
$GPGGA,042452.0,3443.4894,N,08633.1330,W,1,,,217.4,M,,M,,*75
$GPRMC,042452.0,A,3443.4894,N,08633.1330,W,,,171119,,*14
$GPGGA,042522.0,3443.4895,N,08633.1325,W,1,,,217.1,M,,M,,*73
$GPRMC,042522.0,A,3443.4895,N,08633.1325,W,,,171119,,*17
$GPGGA,042552.0,3443.4895,N,08633.1323,W,1,,,217.3,M,,M,,*70
$GPRMC,042552.0,A,3443.4895,N,08633.1323,W,,,171119,,*16
$GPGGA,042622.0,3443.4908,N,08633.1318,W,1,,,216.6,M,,M,,*7D
$GPRMC,042622.0,A,3443.4908,N,08633.1318,W,,,171119,,*1F
$GPGGA,042652.0,3443.4849,N,08633.1345,W,1,,,232.8,M,,M,,*7E
$GPRMC,042652.0,A,3443.4849,N,08633.1345,W,,,171119,,*14
$GPGGA,042722.0,3443.4796,N,08633.1180,W,1,,,224.7,M,,M,,*76
$GPRMC,042722.0,A,3443.4796,N,08633.1180,W,,,171119,,*14
$GPGGA,042752.0,3443.4783,N,08633.1206,W,1,,,216.8,M,,M,,*76
$GPRMC,042752.0,A,3443.4783,N,08633.1206,W,,,171119,,*1A
$GPGGA,042823.1,3443.4746,N,08633.1216,W,1,,,217.2,M,,M,,*7D
$GPRMC,042823.1,A,3443.4746,N,08633.1216,W,,,171119,,*1A
$GPGGA,042854.1,3443.4792,N,08633.1169,W,1,,,222.4,M,,M,,*7F
$GPRMC,042854.1,A,3443.4792,N,08633.1169,W,,,171119,,*18
$GPGGA,042924.1,3443.4785,N,08633.1173,W,1,,,220.2,M,,M,,*70
$GPRMC,042924.1,A,3443.4785,N,08633.1173,W,,,171119,,*13
$GPGGA,042954.1,3443.4780,N,08633.1177,W,1,,,219.4,M,,M,,*7A
$GPRMC,042954.1,A,3443.4780,N,08633.1177,W,,,171119,,*15
$GPGGA,043024.1,3443.4778,N,08633.1179,W,1,,,219.2,M,,M,,*7A
$GPRMC,043024.1,A,3443.4778,N,08633.1179,W,,,171119,,*13
$GPGGA,043054.1,3443.4777,N,08633.1180,W,1,,,219.6,M,,M,,*70
$GPRMC,043054.1,A,3443.4777,N,08633.1180,W,,,171119,,*1D
$GPGGA,043124.1,3443.4777,N,08633.1179,W,1,,,218.7,M,,M,,*70
$GPRMC,043124.1,A,3443.4777,N,08633.1179,W,,,171119,,*1D
$GPGGA,043154.1,3443.4776,N,08633.1181,W,1,,,218.5,M,,M,,*73
$GPRMC,043154.1,A,3443.4776,N,08633.1181,W,,,171119,,*1C
$GPGGA,043224.0,3443.4775,N,08633.1189,W,1,,,216.9,M,,M,,*7F
$GPRMC,043224.0,A,3443.4775,N,08633.1189,W,,,171119,,*12
$GPGGA,043254.1,3443.4775,N,08633.1188,W,1,,,216.7,M,,M,,*76
$GPRMC,043254.1,A,3443.4775,N,08633.1188,W,,,171119,,*15
$GPGGA,043324.0,3443.4775,N,08633.1188,W,1,,,216.7,M,,M,,*71
$GPRMC,043324.0,A,3443.4775,N,08633.1188,W,,,171119,,*12
$GPGGA,043354.1,3443.4775,N,08633.1188,W,1,,,217.4,M,,M,,*75
$GPRMC,043354.1,A,3443.4775,N,08633.1188,W,,,171119,,*14
$GPGGA,043424.1,3443.4774,N,08633.1188,W,1,,,218.5,M,,M,,*7A
$GPRMC,043424.1,A,3443.4774,N,08633.1188,W,,,171119,,*15
$GPGGA,043454.0,3443.4796,N,08633.1212,W,1,,,224.6,M,,M,,*7C
$GPRMC,043454.0,A,3443.4796,N,08633.1212,W,,,171119,,*1F
$GPGGA,043524.0,3443.4861,N,08633.1272,W,1,,,222.7,M,,M,,*7C
$GPRMC,043524.0,A,3443.4861,N,08633.1272,W,,,171119,,*18
$GPGGA,043554.0,3443.4862,N,08633.1309,W,1,,,222.6,M,,M,,*74
$GPRMC,043554.0,A,3443.4862,N,08633.1309,W,,,171119,,*11
$GPGGA,043624.0,3443.4862,N,08633.1310,W,1,,,216.6,M,,M,,*7F
$GPRMC,043624.0,A,3443.4862,N,08633.1310,W,,,171119,,*1D
$GPGGA,043654.1,3443.4862,N,08633.1310,W,1,,,214.4,M,,M,,*79
$GPRMC,043654.1,A,3443.4862,N,08633.1310,W,,,171119,,*1B
$GPGGA,043724.0,3443.4871,N,08633.1306,W,1,,,214.9,M,,M,,*76
$GPRMC,043724.0,A,3443.4871,N,08633.1306,W,,,171119,,*19
$GPGGA,043754.0,3443.4859,N,08633.1329,W,1,,,223.2,M,,M,,*79
$GPRMC,043754.0,A,3443.4859,N,08633.1329,W,,,171119,,*19
$GPGGA,043824.0,3443.4878,N,08633.1342,W,1,,,225.4,M,,M,,*7F
$GPRMC,043824.0,A,3443.4878,N,08633.1342,W,,,171119,,*1F
$GPGGA,043854.1,3443.4898,N,08633.1298,W,1,,,223.0,M,,M,,*73
$GPRMC,043854.1,A,3443.4898,N,08633.1298,W,,,171119,,*11
